data/KSAT/Skyhopper_Svalsat_AER_1month.csv

"Time (UTCG)","Azimuth (deg)","Elevation (deg)","Range (km)"
1 Jun 2022 01:19:53.654,321.713,-25.329,1863.078873
1 Jun 2022 01:20:53.000,311.323,-27.532,1564.588380
1 Jun 2022 01:21:53.000,295.754,-30.329,1338.349280
1 Jun 2022 01:22:53.000,274.705,-32.184,1231.680933
1 Jun 2022 01:23:53.000,252.287,-31.371,1275.435845
1 Jun 2022 01:24:53.000,234.212,-28.716,1455.954132
1 Jun 2022 01:25:53.000,221.747,-26.151,1730.338218
1 Jun 2022 01:26:18.466,217.802,-25.317,1865.341150
1 Jun 2022 02:54:09.384,331.433,-25.346,1860.048043
1 Jun 2022 02:55:09.000,323.195,-28.055,1513.687742
1 Jun 2022 02:56:09.000,309.443,-32.382,1221.632424
1 Jun 2022 02:57:09.000,286.728,-37.005,1037.030721
1 Jun 2022 02:58:09.000,257.171,-37.521,1020.898994
1 Jun 2022 02:59:09.000,232.768,-33.248,1180.232603
1 Jun 2022 03:00:09.000,217.701,-28.690,1458.096604
1 Jun 2022 03:01:09.000,208.693,-25.696,1799.531939
1 Jun 2022 03:01:19.946,207.461,-25.314,1865.950553
1 Jun 2022 04:28:45.300,346.506,-25.362,1857.067480
1 Jun 2022 04:29:45.000,342.497,-28.618,1464.133518
1 Jun 2022 04:30:45.000,334.845,-35.224,1098.651923
1 Jun 2022 04:31:45.000,316.411,-47.389,806.412520
1 Jun 2022 04:32:45.000,266.419,-57.360,689.844155
1 Jun 2022 04:33:45.000,219.657,-46.081,827.359445
1 Jun 2022 04:34:45.000,202.815,-34.436,1129.284777
1 Jun 2022 04:35:45.000,195.643,-28.221,1498.522048
1 Jun 2022 04:36:40.716,192.018,-25.312,1866.204836
1 Jun 2022 06:04:05.189,4.360,-25.369,1855.794341
1 Jun 2022 06:05:05.000,5.998,-28.748,1453.320552
1 Jun 2022 06:06:05.000,9.216,-35.979,1071.313014
1 Jun 2022 06:07:05.000,18.160,-51.688,748.031568
1 Jun 2022 06:08:05.000,81.047,-75.106,591.704771
1 Jun 2022 06:09:05.000,158.377,-54.079,721.264449
1 Jun 2022 06:10:05.000,168.697,-37.102,1033.953026
1 Jun 2022 06:11:05.000,172.193,-29.272,1412.152725
1 Jun 2022 06:12:05.000,173.929,-25.607,1814.249679
1 Jun 2022 06:12:12.641,174.089,-25.312,1866.325207
1 Jun 2022 07:40:20.792,23.415,-25.362,1857.148186
1 Jun 2022 07:41:20.000,30.485,-28.172,1502.982678
1 Jun 2022 07:42:20.000,42.726,-33.018,1190.856185
1 Jun 2022 07:43:20.000,64.736,-39.163,973.815648
1 Jun 2022 07:44:20.000,97.476,-41.219,922.694095
1 Jun 2022 07:45:20.000,125.921,-36.253,1061.867474
1 Jun 2022 07:46:20.000,142.547,-30.420,1332.517291
1 Jun 2022 07:47:20.000,151.890,-26.594,1671.104633
1 Jun 2022 07:47:51.954,155.231,-25.312,1866.358094
1 Jun 2022 09:17:31.384,42.292,-25.343,1860.606938
1 Jun 2022 09:18:31.000,53.325,-27.264,1592.794865
1 Jun 2022 09:19:31.000,68.827,-29.398,1402.720554
1 Jun 2022 09:20:31.000,88.226,-30.494,1327.824025
1 Jun 2022 09:21:31.000,107.898,-29.612,1387.154326
1 Jun 2022 09:22:31.000,123.939,-27.526,1565.263897
1 Jun 2022 09:23:31.000,135.501,-25.531,1827.108531
1 Jun 2022 09:23:38.969,136.747,-25.312,1866.379807
1 Jun 2022 10:55:17.823,58.374,-25.323,1864.181534
1 Jun 2022 10:56:17.000,71.150,-26.408,1695.131130
1 Jun 2022 10:57:17.000,86.418,-27.033,1618.462280
1 Jun 2022 10:58:17.000,102.170,-26.759,1650.704364
1 Jun 2022 10:59:17.000,116.207,-25.781,1785.822720
1 Jun 2022 10:59:41.606,121.168,-25.312,1866.266653
1 Jun 2022 12:32:47.368,64.231,-25.314,1865.967116
1 Jun 2022 12:33:47.000,77.452,-26.133,1733.018430
1 Jun 2022 12:34:47.000,92.306,-26.398,1696.450307
1 Jun 2022 12:35:47.000,106.861,-25.925,1763.572587
1 Jun 2022 12:36:28.582,115.856,-25.316,1865.614426
1 Jun 2022 14:09:15.706,54.471,-25.312,1866.319369
1 Jun 2022 14:10:15.000,66.840,-26.624,1667.323224
1 Jun 2022 14:11:15.000,82.305,-27.603,1557.423080
1 Jun 2022 14:12:15.000,99.052,-27.582,1559.488842
1 Jun 2022 14:13:15.000,114.433,-26.578,1673.128781
1 Jun 2022 14:14:11.328,126.156,-25.329,1863.178225
1 Jun 2022 15:45:11.556,37.488,-25.312,1866.376217
1 Jun 2022 15:46:11.000,47.365,-27.510,1566.883652
1 Jun 2022 15:47:11.000,62.227,-30.400,1333.796774
1 Jun 2022 15:48:11.000,82.778,-32.573,1212.157669
1 Jun 2022 15:49:11.000,105.505,-32.102,1235.925778
1 Jun 2022 15:50:11.000,124.377,-29.467,1397.665052
1 Jun 2022 15:51:11.000,137.512,-26.708,1656.963971
1 Jun 2022 15:51:50.104,143.615,-25.349,1859.391428
1 Jun 2022 17:20:55.773,18.715,-25.312,1866.348393
1 Jun 2022 17:21:55.000,24.076,-28.296,1491.864412
1 Jun 2022 17:22:55.000,33.864,-33.986,1147.855749
1 Jun 2022 17:23:55.000,54.249,-42.997,884.176738
1 Jun 2022 17:24:55.000,94.004,-48.644,787.818226
1 Jun 2022 17:25:55.000,131.246,-41.610,913.809910
1 Jun 2022 17:26:55.000,149.501,-32.965,1193.374727
1 Jun 2022 17:27:55.000,158.430,-27.732,1544.519037
1 Jun 2022 17:28:44.093,162.728,-25.365,1856.438336
1 Jun 2022 18:56:32.895,0.019,-25.312,1866.288538
1 Jun 2022 18:57:32.000,359.778,-28.600,1465.623127
1 Jun 2022 18:58:32.000,359.305,-35.778,1078.425104
1 Jun 2022 18:59:32.000,357.977,-51.934,745.106499
1 Jun 2022 19:00:32.000,332.190,-85.310,572.095066
1 Jun 2022 19:01:32.000,184.166,-56.993,693.092380
1 Jun 2022 19:02:32.000,182.385,-37.987,1006.894713
1 Jun 2022 19:03:32.000,181.835,-29.606,1387.597251
1 Jun 2022 19:04:32.000,181.569,-25.742,1791.999017
1 Jun 2022 19:04:41.331,181.540,-25.368,1855.942918
1 Jun 2022 20:32:01.863,342.678,-25.313,1866.144624
1 Jun 2022 20:33:01.000,337.232,-28.336,1488.311754
1 Jun 2022 20:34:01.000,327.209,-34.137,1141.524306
1 Jun 2022 20:35:01.000,306.145,-43.281,878.453499
1 Jun 2022 20:36:01.000,265.449,-48.531,789.437680
1 Jun 2022 20:37:01.000,228.823,-41.057,926.460927
1 Jun 2022 20:38:01.000,211.188,-32.517,1214.914026
1 Jun 2022 20:39:01.000,202.548,-27.453,1572.761758
1 Jun 2022 20:39:45.317,198.712,-25.357,1857.907365
1 Jun 2022 22:07:17.550,328.516,-25.315,1865.812689
1 Jun 2022 22:08:17.000,319.430,-27.813,1536.592854
1 Jun 2022 22:09:17.000,304.875,-31.503,1268.010778
1 Jun 2022 22:10:17.000,282.745,-34.870,1112.132980
1 Jun 2022 22:11:17.000,256.376,-34.722,1117.900489
1 Jun 2022 22:12:17.000,234.752,-31.236,1283.107630
1 Jun 2022 22:13:17.000,220.647,-27.604,1557.263497
1 Jun 2022 22:14:11.640,212.413,-25.340,1861.100794
1 Jun 2022 23:42:10.771,320.541,-25.319,1864.982120
1 Jun 2022 23:43:10.000,309.903,-27.433,1574.819878
1 Jun 2022 23:44:10.000,294.209,-30.019,1358.836942
1 Jun 2022 23:45:10.000,273.527,-31.592,1263.133972
1 Jun 2022 23:46:10.000,251.944,-30.705,1314.674316
1 Jun 2022 23:47:10.000,234.563,-28.226,1498.141368
1 Jun 2022 23:48:10.000,222.440,-25.867,1772.398814
1 Jun 2022 23:48:27.481,219.713,-25.325,1863.826978
2 Jun 2022 01:16:36.860,321.689,-25.329,1863.089367
2 Jun 2022 01:17:36.000,311.338,-27.522,1565.658444
2 Jun 2022 01:18:36.000,295.785,-30.315,1339.267728
2 Jun 2022 01:19:36.000,274.757,-32.172,1232.315294
2 Jun 2022 01:20:36.000,252.347,-31.366,1275.696479
2 Jun 2022 01:21:36.000,234.264,-28.717,1455.874697
2 Jun 2022 01:22:36.000,221.789,-26.154,1730.014062
2 Jun 2022 01:23:01.539,217.829,-25.317,1865.336767
2 Jun 2022 02:50:52.570,331.380,-25.346,1860.061544
2 Jun 2022 02:51:52.000,323.161,-28.042,1514.933162
2 Jun 2022 02:52:52.000,309.417,-32.356,1222.967025
2 Jun 2022 02:53:52.000,286.736,-36.964,1038.355813
2 Jun 2022 02:54:52.000,257.232,-37.485,1021.993922
2 Jun 2022 02:55:52.000,232.844,-33.232,1180.963215
2 Jun 2022 02:56:52.000,217.767,-28.685,1458.513955
2 Jun 2022 02:57:52.000,208.747,-25.695,1799.730710
2 Jun 2022 02:58:02.921,207.516,-25.314,1865.962031
2 Jun 2022 04:25:28.346,346.437,-25.362,1857.077262
2 Jun 2022 04:26:28.000,342.411,-28.613,1464.571139
2 Jun 2022 04:27:28.000,334.726,-35.207,1099.282996
2 Jun 2022 04:28:28.000,316.249,-47.328,807.342936
2 Jun 2022 04:29:28.000,266.414,-57.226,691.020730
2 Jun 2022 04:30:28.000,219.799,-46.017,828.420235
2 Jun 2022 04:31:28.000,202.924,-34.415,1130.124065
2 Jun 2022 04:32:28.000,195.725,-28.214,1499.203823
2 Jun 2022 04:33:23.628,192.088,-25.312,1866.204717
2 Jun 2022 06:00:48.022,4.283,-25.369,1855.794394
2 Jun 2022 06:01:48.000,5.903,-28.763,1452.147620
2 Jun 2022 06:02:48.000,9.081,-36.013,1070.118934
2 Jun 2022 06:03:48.000,17.938,-51.782,746.908721
2 Jun 2022 06:04:48.000,81.306,-75.326,591.048682
2 Jun 2022 06:05:48.000,158.709,-54.070,721.366451
2 Jun 2022 06:06:48.000,168.863,-37.085,1034.478579
2 Jun 2022 06:07:48.000,172.303,-29.262,1412.874789
2 Jun 2022 06:08:48.000,174.011,-25.602,1815.076679
2 Jun 2022 06:08:55.519,174.166,-25.312,1866.324451
2 Jun 2022 07:37:03.388,23.336,-25.362,1857.137400
2 Jun 2022 07:38:03.000,30.447,-28.201,1500.388599
2 Jun 2022 07:39:03.000,42.711,-33.074,1188.271685
2 Jun 2022 07:40:03.000,64.799,-39.249,971.520589
2 Jun 2022 07:41:03.000,97.657,-41.284,921.205206
2 Jun 2022 07:42:03.000,126.109,-36.267,1061.397381
2 Jun 2022 07:43:03.000,142.689,-30.416,1332.806056
2 Jun 2022 07:44:03.000,151.996,-26.588,1671.867567
2 Jun 2022 07:44:34.803,155.308,-25.312,1866.356924
2 Jun 2022 09:14:13.776,42.217,-25.343,1860.590560
2 Jun 2022 09:15:13.000,53.152,-27.254,1593.909805
2 Jun 2022 09:16:13.000,68.620,-29.399,1402.672277
2 Jun 2022 09:17:13.000,88.020,-30.517,1326.389170
2 Jun 2022 09:18:13.000,107.739,-29.650,1384.466182
2 Jun 2022 09:19:13.000,123.839,-27.560,1561.731263
2 Jun 2022 09:20:13.000,135.445,-25.554,1823.113845
2 Jun 2022 09:20:21.778,136.820,-25.312,1866.379650
2 Jun 2022 10:52:00.148,58.322,-25.323,1864.169723
2 Jun 2022 10:53:00.000,71.254,-26.422,1693.345621
2 Jun 2022 10:54:00.000,86.544,-27.042,1617.487522
2 Jun 2022 10:55:00.000,102.299,-26.759,1650.632055
2 Jun 2022 10:56:00.000,116.322,-25.776,1786.574024
2 Jun 2022 10:56:24.312,121.219,-25.312,1866.267565
2 Jun 2022 12:29:29.906,64.242,-25.314,1865.963835
2 Jun 2022 12:30:29.000,77.335,-26.127,1733.887821
2 Jun 2022 12:31:29.000,92.181,-26.398,1696.478395
2 Jun 2022 12:32:29.000,106.745,-25.930,1762.771346
2 Jun 2022 12:33:11.026,115.843,-25.316,1865.619912
2 Jun 2022 14:05:58.458,54.532,-25.312,1866.318879
2 Jun 2022 14:06:58.000,66.965,-26.626,1667.060314
2 Jun 2022 14:07:58.000,82.438,-27.596,1558.043808
2 Jun 2022 14:08:58.000,99.171,-27.567,1561.003931
2 Jun 2022 14:09:58.000,114.522,-26.561,1675.366580
2 Jun 2022 14:10:53.650,126.092,-25.329,1863.191984
2 Jun 2022 15:41:54.382,37.563,-25.312,1866.376277
2 Jun 2022 15:42:54.000,47.490,-27.514,1566.476696
2 Jun 2022 15:43:54.000,62.379,-30.394,1334.170771
2 Jun 2022 15:44:54.000,82.929,-32.546,1213.498606
2 Jun 2022 15:45:54.000,105.608,-32.059,1238.140663
2 Jun 2022 15:46:54.000,124.424,-29.430,1400.406131
2 Jun 2022 15:47:54.000,137.523,-26.684,1659.922564
2 Jun 2022 15:48:32.553,143.538,-25.349,1859.406805
2 Jun 2022 17:17:38.632,18.793,-25.312,1866.348541
2 Jun 2022 17:18:38.000,24.192,-28.303,1491.221722
2 Jun 2022 17:19:38.000,34.029,-33.990,1147.684368
2 Jun 2022 17:20:38.000,54.481,-42.967,884.807064
2 Jun 2022 17:21:38.000,94.168,-48.529,789.467754
2 Jun 2022 17:22:38.000,131.228,-41.511,916.029011
2 Jun 2022 17:23:38.000,149.440,-32.916,1195.670826
2 Jun 2022 17:24:38.000,158.369,-27.709,1546.741639
2 Jun 2022 17:25:26.764,162.649,-25.365,1856.447059
2 Jun 2022 18:53:15.782,0.094,-25.312,1866.288916
2 Jun 2022 18:54:15.000,359.876,-28.609,1464.870904
2 Jun 2022 18:55:15.000,359.449,-35.797,1077.723274
2 Jun 2022 18:56:15.000,358.248,-51.982,744.547366
2 Jun 2022 18:57:15.000,334.208,-85.475,571.949798
2 Jun 2022 18:58:15.000,183.827,-56.953,693.441625
2 Jun 2022 18:59:15.000,182.225,-37.968,1007.448664
2 Jun 2022 19:00:15.000,181.730,-29.597,1388.219140
2 Jun 2022 19:01:15.000,181.491,-25.738,1792.644332
2 Jun 2022 19:01:24.236,181.465,-25.368,1855.939287
2 Jun 2022 20:28:44.791,342.744,-25.313,1866.145486
2 Jun 2022 20:29:44.000,337.308,-28.343,1487.694889
2 Jun 2022 20:30:44.000,327.306,-34.158,1140.684003
2 Jun 2022 20:31:44.000,306.249,-43.339,877.310942
2 Jun 2022 20:32:44.000,265.443,-48.624,788.106328
2 Jun 2022 20:33:44.000,228.729,-41.108,925.272957
2 Jun 2022 20:34:44.000,211.103,-32.537,1213.965428
2 Jun 2022 20:35:44.000,202.480,-27.460,1571.994697
2 Jun 2022 20:36:28.417,198.647,-25.357,1857.895492
2 Jun 2022 22:04:00.549,328.564,-25.315,1865.814718
2 Jun 2022 22:05:00.000,319.489,-27.815,1536.379319
2 Jun 2022 22:06:00.000,304.943,-31.513,1267.490803
2 Jun 2022 22:07:00.000,282.806,-34.893,1111.240492
2 Jun 2022 22:08:00.000,256.403,-34.752,1116.714124
2 Jun 2022 22:09:00.000,234.747,-31.259,1281.814942
2 Jun 2022 22:10:00.000,220.629,-27.617,1555.986674
2 Jun 2022 22:10:54.846,212.367,-25.340,1861.087372
2 Jun 2022 23:38:53.882,320.557,-25.319,1864.987325
2 Jun 2022 23:39:53.000,309.945,-27.429,1575.233521
2 Jun 2022 23:40:53.000,294.263,-30.017,1358.967341
2 Jun 2022 23:41:53.000,273.584,-31.596,1262.897129
2 Jun 2022 23:42:53.000,251.990,-30.714,1314.084345
2 Jun 2022 23:43:53.000,234.592,-28.235,1497.306996
2 Jun 2022 23:44:53.000,222.458,-25.873,1771.428273
2 Jun 2022 23:45:10.665,219.701,-25.325,1863.818119
3 Jun 2022 01:13:20.065,321.665,-25.329,1863.099837
3 Jun 2022 01:14:20.000,311.140,-27.555,1562.220910
3 Jun 2022 01:15:20.000,295.508,-30.346,1337.292805
3 Jun 2022 01:16:20.000,274.429,-32.170,1232.399957
3 Jun 2022 01:17:20.000,252.059,-31.327,1277.931545
3 Jun 2022 01:18:20.000,234.065,-28.671,1459.711397
3 Jun 2022 01:19:20.000,221.662,-26.120,1734.810985
3 Jun 2022 01:19:44.612,217.856,-25.317,1865.332365
3 Jun 2022 02:47:35.756,331.327,-25.346,1860.075043
3 Jun 2022 02:48:35.000,323.127,-28.028,1516.179165
3 Jun 2022 02:49:35.000,309.392,-32.329,1224.301258
3 Jun 2022 02:50:35.000,286.746,-36.922,1039.679415
3 Jun 2022 02:51:35.000,257.293,-37.449,1023.086768
3 Jun 2022 02:52:35.000,232.920,-33.217,1181.691619
3 Jun 2022 02:53:35.000,217.833,-28.680,1458.928979
3 Jun 2022 02:54:35.000,208.801,-25.693,1799.927033
3 Jun 2022 02:54:45.893,207.572,-25.314,1865.959205
3 Jun 2022 04:22:11.393,346.368,-25.362,1857.087073
3 Jun 2022 04:23:11.000,342.325,-28.607,1465.014032
3 Jun 2022 04:24:11.000,334.608,-35.190,1099.919550
3 Jun 2022 04:25:11.000,316.088,-47.268,808.278351
3 Jun 2022 04:26:11.000,266.409,-57.093,692.200153
3 Jun 2022 04:27:11.000,219.941,-45.954,829.481821
3 Jun 2022 04:28:11.000,203.033,-34.395,1130.962909
3 Jun 2022 04:29:11.000,195.806,-28.206,1499.884360
3 Jun 2022 04:30:06.541,192.158,-25.312,1866.204591
3 Jun 2022 05:57:30.856,4.207,-25.369,1855.794494
3 Jun 2022 05:58:30.000,5.773,-28.696,1457.587457
3 Jun 2022 05:59:30.000,8.869,-35.875,1074.983070
3 Jun 2022 06:00:30.000,17.443,-51.503,750.256740
3 Jun 2022 06:01:30.000,78.910,-75.444,590.699755
3 Jun 2022 06:02:30.000,158.712,-54.460,717.323267
3 Jun 2022 06:03:30.000,168.944,-37.257,1029.061884
3 Jun 2022 06:04:30.000,172.374,-29.340,1407.033767
3 Jun 2022 06:05:30.000,174.071,-25.638,1809.096071
3 Jun 2022 06:05:38.396,174.242,-25.312,1866.323694
3 Jun 2022 07:33:45.985,23.257,-25.362,1857.126653
3 Jun 2022 07:34:45.000,30.258,-28.166,1503.491096
3 Jun 2022 07:35:45.000,42.426,-33.030,1190.289173
3 Jun 2022 07:36:45.000,64.387,-39.244,971.662355
3 Jun 2022 07:37:45.000,97.274,-41.385,918.906068
3 Jun 2022 07:38:45.000,125.928,-36.388,1057.290900
3 Jun 2022 07:39:45.000,142.628,-30.493,1327.877078
3 Jun 2022 07:40:45.000,151.983,-26.630,1666.639434
3 Jun 2022 07:41:17.652,155.386,-25.312,1866.355732
3 Jun 2022 09:10:56.170,42.142,-25.343,1860.574187
3 Jun 2022 09:11:56.000,53.199,-27.280,1591.085405
3 Jun 2022 09:12:56.000,68.710,-29.431,1400.310373
3 Jun 2022 09:13:56.000,88.153,-30.542,1324.803282
3 Jun 2022 09:14:56.000,107.885,-29.659,1383.831017
3 Jun 2022 09:15:56.000,123.969,-27.558,1561.957819
3 Jun 2022 09:16:56.000,135.550,-25.549,1823.986583
3 Jun 2022 09:17:04.588,136.893,-25.312,1866.379484
3 Jun 2022 10:48:42.474,58.269,-25.324,1864.156591
3 Jun 2022 10:49:42.000,71.120,-26.419,1693.683990
3 Jun 2022 10:50:42.000,86.404,-27.047,1616.885571
3 Jun 2022 10:51:42.000,102.175,-26.772,1649.109527
3 Jun 2022 10:52:42.000,116.225,-25.791,1784.313395
3 Jun 2022 10:53:07.019,121.269,-25.312,1866.268186
3 Jun 2022 12:26:12.443,64.252,-25.314,1865.960528
3 Jun 2022 12:27:12.000,77.456,-26.131,1733.284669
3 Jun 2022 12:28:12.000,92.307,-26.396,1696.758516
3 Jun 2022 12:29:12.000,106.859,-25.923,1763.901881
3 Jun 2022 12:29:53.472,115.830,-25.316,1865.625369
3 Jun 2022 14:02:41.210,54.592,-25.312,1866.318385
3 Jun 2022 14:03:41.000,67.091,-26.628,1666.801285
3 Jun 2022 14:04:41.000,82.571,-27.590,1558.668937
3 Jun 2022 14:05:41.000,99.290,-27.552,1562.522628
3 Jun 2022 14:06:41.000,114.611,-26.543,1677.606523
3 Jun 2022 14:07:35.971,126.029,-25.329,1863.205722
3 Jun 2022 15:38:37.207,37.639,-25.312,1866.376335
3 Jun 2022 15:39:37.000,47.615,-27.518,1566.073090
3 Jun 2022 15:40:37.000,62.530,-30.388,1334.549653
3 Jun 2022 15:41:37.000,83.079,-32.519,1214.844558
3 Jun 2022 15:42:37.000,105.712,-32.016,1240.358926
3 Jun 2022 15:43:37.000,124.471,-29.392,1403.149175
3 Jun 2022 15:44:37.000,137.535,-26.660,1662.882754
3 Jun 2022 15:45:15.000,143.461,-25.349,1859.422199
3 Jun 2022 17:14:21.490,18.871,-25.312,1866.348688
3 Jun 2022 17:15:21.000,24.309,-28.310,1490.581067
3 Jun 2022 17:16:21.000,34.194,-33.994,1147.517325
3 Jun 2022 17:17:21.000,54.712,-42.935,885.444342
3 Jun 2022 17:18:21.000,94.331,-48.414,791.124045
3 Jun 2022 17:19:21.000,131.212,-41.413,918.253163
3 Jun 2022 17:20:21.000,149.380,-32.867,1197.971718
3 Jun 2022 17:21:21.000,158.309,-27.687,1548.969071
3 Jun 2022 17:22:09.434,162.570,-25.365,1856.459601
3 Jun 2022 18:49:58.669,0.169,-25.312,1866.289291
3 Jun 2022 18:50:58.000,359.974,-28.618,1464.118950
3 Jun 2022 18:51:58.000,359.592,-35.817,1077.023353
3 Jun 2022 18:52:58.000,358.519,-52.029,743.993356
3 Jun 2022 18:53:58.000,336.376,-85.635,571.814426
3 Jun 2022 18:54:58.000,183.489,-56.913,693.801084
3 Jun 2022 18:55:58.000,182.066,-37.949,1008.010946
3 Jun 2022 18:56:58.000,181.625,-29.588,1388.848066
3 Jun 2022 18:57:58.000,181.413,-25.734,1793.295867
3 Jun 2022 18:58:07.141,181.390,-25.368,1855.935706
3 Jun 2022 20:25:27.718,342.811,-25.313,1866.146345
3 Jun 2022 20:26:27.000,337.385,-28.350,1487.076723
3 Jun 2022 20:27:27.000,327.404,-34.178,1139.842877
3 Jun 2022 20:28:27.000,306.354,-43.396,876.168133
3 Jun 2022 20:29:27.000,265.436,-48.717,786.775758
3 Jun 2022 20:30:27.000,228.634,-41.159,924.087434
3 Jun 2022 20:31:27.000,211.017,-32.556,1213.020156
3 Jun 2022 20:32:27.000,202.412,-27.468,1571.231186
3 Jun 2022 20:33:11.517,198.582,-25.358,1857.883117
3 Jun 2022 22:00:43.548,328.612,-25.315,1865.816739
3 Jun 2022 22:01:43.000,319.548,-27.818,1536.163498
3 Jun 2022 22:02:43.000,305.012,-31.522,1266.968515
3 Jun 2022 22:03:43.000,282.868,-34.916,1110.345620
3 Jun 2022 22:04:43.000,256.430,-34.783,1115.525557
3 Jun 2022 22:05:43.000,234.743,-31.281,1280.520750
3 Jun 2022 22:06:43.000,220.612,-27.630,1554.709142
3 Jun 2022 22:07:38.053,212.322,-25.340,1861.073933
3 Jun 2022 23:35:36.992,320.572,-25.319,1864.992510
3 Jun 2022 23:36:36.000,309.987,-27.425,1575.644552
3 Jun 2022 23:37:36.000,294.316,-30.015,1359.094924
3 Jun 2022 23:38:36.000,273.642,-31.600,1262.657331
3 Jun 2022 23:39:36.000,252.036,-30.724,1313.491415
3 Jun 2022 23:40:36.000,234.622,-28.244,1496.469884
3 Jun 2022 23:41:36.000,222.475,-25.880,1770.455354
3 Jun 2022 23:41:53.850,219.688,-25.325,1863.809244
4 Jun 2022 01:10:03.270,321.641,-25.329,1863.110286
4 Jun 2022 01:11:03.000,311.155,-27.545,1563.285225
4 Jun 2022 01:12:03.000,295.540,-30.332,1338.202510
4 Jun 2022 01:13:03.000,274.481,-32.158,1233.022763
4 Jun 2022 01:14:03.000,252.119,-31.322,1278.180024
4 Jun 2022 01:15:03.000,234.118,-28.672,1459.621245
4 Jun 2022 01:16:03.000,221.703,-26.122,1734.477887
4 Jun 2022 01:16:27.686,217.883,-25.317,1865.327942
4 Jun 2022 02:44:18.943,331.274,-25.346,1860.088540
4 Jun 2022 02:45:18.000,323.094,-28.015,1517.425906
4 Jun 2022 02:46:18.000,309.366,-32.303,1225.635256
4 Jun 2022 02:47:18.000,286.755,-36.881,1041.001621
4 Jun 2022 02:48:18.000,257.353,-37.414,1024.177561
4 Jun 2022 02:49:18.000,232.996,-33.201,1182.417779
4 Jun 2022 02:50:18.000,217.899,-28.675,1459.341594
4 Jun 2022 02:51:18.000,208.855,-25.692,1800.120804
4 Jun 2022 02:51:28.866,207.627,-25.314,1865.956348
4 Jun 2022 04:18:54.441,346.299,-25.362,1857.096913
4 Jun 2022 04:19:54.000,342.239,-28.602,1465.462346
4 Jun 2022 04:20:54.000,334.490,-35.173,1100.561716
4 Jun 2022 04:21:54.000,315.929,-47.207,809.218849
4 Jun 2022 04:22:54.000,266.405,-56.960,693.382426
4 Jun 2022 04:23:54.000,220.083,-45.891,830.544127
4 Jun 2022 04:24:54.000,203.142,-34.374,1131.801192
4 Jun 2022 04:25:54.000,195.888,-28.199,1500.563526
4 Jun 2022 04:26:49.455,192.227,-25.312,1866.204456
4 Jun 2022 05:54:13.691,4.130,-25.369,1855.794640
4 Jun 2022 05:55:13.000,5.678,-28.710,1456.429501
4 Jun 2022 05:56:13.000,8.735,-35.908,1073.805411
4 Jun 2022 05:57:13.000,17.219,-51.595,749.150089
4 Jun 2022 05:58:13.000,79.137,-75.667,590.052674
4 Jun 2022 05:59:13.000,159.049,-54.450,717.429015
4 Jun 2022 06:00:13.000,169.110,-37.240,1029.588558
4 Jun 2022 06:01:13.000,172.484,-29.330,1407.754825
4 Jun 2022 06:02:13.000,174.153,-25.633,1809.920570
4 Jun 2022 06:02:21.273,174.318,-25.312,1866.322936
4 Jun 2022 07:30:28.583,23.178,-25.362,1857.115944
4 Jun 2022 07:31:28.000,30.219,-28.195,1500.905727
4 Jun 2022 07:32:28.000,42.410,-33.086,1187.710406
4 Jun 2022 07:33:28.000,64.449,-39.330,969.367115
4 Jun 2022 07:34:28.000,97.455,-41.450,917.412394
4 Jun 2022 07:35:28.000,126.116,-36.402,1056.816629
4 Jun 2022 07:36:28.000,142.770,-30.489,1328.162518
4 Jun 2022 07:37:28.000,152.089,-26.624,1667.398885
4 Jun 2022 07:38:00.504,155.464,-25.312,1866.370513
4 Jun 2022 09:07:38.564,42.068,-25.343,1860.557819
4 Jun 2022 09:08:38.000,53.026,-27.270,1592.209629
4 Jun 2022 09:09:38.000,68.503,-29.431,1400.268884
4 Jun 2022 09:10:38.000,87.945,-30.565,1323.369948
4 Jun 2022 09:11:38.000,107.725,-29.697,1381.138626
4 Jun 2022 09:12:38.000,123.869,-27.593,1558.417562
4 Jun 2022 09:13:38.000,135.495,-25.573,1819.983154
4 Jun 2022 09:13:47.399,136.966,-25.312,1866.379309
4 Jun 2022 10:45:24.799,58.216,-25.324,1864.144742
4 Jun 2022 10:46:24.000,70.985,-26.417,1694.028113
4 Jun 2022 10:47:24.000,86.264,-27.052,1616.288877
4 Jun 2022 10:48:24.000,102.050,-26.785,1647.590349
4 Jun 2022 10:49:24.000,116.128,-25.805,1782.053715
4 Jun 2022 10:49:49.726,121.320,-25.312,1866.269081
4 Jun 2022 12:22:54.978,64.262,-25.314,1865.957198
4 Jun 2022 12:23:54.000,77.339,-26.125,1734.146695
4 Jun 2022 12:24:54.000,92.183,-26.396,1696.779235
4 Jun 2022 12:25:54.000,106.744,-25.928,1763.093780
4 Jun 2022 12:26:35.919,115.818,-25.316,1865.630799
4 Jun 2022 13:59:23.962,54.653,-25.312,1866.317887
4 Jun 2022 14:00:23.000,66.981,-26.609,1669.189002
4 Jun 2022 14:01:23.000,82.429,-27.575,1560.199752
4 Jun 2022 14:02:23.000,99.135,-27.547,1563.019600
4 Jun 2022 14:03:23.000,114.468,-26.547,1677.104341
4 Jun 2022 14:04:18.292,125.967,-25.329,1863.219440
4 Jun 2022 15:35:20.032,37.714,-25.312,1866.376393
4 Jun 2022 15:36:20.000,47.741,-27.522,1565.672855
4 Jun 2022 15:37:20.000,62.681,-30.382,1334.933390
4 Jun 2022 15:38:20.000,83.229,-32.491,1216.195425
4 Jun 2022 15:39:20.000,105.815,-31.974,1242.580415
4 Jun 2022 15:40:20.000,124.518,-29.355,1405.894009
4 Jun 2022 15:41:20.000,137.546,-26.636,1665.844360
4 Jun 2022 15:41:57.447,143.384,-25.349,1859.434985
4 Jun 2022 17:11:04.348,18.948,-25.312,1866.348835
4 Jun 2022 17:12:04.000,24.425,-28.318,1489.942536
4 Jun 2022 17:13:04.000,34.359,-33.998,1147.354679
4 Jun 2022 17:14:04.000,54.944,-42.904,886.088558
4 Jun 2022 17:15:04.000,94.493,-48.299,792.786982
4 Jun 2022 17:16:04.000,131.195,-41.316,920.482192
4 Jun 2022 17:17:04.000,149.320,-32.819,1200.277219
4 Jun 2022 17:18:04.000,158.249,-27.665,1551.201151
4 Jun 2022 17:18:52.102,162.491,-25.365,1856.463245
4 Jun 2022 18:46:41.556,0.244,-25.312,1866.289665
4 Jun 2022 18:47:41.000,0.072,-28.627,1463.367408
4 Jun 2022 18:48:41.000,359.736,-35.837,1076.325483
4 Jun 2022 18:49:41.000,358.792,-52.076,743.444597
4 Jun 2022 18:50:41.000,338.705,-85.789,571.689002
4 Jun 2022 18:51:41.000,183.151,-56.872,694.170689
4 Jun 2022 18:52:41.000,181.906,-37.930,1008.581448
4 Jun 2022 18:53:41.000,181.520,-29.580,1389.483905
4 Jun 2022 18:54:41.000,181.335,-25.730,1793.953493
4 Jun 2022 18:54:50.044,181.315,-25.368,1855.932174
4 Jun 2022 20:22:10.646,342.877,-25.313,1866.147201
4 Jun 2022 20:23:10.000,337.462,-28.357,1486.457428
4 Jun 2022 20:24:10.000,327.502,-34.198,1139.001105
4 Jun 2022 20:25:10.000,306.459,-43.454,875.025234
4 Jun 2022 20:26:10.000,265.429,-48.811,785.446079
4 Jun 2022 20:27:10.000,228.539,-41.210,922.904393
4 Jun 2022 20:28:10.000,210.931,-32.575,1212.078186
4 Jun 2022 20:29:10.000,202.344,-27.475,1570.471167
4 Jun 2022 20:29:54.617,198.516,-25.358,1857.873440
4 Jun 2022 21:57:26.547,328.661,-25.315,1865.818751
4 Jun 2022 21:58:26.000,319.606,-27.820,1535.945571
4 Jun 2022 21:59:26.000,305.080,-31.532,1266.444090
4 Jun 2022 22:00:26.000,282.929,-34.939,1109.448508
4 Jun 2022 22:01:26.000,256.457,-34.813,1114.334879
4 Jun 2022 22:02:26.000,234.738,-31.304,1279.225090
4 Jun 2022 22:03:26.000,220.594,-27.642,1553.430896
4 Jun 2022 22:04:21.259,212.276,-25.340,1861.060483
4 Jun 2022 23:32:20.102,320.588,-25.319,1864.997672
4 Jun 2022 23:33:20.000,309.812,-27.463,1571.691078
4 Jun 2022 23:34:20.000,294.062,-30.054,1356.505650
4 Jun 2022 23:35:20.000,273.330,-31.612,1262.026926
4 Jun 2022 23:36:20.000,251.747,-30.700,1314.957127
4 Jun 2022 23:37:20.000,234.408,-28.210,1499.566247
4 Jun 2022 23:38:20.000,222.327,-25.853,1774.589911
4 Jun 2022 23:38:37.036,219.676,-25.325,1863.800332
5 Jun 2022 01:06:46.475,321.617,-25.329,1863.120710
5 Jun 2022 01:07:46.000,311.170,-27.534,1564.347738
5 Jun 2022 01:08:46.000,295.572,-30.318,1339.109871
5 Jun 2022 01:09:46.000,274.533,-32.146,1233.642864
5 Jun 2022 01:10:46.000,252.178,-31.318,1278.425651
5 Jun 2022 01:11:46.000,234.170,-28.673,1459.528195
5 Jun 2022 01:12:46.000,221.745,-26.125,1734.141926
5 Jun 2022 01:13:10.760,217.909,-25.317,1865.323503
5 Jun 2022 02:41:02.130,331.222,-25.345,1860.102036
5 Jun 2022 02:42:02.000,322.885,-28.060,1513.244232
5 Jun 2022 02:43:02.000,309.046,-32.358,1222.838023
5 Jun 2022 02:44:02.000,286.306,-36.896,1040.529271
5 Jun 2022 02:45:02.000,256.936,-37.337,1026.566101
5 Jun 2022 02:46:02.000,232.750,-33.102,1186.963170
5 Jun 2022 02:47:02.000,217.774,-28.607,1465.019911
5 Jun 2022 02:48:02.000,208.791,-25.654,1806.326272
5 Jun 2022 02:48:11.839,207.682,-25.314,1865.953461
5 Jun 2022 04:15:37.489,346.230,-25.362,1857.106781
5 Jun 2022 04:16:37.000,342.154,-28.597,1465.916212
5 Jun 2022 04:17:37.000,334.373,-35.156,1101.209617
5 Jun 2022 04:18:37.000,315.770,-47.147,810.164525
5 Jun 2022 04:19:37.000,266.401,-56.828,694.567588
5 Jun 2022 04:20:37.000,220.223,-45.828,831.607131
5 Jun 2022 04:21:37.000,203.250,-34.353,1132.638853
5 Jun 2022 04:22:37.000,195.969,-28.191,1501.241241
5 Jun 2022 04:23:32.368,192.297,-25.312,1866.204316
5 Jun 2022 05:50:56.527,4.053,-25.369,1855.794833
5 Jun 2022 05:51:56.000,5.583,-28.724,1455.278943
5 Jun 2022 05:52:56.000,8.599,-35.941,1072.636120
5 Jun 2022 05:53:56.000,16.993,-51.686,748.053258
5 Jun 2022 05:54:56.000,79.371,-75.889,589.416322
5 Jun 2022 05:55:56.000,159.385,-54.439,717.541555
5 Jun 2022 05:56:56.000,169.277,-37.223,1030.117882
5 Jun 2022 05:57:56.000,172.593,-29.321,1408.476305
5 Jun 2022 05:58:56.000,174.234,-25.628,1810.744260
5 Jun 2022 05:59:04.151,174.395,-25.312,1866.322178
5 Jun 2022 07:27:11.183,23.099,-25.362,1857.105274
5 Jun 2022 07:28:11.000,30.181,-28.224,1498.324383
5 Jun 2022 07:29:11.000,42.393,-33.142,1185.135368
5 Jun 2022 07:30:11.000,64.512,-39.417,967.076134
5 Jun 2022 07:31:11.000,97.637,-41.516,915.924654
5 Jun 2022 07:32:11.000,126.305,-36.416,1056.347749
5 Jun 2022 07:33:11.000,142.912,-30.484,1328.451023
5 Jun 2022 07:34:11.000,152.194,-26.617,1668.159413
5 Jun 2022 07:34:43.354,155.542,-25.312,1866.369850
5 Jun 2022 09:04:20.959,41.993,-25.343,1860.541459
5 Jun 2022 09:05:20.000,52.853,-27.259,1593.346779
5 Jun 2022 09:06:20.000,68.295,-29.432,1400.241755
5 Jun 2022 09:07:20.000,87.737,-30.587,1321.948890
5 Jun 2022 09:08:20.000,107.565,-29.735,1378.452867
5 Jun 2022 09:09:20.000,123.769,-27.628,1554.878535
5 Jun 2022 09:10:20.000,135.439,-25.596,1815.977755
5 Jun 2022 09:10:30.209,137.038,-25.312,1866.379127
5 Jun 2022 10:42:07.124,58.163,-25.324,1864.132859
5 Jun 2022 10:43:07.000,71.089,-26.430,1692.227273
5 Jun 2022 10:44:07.000,86.390,-27.061,1615.296395
5 Jun 2022 10:45:07.000,102.179,-26.785,1647.500368
5 Jun 2022 10:46:07.000,116.244,-25.800,1782.789161
5 Jun 2022 10:46:32.434,121.371,-25.312,1866.269969
5 Jun 2022 12:19:37.513,64.272,-25.314,1865.953843
5 Jun 2022 12:20:37.000,77.461,-26.129,1733.536801
5 Jun 2022 12:21:37.000,92.309,-26.394,1697.052253
5 Jun 2022 12:22:37.000,106.858,-25.921,1764.217300
5 Jun 2022 12:23:18.368,115.806,-25.316,1865.636200
5 Jun 2022 13:56:06.713,54.714,-25.312,1866.317386
5 Jun 2022 13:57:06.000,67.106,-26.611,1668.923871
5 Jun 2022 13:58:06.000,82.562,-27.569,1560.817987
5 Jun 2022 13:59:06.000,99.254,-27.533,1564.531213
5 Jun 2022 14:00:06.000,114.557,-26.529,1679.338051
5 Jun 2022 14:01:00.613,125.904,-25.328,1863.233137
5 Jun 2022 15:32:02.857,37.789,-25.312,1866.376452
5 Jun 2022 15:33:02.000,47.663,-27.481,1569.807185
5 Jun 2022 15:34:02.000,62.535,-30.329,1338.359190
5 Jun 2022 15:35:02.000,83.003,-32.448,1218.371712
5 Jun 2022 15:36:02.000,105.561,-31.963,1243.143549
5 Jun 2022 15:37:02.000,124.302,-29.367,1404.997169
5 Jun 2022 15:38:02.000,137.381,-26.651,1663.908125
5 Jun 2022 15:38:39.893,143.307,-25.349,1859.447689
5 Jun 2022 17:07:47.206,19.026,-25.312,1866.348982
5 Jun 2022 17:08:47.000,24.542,-28.325,1489.306151
5 Jun 2022 17:09:47.000,34.524,-34.002,1147.196424
5 Jun 2022 17:10:47.000,55.175,-42.872,886.739638
5 Jun 2022 17:11:47.000,94.654,-48.185,794.456403
5 Jun 2022 17:12:47.000,131.179,-41.218,922.715919
5 Jun 2022 17:13:47.000,149.261,-32.771,1202.587158
5 Jun 2022 17:14:47.000,158.189,-27.642,1553.437724
5 Jun 2022 17:15:34.769,162.412,-25.365,1856.466471
5 Jun 2022 18:43:24.443,0.319,-25.312,1866.290039
5 Jun 2022 18:44:24.000,0.170,-28.636,1462.616374
5 Jun 2022 18:45:24.000,359.881,-35.856,1075.629761
5 Jun 2022 18:46:24.000,359.066,-52.122,742.901185
5 Jun 2022 18:47:24.000,341.208,-85.936,571.573570
5 Jun 2022 18:48:24.000,182.815,-56.830,694.550398
5 Jun 2022 18:49:24.000,181.747,-37.910,1009.160098
5 Jun 2022 18:50:24.000,181.416,-29.571,1390.126579
5 Jun 2022 18:51:24.000,181.257,-25.726,1794.617127
5 Jun 2022 18:51:32.947,181.240,-25.368,1855.928689
5 Jun 2022 20:18:53.573,342.944,-25.313,1866.148053
5 Jun 2022 20:19:53.000,337.538,-28.364,1485.837157
5 Jun 2022 20:20:53.000,327.600,-34.219,1138.158851
5 Jun 2022 20:21:53.000,306.565,-43.512,873.882419
5 Jun 2022 20:22:53.000,265.422,-48.905,784.117442
5 Jun 2022 20:23:53.000,228.443,-41.261,921.723924
5 Jun 2022 20:24:53.000,210.845,-32.594,1211.139556
5 Jun 2022 20:25:53.000,202.275,-27.482,1569.714646
5 Jun 2022 20:26:37.716,198.451,-25.358,1857.863757
5 Jun 2022 21:54:09.545,328.709,-25.315,1865.820747
5 Jun 2022 21:55:09.000,319.665,-27.822,1535.725719
5 Jun 2022 21:56:09.000,305.149,-31.541,1265.917717
5 Jun 2022 21:57:09.000,282.991,-34.963,1108.549338
5 Jun 2022 21:58:09.000,256.484,-34.844,1113.142239
5 Jun 2022 21:59:09.000,234.733,-31.327,1277.928064
5 Jun 2022 22:00:09.000,220.577,-27.655,1552.151997
5 Jun 2022 22:01:04.466,212.230,-25.340,1861.047011
5 Jun 2022 23:29:03.211,320.604,-25.319,1865.002820
5 Jun 2022 23:30:03.000,309.855,-27.459,1572.093557
5 Jun 2022 23:31:03.000,294.116,-30.052,1356.622537
5 Jun 2022 23:32:03.000,273.387,-31.616,1261.775300
5 Jun 2022 23:33:03.000,251.793,-30.710,1314.353504
5 Jun 2022 23:34:03.000,234.437,-28.219,1498.720792
5 Jun 2022 23:35:03.000,222.344,-25.859,1773.610729
5 Jun 2022 23:35:20.222,219.663,-25.325,1863.791407
6 Jun 2022 01:03:29.680,321.593,-25.329,1863.131114
6 Jun 2022 01:04:29.000,311.185,-27.524,1565.408631
6 Jun 2022 01:05:29.000,295.604,-30.304,1340.015073
6 Jun 2022 01:06:29.000,274.585,-32.134,1234.260440
6 Jun 2022 01:07:29.000,252.238,-31.314,1278.668574
6 Jun 2022 01:08:29.000,234.222,-28.674,1459.432354
6 Jun 2022 01:09:29.000,221.786,-26.127,1733.803173
6 Jun 2022 01:09:53.835,217.936,-25.317,1865.319045
6 Jun 2022 02:37:45.317,331.169,-25.345,1860.115530
6 Jun 2022 02:38:45.000,322.852,-28.046,1514.494544
6 Jun 2022 02:39:45.000,309.022,-32.332,1224.172984
6 Jun 2022 02:40:45.000,286.317,-36.855,1041.847217
6 Jun 2022 02:41:45.000,256.997,-37.302,1027.647496
6 Jun 2022 02:42:45.000,232.825,-33.087,1187.679028
6 Jun 2022 02:43:45.000,217.840,-28.602,1465.423347
6 Jun 2022 02:44:45.000,208.845,-25.653,1806.511913
6 Jun 2022 02:44:54.813,207.736,-25.314,1865.950551
6 Jun 2022 04:12:20.539,346.161,-25.362,1857.116680
6 Jun 2022 04:13:20.000,342.068,-28.591,1466.375725
6 Jun 2022 04:14:20.000,334.256,-35.138,1101.863350
6 Jun 2022 04:15:20.000,315.613,-47.086,811.115474
6 Jun 2022 04:16:20.000,266.398,-56.696,695.755714
6 Jun 2022 04:17:20.000,220.364,-45.765,832.670868
6 Jun 2022 04:18:20.000,203.359,-34.333,1133.475896
6 Jun 2022 04:19:20.000,196.050,-28.184,1501.917487
6 Jun 2022 04:20:15.282,192.367,-25.312,1866.204165
6 Jun 2022 05:47:39.365,3.977,-25.369,1855.795071
6 Jun 2022 05:48:39.000,5.488,-28.738,1454.135835
6 Jun 2022 05:49:39.000,8.464,-35.975,1071.475239
6 Jun 2022 05:50:39.000,16.766,-51.777,746.966274
6 Jun 2022 05:51:39.000,79.610,-76.112,588.790662
6 Jun 2022 05:52:39.000,159.721,-54.427,717.660783
6 Jun 2022 05:53:39.000,169.443,-37.206,1030.649750
6 Jun 2022 05:54:39.000,172.702,-29.311,1409.198112
6 Jun 2022 05:55:39.000,174.316,-25.623,1811.567055
6 Jun 2022 05:55:47.029,174.471,-25.312,1866.321422
6 Jun 2022 07:23:53.783,23.020,-25.362,1857.094642
6 Jun 2022 07:24:53.000,29.991,-28.189,1501.454747
6 Jun 2022 07:25:53.000,42.107,-33.097,1187.183038
6 Jun 2022 07:26:53.000,64.095,-39.411,967.242796
6 Jun 2022 07:27:53.000,97.250,-41.618,913.631171
6 Jun 2022 07:28:53.000,126.123,-36.539,1052.232112
6 Jun 2022 07:29:53.000,142.851,-30.563,1323.509501
6 Jun 2022 07:30:53.000,152.182,-26.659,1662.918795
6 Jun 2022 07:31:26.204,155.620,-25.312,1866.369174
6 Jun 2022 09:01:03.354,41.918,-25.343,1860.525100
6 Jun 2022 09:02:03.000,52.899,-27.285,1590.516693
6 Jun 2022 09:03:03.000,68.384,-29.464,1397.867080
6 Jun 2022 09:04:03.000,87.869,-30.613,1320.345029
6 Jun 2022 09:05:03.000,107.711,-29.744,1377.799571
6 Jun 2022 09:06:03.000,123.900,-27.626,1555.089682
6 Jun 2022 09:07:03.000,135.544,-25.591,1816.837561
6 Jun 2022 09:07:13.020,137.111,-25.312,1866.378933
6 Jun 2022 10:38:49.449,58.109,-25.324,1864.120942
6 Jun 2022 10:39:49.000,70.954,-26.428,1692.567751
6 Jun 2022 10:40:49.000,86.249,-27.066,1614.693704
6 Jun 2022 10:41:49.000,102.054,-26.798,1645.973188
6 Jun 2022 10:42:49.000,116.147,-25.815,1780.520448
6 Jun 2022 10:43:15.143,121.422,-25.312,1866.270851
6 Jun 2022 12:16:20.047,64.282,-25.314,1865.950463
6 Jun 2022 12:17:20.000,77.582,-26.133,1732.930326
6 Jun 2022 12:18:20.000,92.435,-26.392,1697.328876
6 Jun 2022 12:19:20.000,106.972,-25.913,1765.343548
6 Jun 2022 12:20:00.817,115.794,-25.316,1865.641573
6 Jun 2022 13:52:49.464,54.775,-25.312,1866.316880
6 Jun 2022 13:53:49.000,67.232,-26.613,1668.662286
6 Jun 2022 13:54:49.000,82.695,-27.563,1561.440180
6 Jun 2022 13:55:49.000,99.372,-27.518,1566.045915
6 Jun 2022 13:56:49.000,114.646,-26.512,1681.573354
6 Jun 2022 13:57:42.935,125.841,-25.328,1863.246810
6 Jun 2022 15:28:45.682,37.865,-25.312,1866.376506
6 Jun 2022 15:29:45.000,47.788,-27.485,1569.402452
6 Jun 2022 15:30:45.000,62.686,-30.323,1338.737220
6 Jun 2022 15:31:45.000,83.153,-32.421,1219.715591
6 Jun 2022 15:32:45.000,105.665,-31.921,1245.359024
6 Jun 2022 15:33:45.000,124.349,-29.331,1407.739233
6 Jun 2022 15:34:45.000,137.393,-26.628,1666.870106
6 Jun 2022 15:35:22.338,143.230,-25.349,1859.460610
6 Jun 2022 17:04:30.064,19.104,-25.312,1866.349127
6 Jun 2022 17:05:30.000,24.658,-28.332,1488.671865
6 Jun 2022 17:06:30.000,34.689,-34.006,1147.042482
6 Jun 2022 17:07:30.000,55.405,-42.840,887.397454
6 Jun 2022 17:08:30.000,94.814,-48.071,796.132126
6 Jun 2022 17:09:30.000,131.163,-41.121,924.954173
6 Jun 2022 17:10:30.000,149.202,-32.722,1204.901395
6 Jun 2022 17:11:30.000,158.129,-27.620,1555.678674
6 Jun 2022 17:12:17.435,162.333,-25.365,1856.469284
6 Jun 2022 18:40:07.329,0.394,-25.312,1866.290409
6 Jun 2022 18:41:07.000,0.268,-28.645,1461.865884
6 Jun 2022 18:42:07.000,0.025,-35.876,1074.936227
6 Jun 2022 18:43:07.000,359.341,-52.168,742.363168
6 Jun 2022 18:44:07.000,343.892,-86.074,571.468166
6 Jun 2022 18:45:07.000,182.479,-56.787,694.940204
6 Jun 2022 18:46:07.000,181.587,-37.891,1009.746878
6 Jun 2022 18:47:07.000,181.311,-29.562,1390.776066
6 Jun 2022 18:48:07.000,181.179,-25.722,1795.286750
6 Jun 2022 18:48:15.848,181.165,-25.368,1855.925261
6 Jun 2022 20:15:36.501,343.010,-25.313,1866.148903
6 Jun 2022 20:16:36.000,337.615,-28.372,1485.216013
6 Jun 2022 20:17:36.000,327.699,-34.239,1137.316247
6 Jun 2022 20:18:36.000,306.671,-43.570,872.739852
6 Jun 2022 20:19:36.000,265.415,-49.000,782.790024
6 Jun 2022 20:20:36.000,228.347,-41.313,920.546174
6 Jun 2022 20:21:36.000,210.759,-32.613,1210.204371
6 Jun 2022 20:22:36.000,202.206,-27.490,1568.961693
6 Jun 2022 20:23:20.814,198.386,-25.358,1857.854062
6 Jun 2022 21:50:52.543,328.757,-25.315,1865.822749
6 Jun 2022 21:51:52.000,319.724,-27.824,1535.504095
6 Jun 2022 21:52:52.000,305.217,-31.551,1265.389578
6 Jun 2022 21:53:52.000,283.053,-34.986,1107.648312
6 Jun 2022 21:54:52.000,256.511,-34.875,1111.947829
6 Jun 2022 21:55:52.000,234.728,-31.350,1276.629836
6 Jun 2022 21:56:52.000,220.559,-27.668,1550.872577
6 Jun 2022 21:57:47.672,212.184,-25.340,1861.033536
6 Jun 2022 23:25:46.320,320.620,-25.319,1865.007947
6 Jun 2022 23:26:46.000,309.897,-27.456,1572.493963
6 Jun 2022 23:27:46.000,294.170,-30.050,1356.737165
6 Jun 2022 23:28:46.000,273.444,-31.621,1261.521241
6 Jun 2022 23:29:46.000,251.839,-30.720,1313.747348
6 Jun 2022 23:30:46.000,234.466,-28.229,1497.872909
6 Jun 2022 23:31:46.000,222.361,-25.866,1772.629380
6 Jun 2022 23:32:03.408,219.650,-25.326,1863.782451
7 Jun 2022 01:00:12.884,321.570,-25.329,1863.141496
7 Jun 2022 01:01:12.000,311.200,-27.514,1566.468063
7 Jun 2022 01:02:12.000,295.636,-30.290,1340.918309
7 Jun 2022 01:03:12.000,274.637,-32.122,1234.875699
7 Jun 2022 01:04:12.000,252.298,-31.310,1278.908988
7 Jun 2022 01:05:12.000,234.274,-28.675,1459.333892
7 Jun 2022 01:06:12.000,221.827,-26.130,1733.461768
7 Jun 2022 01:06:36.911,217.962,-25.317,1865.314572
7 Jun 2022 02:34:28.505,331.116,-25.345,1860.129025
7 Jun 2022 02:35:28.000,322.820,-28.033,1515.745997
7 Jun 2022 02:36:28.000,308.998,-32.305,1225.508156
7 Jun 2022 02:37:28.000,286.328,-36.815,1043.164233
7 Jun 2022 02:38:28.000,257.059,-37.268,1028.727248
7 Jun 2022 02:39:28.000,232.901,-33.071,1188.392924
7 Jun 2022 02:40:28.000,217.906,-28.598,1465.824544
7 Jun 2022 02:41:28.000,208.899,-25.652,1806.695089
7 Jun 2022 02:41:37.787,207.791,-25.314,1865.947611
7 Jun 2022 04:09:03.589,346.092,-25.362,1857.126608
7 Jun 2022 04:10:03.000,341.983,-28.586,1466.840926
7 Jun 2022 04:11:03.000,334.140,-35.121,1102.522971
7 Jun 2022 04:12:03.000,315.457,-47.025,812.071768
7 Jun 2022 04:13:03.000,266.396,-56.566,696.946899
7 Jun 2022 04:14:03.000,220.503,-45.703,833.735431
7 Jun 2022 04:15:03.000,203.467,-34.312,1134.312393
7 Jun 2022 04:16:03.000,196.131,-28.176,1502.592321
7 Jun 2022 04:16:58.196,192.437,-25.312,1866.204012
7 Jun 2022 05:44:22.203,3.900,-25.369,1855.795356
7 Jun 2022 05:45:22.000,5.393,-28.752,1453.000157
7 Jun 2022 05:46:22.000,8.328,-36.008,1070.322749
7 Jun 2022 05:47:22.000,16.537,-51.868,745.889112
7 Jun 2022 05:48:22.000,79.857,-76.335,588.175642
7 Jun 2022 05:49:22.000,160.056,-54.415,717.786628
7 Jun 2022 05:50:22.000,169.609,-37.189,1031.184115
7 Jun 2022 05:51:22.000,172.811,-29.302,1409.920214
7 Jun 2022 05:52:22.000,174.397,-25.618,1812.388930
7 Jun 2022 05:52:29.907,174.548,-25.312,1866.320665
7 Jun 2022 07:20:36.384,22.941,-25.362,1857.084049
7 Jun 2022 07:21:36.000,29.952,-28.217,1498.882193
7 Jun 2022 07:22:36.000,42.090,-33.153,1184.613635
7 Jun 2022 07:23:36.000,64.156,-39.498,964.951207
7 Jun 2022 07:24:36.000,97.432,-41.685,912.137833
7 Jun 2022 07:25:36.000,126.312,-36.553,1051.758114
7 Jun 2022 07:26:36.000,142.994,-30.558,1323.793760
7 Jun 2022 07:27:36.000,152.288,-26.653,1663.674968
7 Jun 2022 07:28:09.054,155.697,-25.312,1866.368489
7 Jun 2022 08:57:45.751,41.843,-25.343,1860.508747
7 Jun 2022 08:58:45.000,52.725,-27.275,1591.662828
7 Jun 2022 08:59:45.000,68.175,-29.464,1397.846253
7 Jun 2022 09:00:45.000,87.660,-30.636,1318.924774
7 Jun 2022 09:01:45.000,107.550,-29.782,1375.108629
7 Jun 2022 09:02:45.000,123.799,-27.661,1551.541995
7 Jun 2022 09:03:45.000,135.489,-25.615,1812.822385
7 Jun 2022 09:03:55.831,137.184,-25.312,1866.378733
7 Jun 2022 10:35:31.773,58.056,-25.324,1864.108990
7 Jun 2022 10:36:31.000,70.819,-26.425,1692.913551
7 Jun 2022 10:37:31.000,86.109,-27.072,1614.095771
7 Jun 2022 10:38:31.000,101.928,-26.811,1644.448812
7 Jun 2022 10:39:31.000,116.050,-25.829,1778.252123
7 Jun 2022 10:39:57.852,121.473,-25.312,1866.271726
7 Jun 2022 12:13:02.579,64.291,-25.314,1865.947055
7 Jun 2022 12:14:02.000,77.465,-26.127,1733.773563
7 Jun 2022 12:15:02.000,92.311,-26.392,1697.330067
7 Jun 2022 12:16:02.000,106.856,-25.919,1764.517295
7 Jun 2022 12:16:43.268,115.783,-25.315,1865.646915
7 Jun 2022 13:49:32.214,54.835,-25.312,1866.316371
7 Jun 2022 13:50:32.000,67.357,-26.616,1668.404025
7 Jun 2022 13:51:32.000,82.828,-27.557,1562.066096
7 Jun 2022 13:52:32.000,99.491,-27.503,1567.563478
7 Jun 2022 13:53:32.000,114.735,-26.495,1683.810047
7 Jun 2022 13:54:25.256,125.778,-25.328,1863.260460
7 Jun 2022 15:25:28.507,37.940,-25.312,1866.376564
7 Jun 2022 15:26:28.000,47.914,-27.489,1569.000701
7 Jun 2022 15:27:28.000,62.837,-30.317,1339.119612
7 Jun 2022 15:28:28.000,83.303,-32.394,1221.063814
7 Jun 2022 15:29:28.000,105.768,-31.879,1247.577149
7 Jun 2022 15:30:28.000,124.396,-29.294,1410.482555
7 Jun 2022 15:31:28.000,137.405,-26.604,1669.833024
7 Jun 2022 15:32:04.782,143.153,-25.349,1859.473721
7 Jun 2022 17:01:12.923,19.182,-25.312,1866.349272
7 Jun 2022 17:02:12.000,24.655,-28.271,1494.113877
7 Jun 2022 17:03:12.000,34.624,-33.887,1152.086573
7 Jun 2022 17:04:12.000,55.143,-42.653,891.272880
7 Jun 2022 17:05:12.000,94.234,-47.980,797.475496
7 Jun 2022 17:06:12.000,130.715,-41.183,923.526290
7 Jun 2022 17:07:12.000,148.940,-32.787,1201.815504
7 Jun 2022 17:08:12.000,157.961,-27.659,1551.752359
7 Jun 2022 17:09:00.100,162.254,-25.365,1856.471739
7 Jun 2022 18:36:50.216,0.469,-25.312,1866.290780
7 Jun 2022 18:37:50.000,0.367,-28.654,1461.115896
7 Jun 2022 18:38:50.000,0.170,-35.896,1074.244853
7 Jun 2022 18:39:50.000,359.617,-52.214,741.830543
7 Jun 2022 18:40:50.000,346.767,-86.204,571.372820
7 Jun 2022 18:41:50.000,182.145,-56.742,695.340144
7 Jun 2022 18:42:50.000,181.428,-37.871,1010.341837
7 Jun 2022 18:43:50.000,181.207,-29.553,1391.432419
7 Jun 2022 18:44:50.000,181.101,-25.718,1795.962414
7 Jun 2022 18:44:58.749,181.090,-25.368,1855.921879
7 Jun 2022 20:12:19.428,343.077,-25.313,1866.149749
7 Jun 2022 20:13:19.000,337.693,-28.379,1484.594042
7 Jun 2022 20:14:19.000,327.797,-34.260,1136.473374
7 Jun 2022 20:15:19.000,306.778,-43.628,871.597673
7 Jun 2022 20:16:19.000,265.407,-49.095,781.464019
7 Jun 2022 20:17:19.000,228.250,-41.364,919.371342
7 Jun 2022 20:18:19.000,210.672,-32.632,1209.272802
7 Jun 2022 20:19:19.000,202.138,-27.497,1568.212458
7 Jun 2022 20:20:03.912,198.320,-25.358,1857.844347
7 Jun 2022 21:47:35.541,328.806,-25.315,1865.824729
7 Jun 2022 21:48:35.000,319.783,-27.827,1535.280806
7 Jun 2022 21:49:35.000,305.286,-31.560,1264.859824
7 Jun 2022 21:50:35.000,283.115,-35.010,1106.745628
7 Jun 2022 21:51:35.000,256.537,-34.905,1110.751872
7 Jun 2022 21:52:35.000,234.723,-31.373,1275.330623
7 Jun 2022 21:53:35.000,220.540,-27.681,1549.592833
7 Jun 2022 21:54:30.878,212.138,-25.340,1861.020046
7 Jun 2022 23:22:29.429,320.636,-25.319,1865.013060
7 Jun 2022 23:23:29.000,309.940,-27.452,1572.892430
7 Jun 2022 23:24:29.000,294.224,-30.049,1356.849713
7 Jun 2022 23:25:29.000,273.502,-31.626,1261.264967
7 Jun 2022 23:26:29.000,251.885,-30.730,1313.138890
7 Jun 2022 23:27:29.000,234.495,-28.238,1497.022820
7 Jun 2022 23:28:29.000,222.378,-25.872,1771.646067
7 Jun 2022 23:28:46.594,219.637,-25.326,1863.773472
8 Jun 2022 00:56:56.089,321.547,-25.329,1863.151857
8 Jun 2022 00:57:56.000,311.003,-27.547,1563.032989
8 Jun 2022 00:58:56.000,295.360,-30.320,1338.944274
8 Jun 2022 00:59:56.000,274.310,-32.120,1234.955923
8 Jun 2022 01:00:56.000,252.011,-31.271,1281.131804
8 Jun 2022 01:01:56.000,234.075,-28.629,1463.153454
8 Jun 2022 01:02:56.000,221.700,-26.096,1738.240478
8 Jun 2022 01:03:19.987,217.988,-25.317,1865.310083
8 Jun 2022 02:31:11.693,331.064,-25.345,1860.142520
8 Jun 2022 02:32:11.000,322.787,-28.019,1516.998653
8 Jun 2022 02:33:11.000,308.974,-32.279,1226.843648
8 Jun 2022 02:34:11.000,286.339,-36.774,1044.480489
8 Jun 2022 02:35:11.000,257.120,-37.233,1029.805566
8 Jun 2022 02:36:11.000,232.976,-33.056,1189.105071
8 Jun 2022 02:37:11.000,217.971,-28.593,1466.223696
8 Jun 2022 02:38:11.000,208.952,-25.651,1806.875976
8 Jun 2022 02:38:20.761,207.846,-25.314,1865.944656
8 Jun 2022 04:05:46.639,346.024,-25.362,1857.136567
8 Jun 2022 04:06:46.000,341.899,-28.580,1467.311790
8 Jun 2022 04:07:46.000,334.023,-35.103,1103.188476
8 Jun 2022 04:08:46.000,315.302,-46.964,813.033448
8 Jun 2022 04:09:46.000,266.394,-56.435,698.141251
8 Jun 2022 04:10:46.000,220.643,-45.640,834.800966
8 Jun 2022 04:11:46.000,203.575,-34.292,1135.148489
8 Jun 2022 04:12:46.000,196.212,-28.169,1503.265880
8 Jun 2022 04:13:41.110,192.506,-25.312,1866.203847
8 Jun 2022 05:41:05.042,3.823,-25.369,1855.795688
8 Jun 2022 05:42:05.000,5.297,-28.766,1451.871814
8 Jun 2022 05:43:05.000,8.192,-36.040,1069.178558
8 Jun 2022 05:44:05.000,16.306,-51.959,744.821696
8 Jun 2022 05:45:05.000,80.110,-76.558,587.571213
8 Jun 2022 05:46:05.000,160.390,-54.402,717.919072
8 Jun 2022 05:47:05.000,169.774,-37.172,1031.720998
8 Jun 2022 05:48:05.000,172.920,-29.292,1410.642657
8 Jun 2022 05:49:05.000,174.478,-25.613,1813.209946
8 Jun 2022 05:49:12.786,174.624,-25.312,1866.319907
8 Jun 2022 07:17:18.987,22.862,-25.362,1857.073492
8 Jun 2022 07:18:18.000,29.763,-28.182,1502.035199
8 Jun 2022 07:19:18.000,41.804,-33.108,1186.688995
8 Jun 2022 07:20:18.000,63.738,-39.490,965.146934
8 Jun 2022 07:21:18.000,97.039,-41.788,909.860623
8 Jun 2022 07:22:18.000,126.129,-36.678,1047.642766
8 Jun 2022 07:23:18.000,142.933,-30.637,1318.846027
8 Jun 2022 07:24:18.000,152.276,-26.696,1658.426450
8 Jun 2022 07:24:51.904,155.775,-25.312,1866.367788
8 Jun 2022 08:54:28.147,41.768,-25.343,1860.492395
8 Jun 2022 08:55:28.000,52.770,-27.301,1588.830000
8 Jun 2022 08:56:28.000,68.263,-29.497,1395.465630
8 Jun 2022 08:57:28.000,87.792,-30.662,1317.312979
8 Jun 2022 08:58:28.000,107.697,-29.792,1374.447525
8 Jun 2022 08:59:28.000,123.930,-27.659,1551.746228
8 Jun 2022 09:00:28.000,135.594,-25.610,1813.675829
8 Jun 2022 09:00:38.642,137.257,-25.312,1866.378521
8 Jun 2022 10:32:14.098,58.002,-25.324,1864.097001
8 Jun 2022 10:33:14.000,70.923,-26.439,1691.095962
8 Jun 2022 10:34:14.000,86.234,-27.081,1613.083919
8 Jun 2022 10:35:14.000,102.058,-26.812,1644.339409
8 Jun 2022 10:36:14.000,116.165,-25.825,1778.969996
8 Jun 2022 10:36:40.563,121.525,-25.312,1866.272593
8 Jun 2022 12:09:45.110,64.300,-25.314,1865.943621
8 Jun 2022 12:10:45.000,77.587,-26.132,1733.159118
8 Jun 2022 12:11:45.000,92.437,-26.390,1697.598331
8 Jun 2022 12:12:45.000,106.970,-25.911,1765.635322
8 Jun 2022 12:13:25.720,115.771,-25.315,1865.652227
8 Jun 2022 13:46:14.964,54.895,-25.312,1866.315856
8 Jun 2022 13:47:14.000,67.247,-26.597,1670.762803
8 Jun 2022 13:48:14.000,82.686,-27.542,1563.567061
8 Jun 2022 13:49:14.000,99.337,-27.499,1568.034500
8 Jun 2022 13:50:14.000,114.593,-26.499,1683.289115
8 Jun 2022 13:51:07.577,125.716,-25.328,1863.274087
8 Jun 2022 15:22:11.332,38.015,-25.312,1866.376616
8 Jun 2022 15:23:11.000,48.039,-27.493,1568.601692
8 Jun 2022 15:24:11.000,62.987,-30.312,1339.506120
8 Jun 2022 15:25:11.000,83.453,-32.367,1222.416146
8 Jun 2022 15:26:11.000,105.871,-31.838,1249.797741
8 Jun 2022 15:27:11.000,124.444,-29.258,1413.227019
8 Jun 2022 15:28:11.000,137.417,-26.581,1672.796821
8 Jun 2022 15:28:47.226,143.076,-25.349,1859.487041
8 Jun 2022 16:57:55.780,19.260,-25.312,1866.349416
8 Jun 2022 16:58:55.000,24.772,-28.278,1493.477274
8 Jun 2022 16:59:55.000,34.789,-33.890,1151.930317
8 Jun 2022 17:00:55.000,55.372,-42.622,891.927009
8 Jun 2022 17:01:55.000,94.395,-47.868,799.148409
8 Jun 2022 17:02:55.000,130.702,-41.086,925.768990
8 Jun 2022 17:03:55.000,148.882,-32.738,1204.138719
8 Jun 2022 17:04:55.000,157.902,-27.637,1554.003517
8 Jun 2022 17:05:42.767,162.176,-25.365,1856.492828
8 Jun 2022 18:33:33.103,0.544,-25.312,1866.291148
8 Jun 2022 18:34:33.000,0.465,-28.663,1460.366285
8 Jun 2022 18:35:33.000,0.315,-35.915,1073.555531
8 Jun 2022 18:36:33.000,359.894,-52.260,741.303245
8 Jun 2022 18:37:33.000,349.837,-86.325,571.287547
8 Jun 2022 18:38:33.000,181.812,-56.697,695.750302
8 Jun 2022 18:39:33.000,181.270,-37.850,1010.945091
8 Jun 2022 18:40:33.000,181.102,-29.543,1392.095771
8 Jun 2022 18:41:33.000,181.023,-25.714,1796.644259
8 Jun 2022 18:41:41.649,181.015,-25.368,1855.918551
8 Jun 2022 20:09:02.355,343.144,-25.313,1866.150594
8 Jun 2022 20:10:02.000,337.770,-28.386,1483.971201
8 Jun 2022 20:11:02.000,327.896,-34.280,1135.630239
8 Jun 2022 20:12:02.000,306.884,-43.687,870.455969
8 Jun 2022 20:13:02.000,265.398,-49.191,780.139616
8 Jun 2022 20:14:02.000,228.152,-41.416,918.199665
8 Jun 2022 20:15:02.000,210.585,-32.651,1208.345082
8 Jun 2022 20:16:02.000,202.069,-27.504,1567.467158
8 Jun 2022 20:16:47.010,198.255,-25.358,1857.834623
8 Jun 2022 21:44:18.538,328.855,-25.315,1865.826716
8 Jun 2022 21:45:18.000,319.842,-27.829,1535.055881
8 Jun 2022 21:46:18.000,305.355,-31.570,1264.328546
8 Jun 2022 21:47:18.000,283.177,-35.033,1105.841452
8 Jun 2022 21:48:18.000,256.564,-34.937,1109.554595
8 Jun 2022 21:49:18.000,234.718,-31.396,1274.030676
8 Jun 2022 21:50:18.000,220.522,-27.694,1548.313017
8 Jun 2022 21:51:14.084,212.091,-25.341,1861.006548
8 Jun 2022 23:19:12.537,320.652,-25.319,1865.018152
8 Jun 2022 23:20:12.000,309.982,-27.448,1573.289024
8 Jun 2022 23:21:12.000,294.278,-30.047,1356.960312
8 Jun 2022 23:22:12.000,273.559,-31.630,1261.006673
8 Jun 2022 23:23:12.000,251.930,-30.740,1312.528371
8 Jun 2022 23:24:12.000,234.523,-28.248,1496.170783
8 Jun 2022 23:25:12.000,222.395,-25.878,1770.661047
8 Jun 2022 23:25:29.781,219.623,-25.326,1863.764476
9 Jun 2022 00:53:39.293,321.524,-25.329,1863.162199
9 Jun 2022 00:54:39.000,311.018,-27.537,1564.088060
9 Jun 2022 00:55:39.000,295.392,-30.306,1339.840347
9 Jun 2022 00:56:39.000,274.363,-32.109,1235.561305
9 Jun 2022 00:57:39.000,252.070,-31.267,1281.361640
9 Jun 2022 00:58:39.000,234.127,-28.631,1463.045589
9 Jun 2022 00:59:39.000,221.741,-26.099,1737.891169
9 Jun 2022 01:00:03.063,218.015,-25.317,1865.305576
9 Jun 2022 02:27:54.882,331.011,-25.345,1860.156015
9 Jun 2022 02:28:54.000,322.755,-28.006,1518.252488
9 Jun 2022 02:29:54.000,308.950,-32.253,1228.179500
9 Jun 2022 02:30:54.000,286.350,-36.734,1045.796111
9 Jun 2022 02:31:54.000,257.181,-37.199,1030.882659
9 Jun 2022 02:32:54.000,233.051,-33.041,1189.815713
9 Jun 2022 02:33:54.000,218.037,-28.588,1466.621055
9 Jun 2022 02:34:54.000,209.006,-25.650,1807.054820
9 Jun 2022 02:35:03.736,207.901,-25.314,1865.941680
9 Jun 2022 04:02:29.691,345.955,-25.362,1857.146555
9 Jun 2022 04:03:29.000,341.814,-28.574,1467.788201
9 Jun 2022 04:04:29.000,333.908,-35.086,1103.859781
9 Jun 2022 04:05:29.000,315.148,-46.903,814.000492
9 Jun 2022 04:06:29.000,266.393,-56.305,699.338866
9 Jun 2022 04:07:29.000,220.781,-45.578,835.867659
9 Jun 2022 04:08:29.000,203.683,-34.272,1135.984395
9 Jun 2022 04:09:29.000,196.293,-28.161,1503.938374
9 Jun 2022 04:10:24.025,192.576,-25.312,1866.203679
9 Jun 2022 05:37:47.882,3.747,-25.369,1855.796065
9 Jun 2022 05:38:47.000,5.169,-28.699,1457.364633
9 Jun 2022 05:39:47.000,7.985,-35.900,1074.106732
9 Jun 2022 05:40:47.000,15.825,-51.670,748.249090
9 Jun 2022 05:41:47.000,77.461,-76.663,587.288929
9 Jun 2022 05:42:47.000,160.418,-54.798,713.895736
9 Jun 2022 05:43:47.000,169.861,-37.345,1026.305077
9 Jun 2022 05:44:47.000,172.994,-29.370,1404.794687
9 Jun 2022 05:45:47.000,174.540,-25.649,1807.218071
9 Jun 2022 05:45:55.664,174.700,-25.312,1866.319154
9 Jun 2022 07:14:01.590,22.783,-25.362,1857.062973
9 Jun 2022 07:15:01.000,29.723,-28.211,1499.470815
9 Jun 2022 07:16:01.000,41.785,-33.163,1184.124586
9 Jun 2022 07:17:01.000,63.797,-39.578,962.854079
9 Jun 2022 07:18:01.000,97.222,-41.855,908.361064
9 Jun 2022 07:19:01.000,126.319,-36.692,1047.163238
9 Jun 2022 07:20:01.000,143.076,-30.633,1319.125845
9 Jun 2022 07:21:01.000,152.382,-26.690,1659.178215
9 Jun 2022 07:21:34.755,155.853,-25.312,1866.367080
9 Jun 2022 08:51:10.545,41.694,-25.343,1860.476047
9 Jun 2022 08:52:10.000,52.597,-27.290,1589.984346
9 Jun 2022 08:53:10.000,68.054,-29.497,1395.450338
9 Jun 2022 08:54:10.000,87.582,-30.685,1315.892805
9 Jun 2022 08:55:10.000,107.534,-29.831,1371.750777
9 Jun 2022 08:56:10.000,123.829,-27.695,1548.189405
9 Jun 2022 08:57:10.000,135.539,-25.634,1809.650554
9 Jun 2022 08:57:21.454,137.330,-25.312,1866.378303
9 Jun 2022 10:28:56.422,57.948,-25.324,1864.084974
9 Jun 2022 10:29:56.000,70.788,-26.436,1691.436881
9 Jun 2022 10:30:56.000,86.093,-27.086,1612.478758
9 Jun 2022 10:31:56.000,101.932,-26.824,1642.805884
9 Jun 2022 10:32:56.000,116.068,-25.839,1776.691644
9 Jun 2022 10:33:23.274,121.577,-25.312,1866.273453
9 Jun 2022 12:06:27.639,64.308,-25.314,1865.940160
9 Jun 2022 12:07:27.000,77.469,-26.126,1733.993125
9 Jun 2022 12:08:27.000,92.313,-26.390,1697.590219
9 Jun 2022 12:09:27.000,106.855,-25.917,1764.800330
9 Jun 2022 12:10:08.173,115.761,-25.315,1865.657508
9 Jun 2022 13:42:57.713,54.955,-25.312,1866.315337
9 Jun 2022 13:43:57.000,67.372,-26.599,1670.496753
9 Jun 2022 13:44:57.000,82.819,-27.536,1564.184393
9 Jun 2022 13:45:57.000,99.455,-27.484,1569.543413
9 Jun 2022 13:46:57.000,114.682,-26.482,1685.518222
9 Jun 2022 13:47:49.898,125.654,-25.328,1863.287688
9 Jun 2022 15:18:54.156,38.090,-25.312,1866.376671
9 Jun 2022 15:19:54.000,48.164,-27.497,1568.205159
9 Jun 2022 15:20:54.000,63.138,-30.306,1339.896498
9 Jun 2022 15:21:54.000,83.602,-32.340,1223.772389
9 Jun 2022 15:22:54.000,105.974,-31.796,1252.020684
9 Jun 2022 15:23:54.000,124.491,-29.221,1415.972599
9 Jun 2022 15:24:54.000,137.429,-26.557,1675.761533
9 Jun 2022 15:25:29.669,142.999,-25.349,1859.500545
9 Jun 2022 16:54:38.638,19.338,-25.312,1866.349561
9 Jun 2022 16:55:38.000,24.888,-28.285,1492.842160
9 Jun 2022 16:56:38.000,34.953,-33.894,1151.777732
9 Jun 2022 16:57:38.000,55.600,-42.590,892.587227
9 Jun 2022 16:58:38.000,94.555,-47.756,800.827135
9 Jun 2022 16:59:38.000,130.688,-40.990,928.015983
9 Jun 2022 17:00:38.000,148.824,-32.690,1206.466198
9 Jun 2022 17:01:38.000,157.843,-27.614,1556.259145
9 Jun 2022 17:02:25.431,162.097,-25.365,1856.497727
9 Jun 2022 18:30:15.989,0.620,-25.312,1866.291517
9 Jun 2022 18:31:15.000,0.565,-28.592,1466.280424
9 Jun 2022 18:32:15.000,0.463,-35.761,1079.022250
9 Jun 2022 18:33:15.000,0.181,-51.906,745.444588
9 Jun 2022 18:34:15.000,354.360,-85.742,571.726532
9 Jun 2022 18:35:15.000,181.493,-57.113,692.022102
9 Jun 2022 18:36:15.000,181.114,-38.032,1005.566992
9 Jun 2022 18:37:15.000,180.999,-29.626,1386.161598
9 Jun 2022 18:38:15.000,180.946,-25.752,1790.490598
9 Jun 2022 18:38:24.548,180.940,-25.368,1855.915268
9 Jun 2022 20:05:45.282,343.211,-25.313,1866.151437
9 Jun 2022 20:06:45.000,337.847,-28.393,1483.347347
9 Jun 2022 20:07:45.000,327.995,-34.301,1134.786748
9 Jun 2022 20:08:45.000,306.991,-43.746,869.314745
9 Jun 2022 20:09:45.000,265.390,-49.287,778.816967
9 Jun 2022 20:10:45.000,228.054,-41.467,917.031394
9 Jun 2022 20:11:45.000,210.497,-32.670,1207.421493
9 Jun 2022 20:12:45.000,201.999,-27.511,1566.726077
9 Jun 2022 20:13:30.106,198.189,-25.358,1857.824868
9 Jun 2022 21:41:01.535,328.903,-25.314,1865.828686
9 Jun 2022 21:42:01.000,319.901,-27.831,1534.829244
9 Jun 2022 21:43:01.000,305.423,-31.580,1263.795740
9 Jun 2022 21:44:01.000,283.239,-35.057,1104.935876
9 Jun 2022 21:45:01.000,256.591,-34.968,1108.356190
9 Jun 2022 21:46:01.000,234.712,-31.419,1272.730252
9 Jun 2022 21:47:01.000,220.504,-27.707,1547.033412
9 Jun 2022 21:47:57.289,212.045,-25.341,1860.993042
9 Jun 2022 23:15:55.645,320.669,-25.319,1865.023232
9 Jun 2022 23:16:55.000,310.025,-27.444,1573.683707
9 Jun 2022 23:17:55.000,294.332,-30.046,1357.068999
9 Jun 2022 23:18:55.000,273.617,-31.635,1260.746488
9 Jun 2022 23:19:55.000,251.976,-30.750,1311.916002
9 Jun 2022 23:20:55.000,234.552,-28.257,1495.317056
9 Jun 2022 23:21:55.000,222.411,-25.885,1769.674601
9 Jun 2022 23:22:12.969,219.610,-25.326,1863.755453
10 Jun 2022 00:50:22.497,321.500,-25.329,1863.172518
10 Jun 2022 00:51:22.000,311.034,-27.527,1565.141777
10 Jun 2022 00:52:22.000,295.425,-30.293,1340.734753
10 Jun 2022 00:53:22.000,274.415,-32.097,1236.164883
10 Jun 2022 00:54:22.000,252.130,-31.263,1281.589638
10 Jun 2022 00:55:22.000,234.179,-28.632,1462.935838
10 Jun 2022 00:56:22.000,221.782,-26.101,1737.539952
10 Jun 2022 00:56:46.140,218.040,-25.317,1865.301060
10 Jun 2022 02:24:38.071,330.959,-25.345,1860.169512
10 Jun 2022 02:25:38.000,322.546,-28.051,1514.101436
10 Jun 2022 02:26:38.000,308.631,-32.307,1225.418509
10 Jun 2022 02:27:38.000,285.905,-36.747,1045.356031
10 Jun 2022 02:28:38.000,256.769,-37.123,1033.280332
10 Jun 2022 02:29:38.000,232.807,-32.944,1194.349083
10 Jun 2022 02:30:38.000,217.912,-28.521,1472.280088
10 Jun 2022 02:31:38.000,208.942,-25.613,1813.240142
10 Jun 2022 02:31:46.711,207.955,-25.314,1865.938685
10 Jun 2022 03:59:12.744,345.886,-25.362,1857.156575
10 Jun 2022 04:00:12.000,341.729,-28.569,1468.269942
10 Jun 2022 04:01:12.000,333.792,-35.068,1104.536705
10 Jun 2022 04:02:12.000,314.995,-46.841,814.972798
10 Jun 2022 04:03:12.000,266.392,-56.176,700.539804
10 Jun 2022 04:04:12.000,220.919,-45.516,836.935715
10 Jun 2022 04:05:12.000,203.790,-34.251,1136.820370
10 Jun 2022 04:06:12.000,196.374,-28.154,1504.610081
10 Jun 2022 04:07:06.939,192.645,-25.312,1866.203505
10 Jun 2022 05:34:30.723,3.670,-25.369,1855.796490
10 Jun 2022 05:35:30.000,5.074,-28.713,1456.250782
10 Jun 2022 05:36:30.000,7.849,-35.932,1072.978451
10 Jun 2022 05:37:30.000,15.594,-51.758,747.197420
10 Jun 2022 05:38:30.000,77.675,-76.889,586.693313
10 Jun 2022 05:39:30.000,160.757,-54.784,714.031899
10 Jun 2022 05:40:30.000,170.028,-37.328,1026.843111
10 Jun 2022 05:41:30.000,173.103,-29.360,1405.516200
10 Jun 2022 05:42:30.000,174.621,-25.644,1808.036698
10 Jun 2022 05:42:38.543,174.777,-25.312,1866.318395
10 Jun 2022 07:10:44.194,22.704,-25.362,1857.052490
10 Jun 2022 07:11:44.000,29.682,-28.239,1496.909677
10 Jun 2022 07:12:44.000,41.765,-33.219,1181.563068
10 Jun 2022 07:13:44.000,63.856,-39.667,960.564614
10 Jun 2022 07:14:44.000,97.404,-41.923,906.866748
10 Jun 2022 07:15:44.000,126.510,-36.707,1046.688715
10 Jun 2022 07:16:44.000,143.219,-30.628,1319.408571
10 Jun 2022 07:17:44.000,152.488,-26.684,1659.931057
10 Jun 2022 07:18:17.605,155.931,-25.312,1866.366355
10 Jun 2022 08:47:52.943,41.619,-25.344,1860.459700
10 Jun 2022 08:48:52.000,52.423,-27.279,1591.150753
10 Jun 2022 08:49:52.000,67.845,-29.497,1395.448643
10 Jun 2022 08:50:52.000,87.371,-30.708,1314.484301
10 Jun 2022 08:51:52.000,107.372,-29.869,1369.060170
10 Jun 2022 08:52:52.000,123.728,-27.731,1544.633423
10 Jun 2022 08:53:52.000,135.483,-25.659,1805.623046
10 Jun 2022 08:54:04.266,137.403,-25.312,1866.378073
10 Jun 2022 10:25:38.745,57.894,-25.324,1864.072910
10 Jun 2022 10:26:38.000,70.652,-26.434,1691.782518
10 Jun 2022 10:27:38.000,85.952,-27.091,1611.877870
10 Jun 2022 10:28:38.000,101.806,-26.837,1641.274825
10 Jun 2022 10:29:38.000,115.971,-25.854,1774.413487
10 Jun 2022 10:30:05.986,121.628,-25.312,1866.274645
10 Jun 2022 12:03:10.167,64.317,-25.314,1865.936666
10 Jun 2022 12:04:10.000,77.591,-26.130,1733.369855
10 Jun 2022 12:05:10.000,92.439,-26.388,1697.849462
10 Jun 2022 12:06:10.000,106.969,-25.909,1765.909703
