data/KSAT/Skyhopper_Trollsat_Access_1year.csv

"Access","Start Time (UTCG)","Stop Time (UTCG)","Duration (sec)"
1,1 Jun 2022 05:24:37.083,1 Jun 2022 05:31:00.356,383.273
2,1 Jun 2022 06:59:58.210,1 Jun 2022 07:08:00.625,482.414
3,1 Jun 2022 08:35:32.563,1 Jun 2022 08:43:13.572,461.009
4,1 Jun 2022 10:11:14.132,1 Jun 2022 10:16:54.671,340.540
5,1 Jun 2022 11:47:14.779,1 Jun 2022 11:49:10.581,115.802
6,1 Jun 2022 14:54:23.011,1 Jun 2022 14:57:30.339,187.328
7,1 Jun 2022 16:27:02.429,1 Jun 2022 16:33:21.552,379.123
8,1 Jun 2022 18:01:05.120,1 Jun 2022 18:09:01.301,476.181
9,1 Jun 2022 19:36:43.123,1 Jun 2022 19:44:33.428,470.304
10,1 Jun 2022 21:14:14.273,1 Jun 2022 21:19:47.723,333.450
11,2 Jun 2022 05:21:20.077,2 Jun 2022 05:27:42.630,382.553
12,2 Jun 2022 06:56:41.113,2 Jun 2022 07:04:43.387,482.274
13,2 Jun 2022 08:32:15.432,2 Jun 2022 08:39:56.741,461.309
14,2 Jun 2022 10:07:56.966,2 Jun 2022 10:13:38.190,341.224
15,2 Jun 2022 11:43:57.369,2 Jun 2022 11:45:54.566,117.197
16,2 Jun 2022 14:51:06.796,2 Jun 2022 14:54:13.086,186.290
17,2 Jun 2022 16:23:45.867,2 Jun 2022 16:30:04.399,378.532
18,2 Jun 2022 17:57:48.195,2 Jun 2022 18:05:44.176,475.981
19,2 Jun 2022 19:33:25.777,2 Jun 2022 19:41:16.343,470.566
20,2 Jun 2022 21:10:56.392,2 Jun 2022 21:16:30.776,334.385
21,3 Jun 2022 05:18:03.073,3 Jun 2022 05:24:24.900,381.827
22,3 Jun 2022 06:53:24.015,3 Jun 2022 07:01:26.147,482.132
23,3 Jun 2022 08:28:58.300,3 Jun 2022 08:36:39.909,461.608
24,3 Jun 2022 10:04:39.801,3 Jun 2022 10:10:21.708,341.907
25,3 Jun 2022 11:40:39.963,3 Jun 2022 11:42:38.543,118.580
26,3 Jun 2022 14:47:50.584,3 Jun 2022 14:50:55.831,185.248
27,3 Jun 2022 16:20:29.307,3 Jun 2022 16:26:47.246,377.939
28,3 Jun 2022 17:54:31.271,3 Jun 2022 18:02:27.051,475.780
29,3 Jun 2022 19:30:08.433,3 Jun 2022 19:37:59.258,470.825
30,3 Jun 2022 21:07:38.514,3 Jun 2022 21:13:13.828,335.315
31,4 Jun 2022 05:14:46.069,4 Jun 2022 05:21:07.169,381.100
32,4 Jun 2022 06:50:06.918,4 Jun 2022 06:58:08.906,481.987
33,4 Jun 2022 08:25:41.169,4 Jun 2022 08:33:23.075,461.906
34,4 Jun 2022 10:01:22.638,4 Jun 2022 10:07:05.224,342.586
35,4 Jun 2022 11:37:22.563,4 Jun 2022 11:39:22.515,119.953
36,4 Jun 2022 14:44:34.373,4 Jun 2022 14:47:38.576,184.202
37,4 Jun 2022 16:17:12.748,4 Jun 2022 16:23:30.092,377.345
38,4 Jun 2022 17:51:14.350,4 Jun 2022 17:59:09.926,475.577
39,4 Jun 2022 19:26:51.090,4 Jun 2022 19:34:42.173,471.082
40,4 Jun 2022 21:04:20.639,4 Jun 2022 21:09:56.879,336.240
41,5 Jun 2022 05:11:29.067,5 Jun 2022 05:17:49.436,380.370
42,5 Jun 2022 06:46:49.821,5 Jun 2022 06:54:51.662,481.841
43,5 Jun 2022 08:22:24.038,5 Jun 2022 08:30:06.239,462.201
44,5 Jun 2022 09:58:05.475,5 Jun 2022 10:03:48.739,343.264
45,5 Jun 2022 11:34:05.167,5 Jun 2022 11:36:06.482,121.315
46,5 Jun 2022 14:41:18.165,5 Jun 2022 14:44:21.318,183.154
47,5 Jun 2022 16:13:56.190,5 Jun 2022 16:20:12.939,376.749
48,5 Jun 2022 17:47:57.429,5 Jun 2022 17:55:52.802,475.372
49,5 Jun 2022 19:23:33.750,5 Jun 2022 19:31:25.087,471.337
50,5 Jun 2022 21:01:02.767,5 Jun 2022 21:06:39.928,337.162
51,6 Jun 2022 05:08:12.065,6 Jun 2022 05:14:31.701,379.636
52,6 Jun 2022 06:43:32.725,6 Jun 2022 06:51:34.420,481.695
53,6 Jun 2022 08:19:06.907,6 Jun 2022 08:26:49.402,462.495
54,6 Jun 2022 09:54:48.313,6 Jun 2022 10:00:32.253,343.940
55,6 Jun 2022 11:30:47.777,6 Jun 2022 11:32:50.439,122.663
56,6 Jun 2022 14:38:01.958,6 Jun 2022 14:41:04.060,182.102
57,6 Jun 2022 16:10:39.634,6 Jun 2022 16:16:55.785,376.152
58,6 Jun 2022 17:44:40.511,6 Jun 2022 17:52:35.677,475.166
59,6 Jun 2022 19:20:16.412,6 Jun 2022 19:28:08.002,471.590
60,6 Jun 2022 20:57:44.897,6 Jun 2022 21:03:22.976,338.079
61,7 Jun 2022 05:04:55.063,7 Jun 2022 05:11:13.963,378.900
62,7 Jun 2022 06:40:15.628,7 Jun 2022 06:48:17.173,481.545
63,7 Jun 2022 08:15:49.776,7 Jun 2022 08:23:32.565,462.788
64,7 Jun 2022 09:51:31.151,7 Jun 2022 09:57:15.765,344.614
65,7 Jun 2022 11:27:30.391,7 Jun 2022 11:29:34.398,124.008
66,7 Jun 2022 14:34:45.754,7 Jun 2022 14:37:46.800,181.046
67,7 Jun 2022 16:07:23.079,7 Jun 2022 16:13:38.632,375.553
68,7 Jun 2022 17:41:23.594,7 Jun 2022 17:49:18.551,474.957
69,7 Jun 2022 19:16:59.075,7 Jun 2022 19:24:50.916,471.841
70,7 Jun 2022 20:54:27.031,7 Jun 2022 21:00:06.024,338.993
71,8 Jun 2022 05:01:38.063,8 Jun 2022 05:07:56.224,378.161
72,8 Jun 2022 06:36:58.532,8 Jun 2022 06:44:59.925,481.393
73,8 Jun 2022 08:12:32.646,8 Jun 2022 08:20:15.725,463.079
74,8 Jun 2022 09:48:13.989,8 Jun 2022 09:53:59.277,345.287
75,8 Jun 2022 11:24:13.010,8 Jun 2022 11:26:18.345,125.336
76,8 Jun 2022 14:31:29.553,8 Jun 2022 14:34:29.539,179.986
77,8 Jun 2022 16:04:06.526,8 Jun 2022 16:10:21.478,374.953
78,8 Jun 2022 17:38:06.679,8 Jun 2022 17:46:01.426,474.747
79,8 Jun 2022 19:13:41.741,8 Jun 2022 19:21:33.830,472.090
80,8 Jun 2022 20:51:09.168,8 Jun 2022 20:56:49.070,339.902
81,9 Jun 2022 04:58:21.063,9 Jun 2022 05:04:38.481,377.418
82,9 Jun 2022 06:33:41.436,9 Jun 2022 06:41:42.677,481.241
83,9 Jun 2022 08:09:15.516,9 Jun 2022 08:16:58.884,463.369
84,9 Jun 2022 09:44:56.828,9 Jun 2022 09:50:42.786,345.959
85,9 Jun 2022 11:20:55.633,9 Jun 2022 11:23:02.293,126.660
86,9 Jun 2022 14:28:13.353,9 Jun 2022 14:31:12.276,178.922
87,9 Jun 2022 16:00:49.974,9 Jun 2022 16:07:04.324,374.350
88,9 Jun 2022 17:34:49.766,9 Jun 2022 17:42:44.301,474.536
89,9 Jun 2022 19:10:24.408,9 Jun 2022 19:18:16.744,472.336
90,9 Jun 2022 20:47:51.307,9 Jun 2022 20:53:32.114,340.808
91,10 Jun 2022 04:55:04.065,10 Jun 2022 05:01:20.737,376.672
92,10 Jun 2022 06:30:24.340,10 Jun 2022 06:38:25.426,481.085
93,10 Jun 2022 08:05:58.385,10 Jun 2022 08:13:42.043,463.658
94,10 Jun 2022 09:41:39.667,10 Jun 2022 09:47:26.295,346.628
95,10 Jun 2022 11:17:38.261,10 Jun 2022 11:19:46.235,127.974
96,10 Jun 2022 14:24:57.157,10 Jun 2022 14:27:55.011,177.854
97,10 Jun 2022 15:57:33.423,10 Jun 2022 16:03:47.170,373.747
98,10 Jun 2022 17:31:32.854,10 Jun 2022 17:39:27.176,474.322
99,10 Jun 2022 19:07:07.077,10 Jun 2022 19:14:59.660,472.583
100,10 Jun 2022 20:44:33.449,10 Jun 2022 20:50:15.158,341.709
101,11 Jun 2022 04:51:47.066,11 Jun 2022 04:58:02.990,375.924
102,11 Jun 2022 06:27:07.245,11 Jun 2022 06:35:08.172,480.927
103,11 Jun 2022 08:02:41.255,11 Jun 2022 08:10:25.198,463.943
104,11 Jun 2022 09:38:22.505,11 Jun 2022 09:44:09.801,347.296
105,11 Jun 2022 11:14:20.894,11 Jun 2022 11:16:30.170,129.276
106,11 Jun 2022 14:21:40.962,11 Jun 2022 14:24:37.744,176.782
107,11 Jun 2022 15:54:16.874,11 Jun 2022 16:00:30.015,373.141
108,11 Jun 2022 17:28:15.943,11 Jun 2022 17:36:10.051,474.107
109,11 Jun 2022 19:03:49.748,11 Jun 2022 19:11:42.574,472.826
110,11 Jun 2022 20:41:15.593,11 Jun 2022 20:46:58.201,342.608
111,12 Jun 2022 04:48:30.069,12 Jun 2022 04:54:45.240,375.172
112,12 Jun 2022 06:23:50.149,12 Jun 2022 06:31:50.917,480.768
113,12 Jun 2022 07:59:24.125,12 Jun 2022 08:07:08.351,464.226
114,12 Jun 2022 09:35:05.345,12 Jun 2022 09:40:53.309,347.964
115,12 Jun 2022 11:11:03.530,12 Jun 2022 11:13:14.099,130.569
116,12 Jun 2022 14:18:24.770,12 Jun 2022 14:21:20.476,175.706
117,12 Jun 2022 15:51:00.326,12 Jun 2022 15:57:12.860,372.534
118,12 Jun 2022 17:24:59.034,12 Jun 2022 17:32:52.925,473.890
119,12 Jun 2022 19:00:32.420,12 Jun 2022 19:08:25.487,473.067
120,12 Jun 2022 20:37:57.741,12 Jun 2022 20:43:41.242,343.502
121,13 Jun 2022 04:45:13.072,13 Jun 2022 04:51:27.488,374.417
122,13 Jun 2022 06:20:33.054,13 Jun 2022 06:28:33.660,480.606
123,13 Jun 2022 07:56:06.995,13 Jun 2022 08:03:51.503,464.508
124,13 Jun 2022 09:31:48.184,13 Jun 2022 09:37:36.812,348.628
125,13 Jun 2022 11:07:46.170,13 Jun 2022 11:09:58.025,131.854
126,13 Jun 2022 14:15:08.580,13 Jun 2022 14:18:03.206,174.626
127,13 Jun 2022 15:47:43.780,13 Jun 2022 15:53:55.705,371.926
128,13 Jun 2022 17:21:42.127,13 Jun 2022 17:29:35.799,473.672
129,13 Jun 2022 18:57:15.094,13 Jun 2022 19:05:08.399,473.305
130,13 Jun 2022 20:34:39.891,13 Jun 2022 20:40:24.282,344.392
131,14 Jun 2022 04:41:56.076,14 Jun 2022 04:48:09.734,373.658
132,14 Jun 2022 06:17:15.958,14 Jun 2022 06:25:16.401,480.443
133,14 Jun 2022 07:52:49.865,14 Jun 2022 08:00:34.653,464.788
134,14 Jun 2022 09:28:31.023,14 Jun 2022 09:34:20.313,349.290
135,14 Jun 2022 11:04:28.814,14 Jun 2022 11:06:41.946,133.132
136,14 Jun 2022 14:11:52.392,14 Jun 2022 14:14:45.934,173.542
137,14 Jun 2022 15:44:27.234,14 Jun 2022 15:50:38.550,371.316
138,14 Jun 2022 17:18:25.221,14 Jun 2022 17:26:18.673,473.452
139,14 Jun 2022 18:53:57.770,14 Jun 2022 19:01:51.312,473.541
140,14 Jun 2022 20:31:22.043,14 Jun 2022 20:37:07.322,345.279
141,15 Jun 2022 04:38:39.080,15 Jun 2022 04:44:51.976,372.896
142,15 Jun 2022 06:13:58.863,15 Jun 2022 06:21:59.140,480.277
143,15 Jun 2022 07:49:32.734,15 Jun 2022 07:57:17.802,465.067
144,15 Jun 2022 09:25:13.862,15 Jun 2022 09:31:03.814,349.952
145,15 Jun 2022 11:01:11.460,15 Jun 2022 11:03:25.863,134.402
146,15 Jun 2022 14:08:36.206,15 Jun 2022 14:11:28.662,172.456
147,15 Jun 2022 15:41:10.690,15 Jun 2022 15:47:21.394,370.704
148,15 Jun 2022 17:15:08.317,15 Jun 2022 17:23:01.547,473.230
149,15 Jun 2022 18:50:40.448,15 Jun 2022 18:58:34.224,473.776
150,15 Jun 2022 20:28:04.197,15 Jun 2022 20:33:50.358,346.161
151,16 Jun 2022 04:35:22.086,16 Jun 2022 04:41:34.216,372.131
152,16 Jun 2022 06:10:41.768,16 Jun 2022 06:18:41.878,480.110
153,16 Jun 2022 07:46:15.604,16 Jun 2022 07:54:00.948,465.344
154,16 Jun 2022 09:21:56.701,16 Jun 2022 09:27:47.314,350.613
155,16 Jun 2022 10:57:54.110,16 Jun 2022 11:00:09.776,135.666
156,16 Jun 2022 14:05:20.022,16 Jun 2022 14:08:11.388,171.366
157,16 Jun 2022 15:37:54.150,16 Jun 2022 15:44:04.239,370.089
158,16 Jun 2022 17:11:51.414,16 Jun 2022 17:19:44.420,473.006
159,16 Jun 2022 18:47:23.128,16 Jun 2022 18:55:17.135,474.008
160,16 Jun 2022 20:24:46.353,16 Jun 2022 20:30:33.395,347.042
161,17 Jun 2022 04:32:05.092,17 Jun 2022 04:38:16.454,371.361
162,17 Jun 2022 06:07:24.673,17 Jun 2022 06:15:24.614,479.941
163,17 Jun 2022 07:42:58.474,17 Jun 2022 07:50:44.094,465.619
164,17 Jun 2022 09:18:39.541,17 Jun 2022 09:24:30.813,351.273
165,17 Jun 2022 10:54:36.765,17 Jun 2022 10:56:53.686,136.921
166,17 Jun 2022 14:02:03.840,17 Jun 2022 14:04:54.112,170.272
167,17 Jun 2022 15:34:37.608,17 Jun 2022 15:40:47.084,369.475
168,17 Jun 2022 17:08:34.513,17 Jun 2022 17:16:27.294,472.781
169,17 Jun 2022 18:44:05.810,17 Jun 2022 18:52:00.047,474.237
170,17 Jun 2022 20:21:28.514,17 Jun 2022 20:27:16.430,347.916
171,18 Jun 2022 04:28:48.100,18 Jun 2022 04:34:58.689,370.589
172,18 Jun 2022 06:04:07.579,18 Jun 2022 06:12:07.348,479.769
173,18 Jun 2022 07:39:41.345,18 Jun 2022 07:47:27.238,465.893
174,18 Jun 2022 09:15:22.380,18 Jun 2022 09:21:14.311,351.931
175,18 Jun 2022 10:51:19.421,18 Jun 2022 10:53:37.592,138.171
176,18 Jun 2022 13:58:47.661,18 Jun 2022 14:01:36.835,169.175
177,18 Jun 2022 15:31:21.068,18 Jun 2022 15:37:29.928,368.860
178,18 Jun 2022 17:05:17.614,18 Jun 2022 17:13:10.168,472.554
179,18 Jun 2022 18:40:48.493,18 Jun 2022 18:48:42.959,474.465
180,18 Jun 2022 20:18:10.678,18 Jun 2022 20:23:59.464,348.785
181,19 Jun 2022 04:25:31.109,19 Jun 2022 04:31:40.922,369.813
182,19 Jun 2022 06:00:50.485,19 Jun 2022 06:08:50.080,479.596
183,19 Jun 2022 07:36:24.215,19 Jun 2022 07:44:10.380,466.165
184,19 Jun 2022 09:12:05.220,19 Jun 2022 09:17:57.808,352.587
185,19 Jun 2022 10:48:02.081,19 Jun 2022 10:50:21.494,139.413
186,19 Jun 2022 13:55:31.484,19 Jun 2022 13:58:19.557,168.073
187,19 Jun 2022 15:28:04.530,19 Jun 2022 15:34:12.773,368.243
188,19 Jun 2022 17:02:00.716,19 Jun 2022 17:09:53.041,472.325
189,19 Jun 2022 18:37:31.179,19 Jun 2022 18:45:25.870,474.691
190,19 Jun 2022 20:14:52.845,19 Jun 2022 20:20:42.497,349.652
191,20 Jun 2022 04:22:14.118,20 Jun 2022 04:28:23.152,369.034
192,20 Jun 2022 05:57:33.391,20 Jun 2022 06:05:32.811,479.420
193,20 Jun 2022 07:33:07.086,20 Jun 2022 07:40:53.521,466.435
194,20 Jun 2022 09:08:48.060,20 Jun 2022 09:14:41.303,353.242
195,20 Jun 2022 10:44:44.744,20 Jun 2022 10:47:05.392,140.649
196,20 Jun 2022 13:52:15.310,20 Jun 2022 13:55:02.277,166.967
197,20 Jun 2022 15:24:47.993,20 Jun 2022 15:30:55.617,367.625
198,20 Jun 2022 16:58:43.820,20 Jun 2022 17:06:35.915,472.095
199,20 Jun 2022 18:34:13.867,20 Jun 2022 18:42:08.781,474.915
200,20 Jun 2022 20:11:35.015,20 Jun 2022 20:17:25.529,350.514
201,21 Jun 2022 04:18:57.129,21 Jun 2022 04:25:05.380,368.252
202,21 Jun 2022 05:54:16.298,21 Jun 2022 06:02:15.540,479.242
203,21 Jun 2022 07:29:49.957,21 Jun 2022 07:37:36.661,466.704
204,21 Jun 2022 09:05:30.901,21 Jun 2022 09:11:24.796,353.895
205,21 Jun 2022 10:41:27.410,21 Jun 2022 10:43:49.287,141.876
206,21 Jun 2022 13:48:59.139,21 Jun 2022 13:51:44.994,165.855
207,21 Jun 2022 15:21:31.457,21 Jun 2022 15:27:38.461,367.004
208,21 Jun 2022 16:55:26.926,21 Jun 2022 17:03:18.788,471.863
209,21 Jun 2022 18:30:56.556,21 Jun 2022 18:38:51.692,475.136
210,21 Jun 2022 20:08:17.188,21 Jun 2022 20:14:08.561,351.373
211,22 Jun 2022 04:15:40.140,22 Jun 2022 04:21:47.607,367.468
212,22 Jun 2022 05:50:59.204,22 Jun 2022 05:58:58.267,479.063
213,22 Jun 2022 07:26:32.828,22 Jun 2022 07:34:19.801,466.973
214,22 Jun 2022 09:02:13.742,22 Jun 2022 09:08:08.289,354.547
215,22 Jun 2022 10:38:10.080,22 Jun 2022 10:40:33.177,143.097
216,22 Jun 2022 13:45:42.971,22 Jun 2022 13:48:27.710,164.739
217,22 Jun 2022 15:18:14.923,22 Jun 2022 15:24:21.305,366.382
218,22 Jun 2022 16:52:10.033,22 Jun 2022 17:00:01.662,471.629
219,22 Jun 2022 18:27:39.247,22 Jun 2022 18:35:34.603,475.356
220,22 Jun 2022 20:04:59.363,22 Jun 2022 20:10:51.591,352.228
221,23 Jun 2022 04:12:23.152,23 Jun 2022 04:18:29.831,366.679
222,23 Jun 2022 05:47:42.111,23 Jun 2022 05:55:40.992,478.881
223,23 Jun 2022 07:23:15.699,23 Jun 2022 07:31:02.938,467.239
224,23 Jun 2022 08:58:56.583,23 Jun 2022 09:04:51.780,355.197
225,23 Jun 2022 10:34:52.753,23 Jun 2022 10:37:17.063,144.310
226,23 Jun 2022 13:42:26.805,23 Jun 2022 13:45:10.423,163.618
227,23 Jun 2022 15:14:58.390,23 Jun 2022 15:21:04.149,365.759
228,23 Jun 2022 16:48:53.142,23 Jun 2022 16:56:44.535,471.393
229,23 Jun 2022 18:24:21.940,23 Jun 2022 18:32:17.514,475.573
230,23 Jun 2022 20:01:41.540,23 Jun 2022 20:07:34.621,353.080
231,24 Jun 2022 04:09:06.165,24 Jun 2022 04:15:12.051,365.887
232,24 Jun 2022 05:44:25.018,24 Jun 2022 05:52:23.716,478.698
233,24 Jun 2022 07:19:58.570,24 Jun 2022 07:27:46.072,467.502
234,24 Jun 2022 08:55:39.422,24 Jun 2022 09:01:35.269,355.848
235,24 Jun 2022 10:31:35.429,24 Jun 2022 10:34:00.945,145.516
236,24 Jun 2022 13:39:10.642,24 Jun 2022 13:41:53.134,162.492
237,24 Jun 2022 15:11:41.859,24 Jun 2022 15:17:46.993,365.135
238,24 Jun 2022 16:45:36.252,24 Jun 2022 16:53:27.408,471.156
239,24 Jun 2022 18:21:04.635,24 Jun 2022 18:29:00.424,475.789
240,24 Jun 2022 19:58:23.720,24 Jun 2022 20:04:17.649,353.929
241,25 Jun 2022 04:05:49.178,25 Jun 2022 04:11:54.269,365.091
242,25 Jun 2022 05:41:07.925,25 Jun 2022 05:49:06.438,478.512
243,25 Jun 2022 07:16:41.442,25 Jun 2022 07:24:29.206,467.764
244,25 Jun 2022 08:52:22.263,25 Jun 2022 08:58:18.758,356.494
245,25 Jun 2022 10:28:18.108,25 Jun 2022 10:30:44.824,146.716
246,25 Jun 2022 13:35:54.482,25 Jun 2022 13:38:35.844,161.361
247,25 Jun 2022 15:08:25.329,25 Jun 2022 15:14:29.836,364.508
248,25 Jun 2022 16:42:19.364,25 Jun 2022 16:50:10.281,470.917
249,25 Jun 2022 18:17:47.332,25 Jun 2022 18:25:43.334,476.002
250,25 Jun 2022 19:55:05.903,25 Jun 2022 20:01:00.676,354.773
251,26 Jun 2022 04:02:32.193,26 Jun 2022 04:08:36.484,364.291
252,26 Jun 2022 05:37:50.833,26 Jun 2022 05:45:49.157,478.324
253,26 Jun 2022 07:13:24.313,26 Jun 2022 07:21:12.337,468.024
254,26 Jun 2022 08:49:05.105,26 Jun 2022 08:55:02.244,357.140
255,26 Jun 2022 10:25:00.792,26 Jun 2022 10:27:28.700,147.908
256,26 Jun 2022 13:32:38.325,26 Jun 2022 13:35:18.551,160.226
257,26 Jun 2022 15:05:08.800,26 Jun 2022 15:11:12.679,363.879
258,26 Jun 2022 16:39:02.477,26 Jun 2022 16:46:53.151,470.674
259,26 Jun 2022 18:14:30.030,26 Jun 2022 18:22:26.244,476.214
260,26 Jun 2022 19:51:48.088,26 Jun 2022 19:57:43.703,355.614
261,27 Jun 2022 03:59:15.210,27 Jun 2022 04:05:18.696,363.486
262,27 Jun 2022 05:34:33.740,27 Jun 2022 05:42:31.875,478.135
263,27 Jun 2022 07:10:07.185,27 Jun 2022 07:17:55.467,468.282
264,27 Jun 2022 08:45:47.946,27 Jun 2022 08:51:45.730,357.784
265,27 Jun 2022 10:21:43.475,27 Jun 2022 10:24:12.577,149.102
266,27 Jun 2022 13:29:22.170,27 Jun 2022 13:32:01.256,159.086
267,27 Jun 2022 15:01:52.272,27 Jun 2022 15:07:55.522,363.249
268,27 Jun 2022 16:35:45.592,27 Jun 2022 16:43:36.024,470.431
269,27 Jun 2022 18:11:12.730,27 Jun 2022 18:19:09.154,476.423
270,27 Jun 2022 19:48:30.276,27 Jun 2022 19:54:26.728,356.452
271,28 Jun 2022 03:55:58.226,28 Jun 2022 04:02:00.906,362.679
272,28 Jun 2022 05:31:16.648,28 Jun 2022 05:39:14.591,477.943
273,28 Jun 2022 07:06:50.056,28 Jun 2022 07:14:38.595,468.539
274,28 Jun 2022 08:42:30.788,28 Jun 2022 08:48:29.214,358.426
275,28 Jun 2022 10:18:26.161,28 Jun 2022 10:20:56.447,150.286
276,28 Jun 2022 13:26:06.018,28 Jun 2022 13:28:43.959,157.941
277,28 Jun 2022 14:58:35.746,28 Jun 2022 15:04:38.364,362.618
278,28 Jun 2022 16:32:28.709,28 Jun 2022 16:40:18.896,470.187
279,28 Jun 2022 18:07:55.432,28 Jun 2022 18:15:52.063,476.630
280,28 Jun 2022 19:45:12.467,28 Jun 2022 19:51:09.752,357.285
281,29 Jun 2022 03:52:41.244,29 Jun 2022 03:58:43.113,361.869
282,29 Jun 2022 05:27:59.556,29 Jun 2022 05:35:57.305,477.749
283,29 Jun 2022 07:03:32.928,29 Jun 2022 07:11:21.722,468.794
284,29 Jun 2022 08:39:13.629,29 Jun 2022 08:45:12.697,359.068
285,29 Jun 2022 10:15:08.849,29 Jun 2022 10:17:40.313,151.464
286,29 Jun 2022 13:22:49.868,29 Jun 2022 13:25:26.660,156.792
287,29 Jun 2022 14:55:19.221,29 Jun 2022 15:01:21.205,361.985
288,29 Jun 2022 16:29:11.827,29 Jun 2022 16:37:01.768,469.941
289,29 Jun 2022 18:04:38.136,29 Jun 2022 18:12:34.972,476.836
290,29 Jun 2022 19:41:54.660,29 Jun 2022 19:47:52.775,358.115
291,30 Jun 2022 03:49:24.262,30 Jun 2022 03:55:25.317,361.055
292,30 Jun 2022 05:24:42.464,30 Jun 2022 05:32:40.017,477.553
293,30 Jun 2022 07:00:15.799,30 Jun 2022 07:08:04.847,469.048
294,30 Jun 2022 08:35:56.471,30 Jun 2022 08:41:56.178,359.707
295,30 Jun 2022 10:11:51.540,30 Jun 2022 10:14:24.177,152.637
296,30 Jun 2022 13:19:33.721,30 Jun 2022 13:22:09.359,155.638
297,30 Jun 2022 14:52:02.697,30 Jun 2022 14:58:04.047,361.350
298,30 Jun 2022 16:25:54.947,30 Jun 2022 16:33:44.641,469.694
299,30 Jun 2022 18:01:20.842,30 Jun 2022 18:09:17.881,477.039
300,30 Jun 2022 19:38:36.856,30 Jun 2022 19:44:35.797,358.941
301,1 Jul 2022 03:46:07.281,1 Jul 2022 03:52:07.519,360.238
302,1 Jul 2022 05:21:25.372,1 Jul 2022 05:29:22.728,477.355
303,1 Jul 2022 06:56:58.671,1 Jul 2022 07:04:47.970,469.299
304,1 Jul 2022 08:32:39.313,1 Jul 2022 08:38:39.659,360.346
305,1 Jul 2022 10:08:34.232,1 Jul 2022 10:11:08.038,153.806
306,1 Jul 2022 13:16:17.577,1 Jul 2022 13:18:52.056,154.479
307,1 Jul 2022 14:48:46.175,1 Jul 2022 14:54:46.889,360.714
308,1 Jul 2022 16:22:38.068,1 Jul 2022 16:30:27.513,469.445
309,1 Jul 2022 17:58:03.550,1 Jul 2022 18:06:00.790,477.240
310,1 Jul 2022 19:35:19.054,1 Jul 2022 19:41:18.818,359.763
311,2 Jul 2022 03:42:50.301,2 Jul 2022 03:48:49.718,359.417
312,2 Jul 2022 05:18:08.281,2 Jul 2022 05:26:05.436,477.155
313,2 Jul 2022 06:53:41.543,2 Jul 2022 07:01:31.092,469.550
314,2 Jul 2022 08:29:22.155,2 Jul 2022 08:35:23.138,360.983
315,2 Jul 2022 10:05:16.927,2 Jul 2022 10:07:51.896,154.969
316,2 Jul 2022 13:13:01.436,2 Jul 2022 13:15:34.751,153.315
317,2 Jul 2022 14:45:29.654,2 Jul 2022 14:51:29.731,360.077
318,2 Jul 2022 16:19:21.191,2 Jul 2022 16:27:10.385,469.194
319,2 Jul 2022 17:54:46.259,2 Jul 2022 18:02:43.698,477.439
320,2 Jul 2022 19:32:01.256,2 Jul 2022 19:38:01.838,360.582
321,3 Jul 2022 03:39:33.322,3 Jul 2022 03:45:31.915,358.593
322,3 Jul 2022 05:14:51.190,3 Jul 2022 05:22:48.143,476.953
323,3 Jul 2022 06:50:24.415,3 Jul 2022 06:58:14.213,469.798
324,3 Jul 2022 08:26:04.997,3 Jul 2022 08:32:06.616,361.619
325,3 Jul 2022 10:01:59.625,3 Jul 2022 10:04:35.752,156.127
326,3 Jul 2022 13:09:45.298,3 Jul 2022 13:12:17.444,152.146
327,3 Jul 2022 14:42:13.134,3 Jul 2022 14:48:12.573,359.439
328,3 Jul 2022 16:16:04.315,3 Jul 2022 16:23:53.257,468.942
329,3 Jul 2022 17:51:28.970,3 Jul 2022 17:59:26.607,477.636
330,3 Jul 2022 19:28:43.460,3 Jul 2022 19:34:44.857,361.398
331,4 Jul 2022 03:36:16.345,4 Jul 2022 03:42:14.110,357.765
332,4 Jul 2022 05:11:34.099,4 Jul 2022 05:19:30.848,476.749
333,4 Jul 2022 06:47:07.287,4 Jul 2022 06:54:57.334,470.047
334,4 Jul 2022 08:22:47.840,4 Jul 2022 08:28:50.092,362.253
335,4 Jul 2022 09:58:42.324,4 Jul 2022 10:01:19.604,157.280
336,4 Jul 2022 13:06:29.163,4 Jul 2022 13:09:00.135,150.972
337,4 Jul 2022 14:38:56.616,4 Jul 2022 14:44:55.414,358.798
338,4 Jul 2022 16:12:47.441,4 Jul 2022 16:20:36.129,468.688
339,4 Jul 2022 17:48:11.684,4 Jul 2022 17:56:09.515,477.831
340,4 Jul 2022 19:25:25.664,4 Jul 2022 19:31:27.876,362.212
341,5 Jul 2022 03:32:59.368,5 Jul 2022 03:38:56.301,356.933
342,5 Jul 2022 05:08:17.008,5 Jul 2022 05:16:13.551,476.543
343,5 Jul 2022 06:43:50.160,5 Jul 2022 06:51:40.452,470.292
344,5 Jul 2022 08:19:30.682,5 Jul 2022 08:25:33.568,362.885
345,5 Jul 2022 09:55:25.026,5 Jul 2022 09:58:03.453,158.427
346,5 Jul 2022 13:03:13.031,5 Jul 2022 13:05:42.823,149.791
347,5 Jul 2022 14:35:40.099,5 Jul 2022 14:41:38.256,358.157
348,5 Jul 2022 16:09:30.569,5 Jul 2022 16:17:19.001,468.432
349,5 Jul 2022 17:44:54.399,5 Jul 2022 17:52:52.423,478.024
350,5 Jul 2022 19:22:07.873,5 Jul 2022 19:28:10.893,363.021
351,6 Jul 2022 03:29:42.392,6 Jul 2022 03:35:38.491,356.098
352,6 Jul 2022 05:04:59.918,6 Jul 2022 05:12:56.253,476.335
353,6 Jul 2022 06:40:33.032,6 Jul 2022 06:48:23.568,470.536
354,6 Jul 2022 08:16:13.525,6 Jul 2022 08:22:17.041,363.516
355,6 Jul 2022 09:52:07.731,6 Jul 2022 09:54:47.300,159.569
356,6 Jul 2022 12:59:56.903,6 Jul 2022 13:02:25.508,148.604
357,6 Jul 2022 14:32:23.584,6 Jul 2022 14:38:21.097,357.513
358,6 Jul 2022 16:06:13.699,6 Jul 2022 16:14:01.873,468.174
359,6 Jul 2022 17:41:37.116,6 Jul 2022 17:49:35.331,478.215
360,6 Jul 2022 19:18:50.084,6 Jul 2022 19:24:53.910,363.826
361,7 Jul 2022 03:26:25.418,7 Jul 2022 03:32:20.678,355.260
362,7 Jul 2022 05:01:42.828,7 Jul 2022 05:09:38.953,476.125
363,7 Jul 2022 06:37:15.905,7 Jul 2022 06:45:06.682,470.777
364,7 Jul 2022 08:12:56.369,7 Jul 2022 08:19:00.514,364.145
365,7 Jul 2022 09:48:50.438,7 Jul 2022 09:51:31.143,160.706
366,7 Jul 2022 12:56:40.779,7 Jul 2022 12:59:08.190,147.411
367,7 Jul 2022 14:29:07.070,7 Jul 2022 14:35:03.938,356.868
368,7 Jul 2022 16:02:56.830,7 Jul 2022 16:10:44.745,467.915
369,7 Jul 2022 17:38:19.835,7 Jul 2022 17:46:18.238,478.404
370,7 Jul 2022 19:15:32.298,7 Jul 2022 19:21:36.926,364.628
371,8 Jul 2022 03:23:08.444,8 Jul 2022 03:29:02.862,354.418
372,8 Jul 2022 04:58:25.738,8 Jul 2022 05:06:21.651,475.912
373,8 Jul 2022 06:33:58.778,8 Jul 2022 06:41:49.795,471.017
374,8 Jul 2022 08:09:39.212,8 Jul 2022 08:15:43.984,364.772
375,8 Jul 2022 09:45:33.147,8 Jul 2022 09:48:14.984,161.837
376,8 Jul 2022 12:53:24.658,8 Jul 2022 12:55:50.865,146.207
377,8 Jul 2022 14:25:50.558,8 Jul 2022 14:31:46.779,356.221
378,8 Jul 2022 15:59:39.962,8 Jul 2022 16:07:27.616,467.654
379,8 Jul 2022 17:35:02.555,8 Jul 2022 17:43:01.146,478.591
380,8 Jul 2022 19:12:14.514,8 Jul 2022 19:18:19.940,365.426
381,9 Jul 2022 03:19:51.471,9 Jul 2022 03:25:45.044,353.573
382,9 Jul 2022 04:55:08.649,9 Jul 2022 05:03:04.347,475.698
383,9 Jul 2022 06:30:41.651,9 Jul 2022 06:38:32.906,471.255
384,9 Jul 2022 08:06:22.056,9 Jul 2022 08:12:27.453,365.398
385,9 Jul 2022 09:42:15.858,9 Jul 2022 09:44:58.821,162.963
386,9 Jul 2022 12:50:08.538,9 Jul 2022 12:52:33.542,145.004
387,9 Jul 2022 14:22:34.047,9 Jul 2022 14:28:29.620,355.573
388,9 Jul 2022 15:56:23.096,9 Jul 2022 16:04:10.488,467.391
389,9 Jul 2022 17:31:45.277,9 Jul 2022 17:39:44.053,478.776
390,9 Jul 2022 19:08:56.733,9 Jul 2022 19:15:02.954,366.221
391,10 Jul 2022 03:16:34.499,10 Jul 2022 03:22:27.223,352.724
392,10 Jul 2022 04:51:51.559,10 Jul 2022 04:59:47.041,475.482
393,10 Jul 2022 06:27:24.524,10 Jul 2022 06:35:16.016,471.492
394,10 Jul 2022 08:03:04.900,10 Jul 2022 08:09:10.921,366.021
395,10 Jul 2022 09:38:58.571,10 Jul 2022 09:41:42.656,164.085
396,10 Jul 2022 12:46:52.424,10 Jul 2022 12:49:16.216,143.791
397,10 Jul 2022 14:19:17.537,10 Jul 2022 14:25:12.460,354.923
398,10 Jul 2022 15:53:06.232,10 Jul 2022 16:00:53.356,467.124
399,10 Jul 2022 17:28:28.001,10 Jul 2022 17:36:26.960,478.959
400,10 Jul 2022 19:05:38.954,10 Jul 2022 19:11:45.966,367.012
401,11 Jul 2022 03:13:17.527,11 Jul 2022 03:19:09.399,351.871
402,11 Jul 2022 04:48:34.469,11 Jul 2022 04:56:29.733,475.263
403,11 Jul 2022 06:24:07.397,11 Jul 2022 06:31:59.123,471.726
404,11 Jul 2022 07:59:47.743,11 Jul 2022 08:05:54.387,366.644
405,11 Jul 2022 09:35:41.286,11 Jul 2022 09:38:26.488,165.202
406,11 Jul 2022 12:43:36.314,11 Jul 2022 12:45:58.886,142.573
407,11 Jul 2022 14:16:01.028,11 Jul 2022 14:21:55.300,354.272
408,11 Jul 2022 15:49:49.369,11 Jul 2022 15:57:36.227,466.858
409,11 Jul 2022 17:25:10.727,11 Jul 2022 17:33:09.867,479.139
410,11 Jul 2022 19:02:21.178,11 Jul 2022 19:08:28.978,367.800
411,12 Jul 2022 03:10:00.557,12 Jul 2022 03:15:51.572,351.015
412,12 Jul 2022 04:45:17.380,12 Jul 2022 04:53:12.423,475.043
413,12 Jul 2022 06:20:50.270,12 Jul 2022 06:28:42.229,471.959
414,12 Jul 2022 07:56:30.587,12 Jul 2022 08:02:37.852,367.265
415,12 Jul 2022 09:32:24.002,12 Jul 2022 09:35:10.317,166.315
416,12 Jul 2022 12:40:20.206,12 Jul 2022 12:42:41.554,141.348
417,12 Jul 2022 14:12:44.523,12 Jul 2022 14:18:38.140,353.617
418,12 Jul 2022 15:46:32.507,12 Jul 2022 15:54:19.098,466.591
419,12 Jul 2022 17:21:53.454,12 Jul 2022 17:29:52.773,479.318
420,12 Jul 2022 18:59:03.404,12 Jul 2022 19:05:11.989,368.585
421,13 Jul 2022 03:06:43.588,13 Jul 2022 03:12:33.743,350.155
422,13 Jul 2022 04:42:00.291,13 Jul 2022 04:49:55.111,474.821
423,13 Jul 2022 06:17:33.143,13 Jul 2022 06:25:25.334,472.191
424,13 Jul 2022 07:53:13.431,13 Jul 2022 07:59:21.315,367.884
425,13 Jul 2022 09:29:06.720,13 Jul 2022 09:31:54.144,167.424
426,13 Jul 2022 12:37:04.102,13 Jul 2022 12:39:24.220,140.117
427,13 Jul 2022 14:09:28.017,13 Jul 2022 14:15:20.980,352.963
428,13 Jul 2022 15:43:15.647,13 Jul 2022 15:51:01.969,466.321
429,13 Jul 2022 17:18:36.184,13 Jul 2022 17:26:35.679,479.495
430,13 Jul 2022 18:55:45.633,13 Jul 2022 19:01:54.998,369.365
431,14 Jul 2022 03:03:26.620,14 Jul 2022 03:09:15.911,349.290
432,14 Jul 2022 04:38:43.202,14 Jul 2022 04:46:37.798,474.596
433,14 Jul 2022 06:14:16.016,14 Jul 2022 06:22:08.436,472.421
434,14 Jul 2022 07:49:56.275,14 Jul 2022 07:56:04.776,368.501
435,14 Jul 2022 09:25:49.440,14 Jul 2022 09:28:37.969,168.530
436,14 Jul 2022 12:33:48.002,14 Jul 2022 12:36:06.882,138.881
437,14 Jul 2022 14:06:11.512,14 Jul 2022 14:12:03.819,352.308
438,14 Jul 2022 15:39:58.789,14 Jul 2022 15:47:44.839,466.050
439,14 Jul 2022 17:15:18.915,14 Jul 2022 17:23:18.584,479.670
440,14 Jul 2022 18:52:27.864,14 Jul 2022 18:58:38.007,370.143
441,15 Jul 2022 03:00:09.654,15 Jul 2022 03:05:58.076,348.422
442,15 Jul 2022 04:35:26.113,15 Jul 2022 04:43:20.483,474.369
443,15 Jul 2022 06:10:58.889,15 Jul 2022 06:18:51.538,472.649
444,15 Jul 2022 07:46:39.119,15 Jul 2022 07:52:48.237,369.118
445,15 Jul 2022 09:22:32.160,15 Jul 2022 09:25:21.792,169.632
446,15 Jul 2022 12:30:31.904,15 Jul 2022 12:32:49.542,137.638
447,15 Jul 2022 14:02:55.008,15 Jul 2022 14:08:46.659,351.651
448,15 Jul 2022 15:36:41.932,15 Jul 2022 15:44:27.710,465.778
449,15 Jul 2022 17:12:01.648,15 Jul 2022 17:20:01.490,479.842
450,15 Jul 2022 18:49:10.098,15 Jul 2022 18:55:21.014,370.916
451,16 Jul 2022 02:56:52.688,16 Jul 2022 03:02:40.238,347.550
452,16 Jul 2022 04:32:09.025,16 Jul 2022 04:40:03.166,474.140
453,16 Jul 2022 06:07:41.763,16 Jul 2022 06:15:34.638,472.875
454,16 Jul 2022 07:43:21.963,16 Jul 2022 07:49:31.697,369.734
455,16 Jul 2022 09:19:14.883,16 Jul 2022 09:22:05.613,170.730
456,16 Jul 2022 12:27:15.811,16 Jul 2022 12:29:32.199,136.388
457,16 Jul 2022 13:59:38.506,16 Jul 2022 14:05:29.499,350.993
458,16 Jul 2022 15:33:25.077,16 Jul 2022 15:41:10.581,465.504
459,16 Jul 2022 17:08:44.383,16 Jul 2022 17:16:44.396,480.013
460,16 Jul 2022 18:45:52.335,16 Jul 2022 18:52:04.021,371.687
461,17 Jul 2022 02:53:35.728,17 Jul 2022 02:59:22.398,346.670
462,17 Jul 2022 04:28:51.937,17 Jul 2022 04:36:45.847,473.910
463,17 Jul 2022 06:04:24.636,17 Jul 2022 06:12:17.736,473.100
464,17 Jul 2022 07:40:04.807,17 Jul 2022 07:46:15.155,370.347
465,17 Jul 2022 09:15:57.608,17 Jul 2022 09:18:49.431,171.824
466,17 Jul 2022 12:23:59.723,17 Jul 2022 12:26:14.853,135.130
467,17 Jul 2022 13:56:22.005,17 Jul 2022 14:02:12.338,350.334
468,17 Jul 2022 15:30:08.224,17 Jul 2022 15:37:53.451,465.228
469,17 Jul 2022 17:05:27.120,17 Jul 2022 17:13:27.301,480.181
470,17 Jul 2022 18:42:34.574,17 Jul 2022 18:48:47.028,372.454
471,18 Jul 2022 02:50:18.766,18 Jul 2022 02:56:04.555,345.789
472,18 Jul 2022 04:25:34.850,18 Jul 2022 04:33:28.527,473.677
473,18 Jul 2022 06:01:07.510,18 Jul 2022 06:09:00.833,473.323
474,18 Jul 2022 07:36:47.652,18 Jul 2022 07:42:58.612,370.960
475,18 Jul 2022 09:12:40.334,18 Jul 2022 09:15:33.247,172.913
476,18 Jul 2022 12:20:43.636,18 Jul 2022 12:22:57.502,133.867
477,18 Jul 2022 13:53:05.505,18 Jul 2022 13:58:55.178,349.673
478,18 Jul 2022 15:26:51.372,18 Jul 2022 15:34:36.322,464.950
479,18 Jul 2022 17:02:09.859,18 Jul 2022 17:10:10.206,480.348
480,18 Jul 2022 18:39:16.816,18 Jul 2022 18:45:30.033,373.218
481,19 Jul 2022 02:47:01.804,19 Jul 2022 02:52:46.710,344.906
482,19 Jul 2022 04:22:17.763,19 Jul 2022 04:30:11.204,473.442
483,19 Jul 2022 05:57:50.384,19 Jul 2022 06:05:43.928,473.544
484,19 Jul 2022 07:33:30.497,19 Jul 2022 07:39:42.068,371.570
485,19 Jul 2022 09:09:23.063,19 Jul 2022 09:12:17.060,173.998
486,19 Jul 2022 12:17:27.556,19 Jul 2022 12:19:40.148,132.592
487,19 Jul 2022 13:49:49.008,19 Jul 2022 13:55:38.017,349.010
488,19 Jul 2022 15:23:34.522,19 Jul 2022 15:31:19.193,464.671
489,19 Jul 2022 16:58:52.599,19 Jul 2022 17:06:53.112,480.513
490,19 Jul 2022 18:35:59.060,19 Jul 2022 18:42:13.038,373.979
491,20 Jul 2022 02:43:44.843,20 Jul 2022 02:49:28.862,344.018
492,20 Jul 2022 04:19:00.676,20 Jul 2022 04:26:53.880,473.205
493,20 Jul 2022 05:54:33.259,20 Jul 2022 06:02:27.022,473.763
494,20 Jul 2022 07:30:13.343,20 Jul 2022 07:36:25.522,372.179
495,20 Jul 2022 09:06:05.793,20 Jul 2022 09:09:00.871,175.078
496,20 Jul 2022 12:14:11.481,20 Jul 2022 12:16:22.790,131.309
497,20 Jul 2022 13:46:32.511,20 Jul 2022 13:52:20.856,348.345
498,20 Jul 2022 15:20:17.673,20 Jul 2022 15:28:02.063,464.389
499,20 Jul 2022 16:55:35.342,20 Jul 2022 17:03:36.018,480.676
500,20 Jul 2022 18:32:41.306,20 Jul 2022 18:38:56.042,374.736
501,21 Jul 2022 02:40:27.884,21 Jul 2022 02:46:11.011,343.128
502,21 Jul 2022 04:15:43.589,21 Jul 2022 04:23:36.554,472.965
503,21 Jul 2022 05:51:16.133,21 Jul 2022 05:59:10.114,473.981
504,21 Jul 2022 07:26:56.188,21 Jul 2022 07:33:08.975,372.786
505,21 Jul 2022 09:02:48.525,21 Jul 2022 09:05:44.679,176.154
506,21 Jul 2022 12:10:55.410,21 Jul 2022 12:13:05.427,130.017
507,21 Jul 2022 13:43:16.016,21 Jul 2022 13:49:03.700,347.684
508,21 Jul 2022 15:17:00.826,21 Jul 2022 15:24:44.933,464.107
509,21 Jul 2022 16:52:18.086,21 Jul 2022 17:00:18.923,480.837
510,21 Jul 2022 18:29:23.555,21 Jul 2022 18:35:39.046,375.491
511,22 Jul 2022 02:37:10.925,22 Jul 2022 02:42:53.158,342.233
512,22 Jul 2022 04:12:26.502,22 Jul 2022 04:20:19.226,472.724
513,22 Jul 2022 05:47:59.008,22 Jul 2022 05:55:53.205,474.197
514,22 Jul 2022 07:23:39.034,22 Jul 2022 07:29:52.426,373.392
515,22 Jul 2022 08:59:31.259,22 Jul 2022 09:02:28.485,177.226
516,22 Jul 2022 12:07:39.344,22 Jul 2022 12:09:48.060,128.716
517,22 Jul 2022 13:39:59.522,22 Jul 2022 13:45:46.533,347.011
518,22 Jul 2022 15:13:43.981,22 Jul 2022 15:21:27.803,463.822
519,22 Jul 2022 16:49:00.832,22 Jul 2022 16:57:01.828,480.996
520,22 Jul 2022 18:26:05.806,22 Jul 2022 18:32:22.048,376.242
521,23 Jul 2022 02:33:53.967,23 Jul 2022 02:39:35.302,341.334
522,23 Jul 2022 04:09:09.416,23 Jul 2022 04:17:01.897,472.481
523,23 Jul 2022 05:44:41.882,23 Jul 2022 05:52:36.293,474.411
524,23 Jul 2022 07:20:21.880,23 Jul 2022 07:26:35.876,373.996
525,23 Jul 2022 08:56:13.994,23 Jul 2022 08:59:12.288,178.294
526,23 Jul 2022 12:04:23.283,23 Jul 2022 12:06:30.690,127.407
527,23 Jul 2022 13:36:43.030,23 Jul 2022 13:42:29.372,346.342
528,23 Jul 2022 15:10:27.137,23 Jul 2022 15:18:10.673,463.536
529,23 Jul 2022 16:45:43.579,23 Jul 2022 16:53:44.730,481.151
530,23 Jul 2022 18:22:48.060,23 Jul 2022 18:29:05.050,376.990
531,24 Jul 2022 02:30:37.011,24 Jul 2022 02:36:17.442,340.431
532,24 Jul 2022 04:05:52.329,24 Jul 2022 04:13:44.565,472.236
533,24 Jul 2022 05:41:24.757,24 Jul 2022 05:49:19.381,474.624
534,24 Jul 2022 07:17:04.726,24 Jul 2022 07:23:19.324,374.598
535,24 Jul 2022 08:52:56.731,24 Jul 2022 08:55:56.090,179.359
536,24 Jul 2022 12:01:07.226,24 Jul 2022 12:03:13.314,126.088
537,24 Jul 2022 13:33:26.539,24 Jul 2022 13:39:12.209,345.671
538,24 Jul 2022 15:07:10.295,24 Jul 2022 15:14:53.541,463.247
539,24 Jul 2022 16:42:26.329,24 Jul 2022 16:50:27.635,481.307
540,24 Jul 2022 18:19:30.315,24 Jul 2022 18:25:48.050,377.735
541,25 Jul 2022 02:27:20.056,25 Jul 2022 02:32:59.580,339.525
542,25 Jul 2022 04:02:35.243,25 Jul 2022 04:10:27.231,471.988
543,25 Jul 2022 05:38:07.631,25 Jul 2022 05:46:02.466,474.835
544,25 Jul 2022 07:13:47.569,25 Jul 2022 07:20:02.771,375.202
545,25 Jul 2022 08:49:39.468,25 Jul 2022 08:52:39.889,180.420
546,25 Jul 2022 11:57:51.175,25 Jul 2022 11:59:55.932,124.757
547,25 Jul 2022 13:30:10.049,25 Jul 2022 13:35:55.047,344.999
548,25 Jul 2022 15:03:53.454,25 Jul 2022 15:11:36.410,462.956
549,25 Jul 2022 16:39:09.080,25 Jul 2022 16:47:10.540,481.460
550,25 Jul 2022 18:16:12.574,25 Jul 2022 18:22:31.050,378.476
551,26 Jul 2022 02:24:03.102,26 Jul 2022 02:29:41.715,338.614
552,26 Jul 2022 03:59:18.157,26 Jul 2022 04:07:09.896,471.739
553,26 Jul 2022 05:34:50.506,26 Jul 2022 05:42:45.550,475.044
554,26 Jul 2022 07:10:30.415,26 Jul 2022 07:16:46.217,375.802
555,26 Jul 2022 08:46:22.207,26 Jul 2022 08:49:23.686,181.478
556,26 Jul 2022 11:54:35.128,26 Jul 2022 11:56:38.548,123.420
557,26 Jul 2022 13:26:53.560,26 Jul 2022 13:32:37.885,344.325
558,26 Jul 2022 15:00:36.614,26 Jul 2022 15:08:19.278,462.664
559,26 Jul 2022 16:35:51.833,26 Jul 2022 16:43:53.442,481.609
560,26 Jul 2022 18:12:54.832,26 Jul 2022 18:19:14.049,379.217
561,27 Jul 2022 02:20:46.149,27 Jul 2022 02:26:23.848,337.698
562,27 Jul 2022 03:56:01.071,27 Jul 2022 04:03:52.556,471.484
563,27 Jul 2022 05:31:33.381,27 Jul 2022 05:39:28.632,475.252
564,27 Jul 2022 07:07:13.261,27 Jul 2022 07:13:29.661,376.400
565,27 Jul 2022 08:43:04.947,27 Jul 2022 08:46:07.481,182.533
566,27 Jul 2022 11:51:19.085,27 Jul 2022 11:53:21.162,122.077
567,27 Jul 2022 13:23:37.072,27 Jul 2022 13:29:20.722,343.650
568,27 Jul 2022 14:57:19.776,27 Jul 2022 15:05:02.147,462.371
569,27 Jul 2022 16:32:34.588,27 Jul 2022 16:40:36.346,481.759
570,27 Jul 2022 18:09:37.095,27 Jul 2022 18:15:57.047,379.952
571,28 Jul 2022 02:17:29.198,28 Jul 2022 02:23:05.977,336.779
572,28 Jul 2022 03:52:43.986,28 Jul 2022 04:00:35.217,471.230
573,28 Jul 2022 05:28:16.255,28 Jul 2022 05:36:11.713,475.458
574,28 Jul 2022 07:03:56.107,28 Jul 2022 07:10:13.104,376.997
575,28 Jul 2022 08:39:47.689,28 Jul 2022 08:42:51.274,183.585
576,28 Jul 2022 11:48:03.048,28 Jul 2022 11:50:03.773,120.725
577,28 Jul 2022 13:20:20.586,28 Jul 2022 13:26:03.560,342.974
578,28 Jul 2022 14:54:02.940,28 Jul 2022 15:01:45.016,462.076
579,28 Jul 2022 16:29:17.344,28 Jul 2022 16:37:19.250,481.906
580,28 Jul 2022 18:06:19.361,28 Jul 2022 18:12:40.044,380.684
581,29 Jul 2022 02:14:12.248,29 Jul 2022 02:19:48.103,335.855
582,29 Jul 2022 03:49:26.901,29 Jul 2022 03:57:17.876,470.975
583,29 Jul 2022 05:24:59.131,29 Jul 2022 05:32:54.792,475.662
584,29 Jul 2022 07:00:38.954,29 Jul 2022 07:06:56.546,377.592
585,29 Jul 2022 08:36:30.431,29 Jul 2022 08:39:35.065,184.634
586,29 Jul 2022 11:44:47.016,29 Jul 2022 11:46:46.376,119.360
587,29 Jul 2022 13:17:04.101,29 Jul 2022 13:22:46.397,342.296
588,29 Jul 2022 14:50:46.105,29 Jul 2022 14:58:27.884,461.779
589,29 Jul 2022 16:26:00.103,29 Jul 2022 16:34:02.154,482.051
590,29 Jul 2022 18:03:01.629,29 Jul 2022 18:09:23.041,381.412
591,30 Jul 2022 02:10:55.300,30 Jul 2022 02:16:30.227,334.927
592,30 Jul 2022 03:46:09.816,30 Jul 2022 03:54:00.533,470.716
593,30 Jul 2022 05:21:42.006,30 Jul 2022 05:29:37.870,475.864
594,30 Jul 2022 06:57:21.800,30 Jul 2022 07:03:39.986,378.186
595,30 Jul 2022 08:33:13.175,30 Jul 2022 08:36:18.854,185.679
596,30 Jul 2022 11:41:30.989,30 Jul 2022 11:43:28.974,117.985
597,30 Jul 2022 13:13:47.618,30 Jul 2022 13:19:29.234,341.616
598,30 Jul 2022 14:47:29.272,30 Jul 2022 14:55:10.753,461.482
599,30 Jul 2022 16:22:42.863,30 Jul 2022 16:30:45.057,482.195
600,30 Jul 2022 17:59:43.900,30 Jul 2022 18:06:06.037,382.137
601,31 Jul 2022 02:07:38.352,31 Jul 2022 02:13:12.347,333.995
602,31 Jul 2022 03:42:52.732,31 Jul 2022 03:50:43.188,470.456
603,31 Jul 2022 05:18:24.881,31 Jul 2022 05:26:20.946,476.065
604,31 Jul 2022 06:54:04.647,31 Jul 2022 07:00:23.425,378.779
605,31 Jul 2022 08:29:55.921,31 Jul 2022 08:33:02.641,186.721
606,31 Jul 2022 11:38:14.969,31 Jul 2022 11:40:11.568,116.599
607,31 Jul 2022 13:10:31.136,31 Jul 2022 13:16:12.071,340.936
608,31 Jul 2022 14:44:12.440,31 Jul 2022 14:51:53.622,461.182
609,31 Jul 2022 16:19:25.625,31 Jul 2022 16:27:27.960,482.335
610,31 Jul 2022 17:56:26.173,31 Jul 2022 18:02:49.032,382.859
611,1 Aug 2022 02:04:21.407,1 Aug 2022 02:09:54.465,333.058
612,1 Aug 2022 03:39:35.648,1 Aug 2022 03:47:25.841,470.194
613,1 Aug 2022 05:15:07.757,1 Aug 2022 05:23:04.021,476.264
614,1 Aug 2022 06:50:47.494,1 Aug 2022 06:57:06.863,379.369
615,1 Aug 2022 08:26:38.667,1 Aug 2022 08:29:46.426,187.759
616,1 Aug 2022 11:34:58.955,1 Aug 2022 11:36:54.154,115.200
617,1 Aug 2022 13:07:14.659,1 Aug 2022 13:12:54.908,340.249
618,1 Aug 2022 14:40:55.610,1 Aug 2022 14:48:36.491,460.881
619,1 Aug 2022 16:16:08.389,1 Aug 2022 16:24:10.863,482.474
620,1 Aug 2022 17:53:08.448,1 Aug 2022 17:59:32.026,383.578
621,2 Aug 2022 02:01:04.462,2 Aug 2022 02:06:36.580,332.118
622,2 Aug 2022 03:36:18.564,2 Aug 2022 03:44:08.493,469.929
623,2 Aug 2022 05:11:50.632,2 Aug 2022 05:19:47.094,476.461
624,2 Aug 2022 06:47:30.341,2 Aug 2022 06:53:50.299,379.959
625,2 Aug 2022 08:23:21.416,2 Aug 2022 08:26:30.209,188.793
626,2 Aug 2022 11:31:42.947,2 Aug 2022 11:33:36.736,113.789
627,2 Aug 2022 13:03:58.180,2 Aug 2022 13:09:37.745,339.565
628,2 Aug 2022 14:37:38.782,2 Aug 2022 14:45:19.360,460.578
629,2 Aug 2022 16:12:51.155,2 Aug 2022 16:20:53.761,482.606
630,2 Aug 2022 17:49:50.726,2 Aug 2022 17:56:15.023,384.297
631,3 Aug 2022 01:57:47.519,3 Aug 2022 02:03:18.692,331.173
632,3 Aug 2022 03:33:01.480,3 Aug 2022 03:40:51.143,469.663
633,3 Aug 2022 05:08:33.508,3 Aug 2022 05:16:30.165,476.657
634,3 Aug 2022 06:44:13.188,3 Aug 2022 06:50:33.734,380.546
635,3 Aug 2022 08:20:04.165,3 Aug 2022 08:23:13.989,189.824
636,3 Aug 2022 11:28:26.946,3 Aug 2022 11:30:19.311,112.365
637,3 Aug 2022 13:00:41.703,3 Aug 2022 13:06:20.581,338.879
638,3 Aug 2022 14:34:21.955,3 Aug 2022 14:42:02.228,460.273
639,3 Aug 2022 16:09:33.923,3 Aug 2022 16:17:36.663,482.741
640,3 Aug 2022 17:46:33.006,3 Aug 2022 17:52:58.016,385.010
641,4 Aug 2022 01:54:30.577,4 Aug 2022 02:00:00.801,330.224
642,4 Aug 2022 03:29:44.397,4 Aug 2022 03:37:33.791,469.394
643,4 Aug 2022 05:05:16.384,4 Aug 2022 05:13:13.235,476.850
644,4 Aug 2022 06:40:56.036,4 Aug 2022 06:47:17.168,381.132
645,4 Aug 2022 08:16:46.916,4 Aug 2022 08:19:57.768,190.852
646,4 Aug 2022 11:25:10.952,4 Aug 2022 11:27:01.880,110.928
647,4 Aug 2022 12:57:25.226,4 Aug 2022 13:03:03.418,338.191
648,4 Aug 2022 14:31:05.130,4 Aug 2022 14:38:45.097,459.966
649,4 Aug 2022 16:06:16.692,4 Aug 2022 16:14:19.566,482.874
650,4 Aug 2022 17:43:15.289,4 Aug 2022 17:49:41.008,385.720
651,5 Aug 2022 01:51:13.637,5 Aug 2022 01:56:42.908,329.271
652,5 Aug 2022 03:26:27.314,5 Aug 2022 03:34:16.437,469.124
653,5 Aug 2022 05:01:59.261,5 Aug 2022 05:09:56.303,477.042
654,5 Aug 2022 06:37:38.884,5 Aug 2022 06:44:00.602,381.718
655,5 Aug 2022 08:13:29.669,5 Aug 2022 08:16:41.544,191.875
656,5 Aug 2022 11:21:54.966,5 Aug 2022 11:23:44.443,109.477
657,5 Aug 2022 12:54:08.751,5 Aug 2022 12:59:46.253,337.502
658,5 Aug 2022 14:27:48.307,5 Aug 2022 14:35:27.965,459.658
659,5 Aug 2022 16:02:59.463,5 Aug 2022 16:11:02.469,483.005
660,5 Aug 2022 17:39:57.573,5 Aug 2022 17:46:24.000,386.427
661,6 Aug 2022 01:47:56.697,6 Aug 2022 01:53:25.011,328.314
662,6 Aug 2022 03:23:10.231,6 Aug 2022 03:30:59.081,468.851
663,6 Aug 2022 04:58:42.137,6 Aug 2022 05:06:39.369,477.233
664,6 Aug 2022 06:34:21.731,6 Aug 2022 06:40:44.033,382.301
665,6 Aug 2022 08:10:12.422,6 Aug 2022 08:13:25.318,192.896
666,6 Aug 2022 11:18:38.987,6 Aug 2022 11:20:26.999,108.012
667,6 Aug 2022 12:50:52.278,6 Aug 2022 12:56:29.089,336.811
668,6 Aug 2022 14:24:31.485,6 Aug 2022 14:32:10.833,459.349
669,6 Aug 2022 15:59:42.236,6 Aug 2022 16:07:45.371,483.135
670,6 Aug 2022 17:36:39.860,6 Aug 2022 17:43:06.991,387.131
671,7 Aug 2022 01:44:39.759,7 Aug 2022 01:50:07.112,327.353
672,7 Aug 2022 03:19:53.148,7 Aug 2022 03:27:41.724,468.576
673,7 Aug 2022 04:55:25.013,7 Aug 2022 05:03:22.434,477.421
674,7 Aug 2022 06:31:04.579,7 Aug 2022 06:37:27.462,382.883
675,7 Aug 2022 08:06:55.177,7 Aug 2022 08:10:09.090,193.913
676,7 Aug 2022 11:15:23.015,7 Aug 2022 11:17:09.548,106.533
677,7 Aug 2022 12:47:35.805,7 Aug 2022 12:53:11.924,336.119
678,7 Aug 2022 14:21:14.664,7 Aug 2022 14:28:53.701,459.037
679,7 Aug 2022 15:56:25.010,7 Aug 2022 16:04:28.273,483.263
680,7 Aug 2022 17:33:22.150,7 Aug 2022 17:39:49.982,387.832
681,8 Aug 2022 01:41:22.822,8 Aug 2022 01:46:49.209,326.387
682,8 Aug 2022 03:16:36.065,8 Aug 2022 03:24:24.362,468.296
683,8 Aug 2022 04:52:07.889,8 Aug 2022 05:00:05.497,477.608
684,8 Aug 2022 06:27:47.427,8 Aug 2022 06:34:10.891,383.463
685,8 Aug 2022 08:03:37.933,8 Aug 2022 08:06:52.861,194.928
686,8 Aug 2022 11:12:07.051,8 Aug 2022 11:13:52.088,105.037
687,8 Aug 2022 12:44:19.334,8 Aug 2022 12:49:54.759,335.425
688,8 Aug 2022 14:17:57.845,8 Aug 2022 14:25:36.569,458.724
689,8 Aug 2022 15:53:07.787,8 Aug 2022 16:01:11.175,483.389
690,8 Aug 2022 17:30:04.441,8 Aug 2022 17:36:32.971,388.530
691,9 Aug 2022 01:38:05.887,9 Aug 2022 01:43:31.303,325.416
692,9 Aug 2022 03:13:18.983,9 Aug 2022 03:21:07.000,468.017
693,9 Aug 2022 04:48:50.765,9 Aug 2022 04:56:48.558,477.793
694,9 Aug 2022 06:24:30.275,9 Aug 2022 06:30:54.317,384.042
695,9 Aug 2022 08:00:20.689,9 Aug 2022 08:03:36.629,195.940
696,9 Aug 2022 11:08:51.094,9 Aug 2022 11:10:34.621,103.527
697,9 Aug 2022 12:41:02.864,9 Aug 2022 12:46:37.594,334.730
698,9 Aug 2022 14:14:41.027,9 Aug 2022 14:22:19.437,458.410
699,9 Aug 2022 15:49:50.565,9 Aug 2022 15:57:54.076,483.512
700,9 Aug 2022 17:26:46.735,9 Aug 2022 17:33:15.960,389.225
701,10 Aug 2022 01:34:48.953,10 Aug 2022 01:40:13.394,324.441
702,10 Aug 2022 03:10:01.900,10 Aug 2022 03:17:49.636,467.736
703,10 Aug 2022 04:45:33.642,10 Aug 2022 04:53:31.618,477.976
704,10 Aug 2022 06:21:13.123,10 Aug 2022 06:27:37.743,384.619
705,10 Aug 2022 07:57:03.447,10 Aug 2022 08:00:20.396,196.949
706,10 Aug 2022 11:05:35.146,10 Aug 2022 11:07:17.147,102.001
707,10 Aug 2022 12:37:46.395,10 Aug 2022 12:43:20.428,334.033
708,10 Aug 2022 14:11:24.211,10 Aug 2022 14:19:02.304,458.094
709,10 Aug 2022 15:46:33.344,10 Aug 2022 15:54:36.977,483.632
710,10 Aug 2022 17:23:29.031,10 Aug 2022 17:29:58.947,389.916
711,11 Aug 2022 01:31:32.021,11 Aug 2022 01:36:55.481,323.461
712,11 Aug 2022 03:06:44.818,11 Aug 2022 03:14:32.271,467.452
713,11 Aug 2022 04:42:16.518,11 Aug 2022 04:50:14.676,478.158
714,11 Aug 2022 06:17:55.971,11 Aug 2022 06:24:21.167,385.196
715,11 Aug 2022 07:53:46.205,11 Aug 2022 07:57:04.161,197.956
716,11 Aug 2022 11:02:19.205,11 Aug 2022 11:03:59.670,100.465
717,11 Aug 2022 12:34:29.928,11 Aug 2022 12:40:03.263,333.335
718,11 Aug 2022 14:08:07.396,11 Aug 2022 14:15:45.172,457.776
719,11 Aug 2022 15:43:16.126,11 Aug 2022 15:51:19.877,483.751
720,11 Aug 2022 17:20:11.330,11 Aug 2022 17:26:41.934,390.605
721,12 Aug 2022 01:28:15.085,12 Aug 2022 01:33:37.570,322.485
722,12 Aug 2022 03:03:27.737,12 Aug 2022 03:11:14.903,467.167
723,12 Aug 2022 04:38:59.395,12 Aug 2022 04:46:57.733,478.338
724,12 Aug 2022 06:14:38.819,12 Aug 2022 06:21:04.590,385.770
725,12 Aug 2022 07:50:28.964,12 Aug 2022 07:53:47.925,198.961
726,12 Aug 2022 10:59:03.273,12 Aug 2022 11:00:42.182,98.908
727,12 Aug 2022 12:31:13.462,12 Aug 2022 12:36:46.097,332.636
728,12 Aug 2022 14:04:50.583,12 Aug 2022 14:12:28.039,457.457
729,12 Aug 2022 15:39:58.909,12 Aug 2022 15:48:02.777,483.868
730,12 Aug 2022 17:16:53.631,12 Aug 2022 17:23:24.920,391.290
731,13 Aug 2022 01:24:58.156,13 Aug 2022 01:30:19.652,321.495
732,13 Aug 2022 03:00:10.656,13 Aug 2022 03:07:57.534,466.879
733,13 Aug 2022 04:35:42.272,13 Aug 2022 04:43:40.788,478.516
734,13 Aug 2022 06:11:21.668,13 Aug 2022 06:17:48.011,386.343
735,13 Aug 2022 07:47:11.724,13 Aug 2022 07:50:31.687,199.963
736,13 Aug 2022 10:55:47.351,13 Aug 2022 10:57:24.684,97.333
737,13 Aug 2022 12:27:56.997,13 Aug 2022 12:33:28.932,331.935
738,13 Aug 2022 14:01:33.771,13 Aug 2022 14:09:10.907,457.136
739,13 Aug 2022 15:36:41.695,13 Aug 2022 15:44:45.677,483.983
740,13 Aug 2022 17:13:35.935,13 Aug 2022 17:20:07.907,391.972
741,14 Aug 2022 01:21:41.229,14 Aug 2022 01:27:01.730,320.501
742,14 Aug 2022 02:56:53.575,14 Aug 2022 03:04:40.163,466.589
743,14 Aug 2022 04:32:25.149,14 Aug 2022 04:40:23.841,478.692
744,14 Aug 2022 06:08:04.517,14 Aug 2022 06:14:31.431,386.915
745,14 Aug 2022 07:43:54.486,14 Aug 2022 07:47:15.447,200.962
746,14 Aug 2022 10:52:31.440,14 Aug 2022 10:54:07.177,95.737
747,14 Aug 2022 12:24:40.534,14 Aug 2022 12:30:11.766,331.233
748,14 Aug 2022 13:58:16.961,14 Aug 2022 14:05:53.774,456.813
749,14 Aug 2022 15:33:24.482,14 Aug 2022 15:41:28.577,484.095
750,14 Aug 2022 17:10:18.241,14 Aug 2022 17:16:50.893,392.652
751,15 Aug 2022 01:18:24.303,15 Aug 2022 01:23:43.806,319.502
752,15 Aug 2022 02:53:36.494,15 Aug 2022 03:01:22.790,466.296
753,15 Aug 2022 04:29:08.026,15 Aug 2022 04:37:06.893,478.867
754,15 Aug 2022 06:04:47.366,15 Aug 2022 06:11:14.850,387.484
755,15 Aug 2022 07:40:37.248,15 Aug 2022 07:43:59.206,201.957
756,15 Aug 2022 10:49:15.537,15 Aug 2022 10:50:49.660,94.122
757,15 Aug 2022 12:21:24.072,15 Aug 2022 12:26:54.600,330.528
758,15 Aug 2022 13:55:00.153,15 Aug 2022 14:02:36.642,456.488
759,15 Aug 2022 15:30:07.271,15 Aug 2022 15:38:11.477,484.206
760,15 Aug 2022 17:07:00.549,15 Aug 2022 17:13:33.878,393.329
761,16 Aug 2022 01:15:07.379,16 Aug 2022 01:20:25.878,318.499
762,16 Aug 2022 02:50:19.414,16 Aug 2022 02:58:05.414,466.000
763,16 Aug 2022 04:25:50.904,16 Aug 2022 04:33:49.944,479.040
764,16 Aug 2022 06:01:30.215,16 Aug 2022 06:07:58.268,388.052
765,16 Aug 2022 07:37:20.012,16 Aug 2022 07:40:42.962,202.949
766,16 Aug 2022 10:45:59.648,16 Aug 2022 10:47:32.131,92.483
767,16 Aug 2022 12:18:07.612,16 Aug 2022 12:23:37.434,329.822
768,16 Aug 2022 13:51:43.347,16 Aug 2022 13:59:19.509,456.162
769,16 Aug 2022 15:26:50.062,16 Aug 2022 15:34:54.377,484.315
770,16 Aug 2022 17:03:42.859,16 Aug 2022 17:10:16.863,394.004
771,17 Aug 2022 01:11:50.456,17 Aug 2022 01:17:07.948,317.492
772,17 Aug 2022 02:47:02.334,17 Aug 2022 02:54:48.039,465.705
773,17 Aug 2022 04:22:33.781,17 Aug 2022 04:30:32.992,479.211
774,17 Aug 2022 05:58:13.065,17 Aug 2022 06:04:41.683,388.619
775,17 Aug 2022 07:34:02.778,17 Aug 2022 07:37:26.716,203.938
776,17 Aug 2022 10:42:43.771,17 Aug 2022 10:44:14.591,90.820
777,17 Aug 2022 12:14:51.153,17 Aug 2022 12:20:20.268,329.115
778,17 Aug 2022 13:48:26.542,17 Aug 2022 13:56:02.376,455.834
779,17 Aug 2022 15:23:32.855,17 Aug 2022 15:31:37.277,484.422
780,17 Aug 2022 17:00:25.172,17 Aug 2022 17:06:59.848,394.676
781,18 Aug 2022 01:08:33.535,18 Aug 2022 01:13:50.014,316.479
782,18 Aug 2022 02:43:45.255,18 Aug 2022 02:51:30.660,465.405
783,18 Aug 2022 04:19:16.659,18 Aug 2022 04:27:16.039,479.380
784,18 Aug 2022 05:54:55.914,18 Aug 2022 06:01:25.098,389.183
785,18 Aug 2022 07:30:45.544,18 Aug 2022 07:34:10.469,204.924
786,18 Aug 2022 10:39:27.907,18 Aug 2022 10:40:57.039,89.132
787,18 Aug 2022 12:11:34.696,18 Aug 2022 12:17:03.101,328.405
788,18 Aug 2022 13:45:09.738,18 Aug 2022 13:52:45.243,455.505
789,18 Aug 2022 15:20:15.649,18 Aug 2022 15:28:20.176,484.527
790,18 Aug 2022 16:57:07.487,18 Aug 2022 17:03:42.832,395.345
791,19 Aug 2022 01:05:16.615,19 Aug 2022 01:10:32.078,315.463
792,19 Aug 2022 02:40:28.175,19 Aug 2022 02:48:13.279,465.104
793,19 Aug 2022 04:15:59.537,19 Aug 2022 04:23:59.085,479.548
794,19 Aug 2022 05:51:38.764,19 Aug 2022 05:58:08.506,389.742
795,19 Aug 2022 07:27:28.311,19 Aug 2022 07:30:54.219,205.908
796,19 Aug 2022 10:36:12.055,19 Aug 2022 10:37:39.474,87.419
797,19 Aug 2022 12:08:18.239,19 Aug 2022 12:13:45.933,327.694
798,19 Aug 2022 13:41:52.936,19 Aug 2022 13:49:28.110,455.174
799,19 Aug 2022 15:16:58.445,19 Aug 2022 15:25:03.076,484.631
800,19 Aug 2022 16:53:49.804,19 Aug 2022 17:00:25.815,396.010
801,20 Aug 2022 01:01:59.697,20 Aug 2022 01:07:14.138,314.441
802,20 Aug 2022 02:37:11.096,20 Aug 2022 02:44:55.898,464.802
803,20 Aug 2022 04:12:42.415,20 Aug 2022 04:20:42.128,479.714
804,20 Aug 2022 05:48:21.614,20 Aug 2022 05:54:51.917,390.303
805,20 Aug 2022 07:24:11.080,20 Aug 2022 07:27:37.968,206.888
806,20 Aug 2022 10:32:56.217,20 Aug 2022 10:34:21.895,85.678
807,20 Aug 2022 12:05:01.785,20 Aug 2022 12:10:28.766,326.981
808,20 Aug 2022 13:38:36.136,20 Aug 2022 13:46:10.977,454.841
809,20 Aug 2022 15:13:41.243,20 Aug 2022 15:21:45.975,484.732
810,20 Aug 2022 16:50:32.124,20 Aug 2022 16:57:08.796,396.672
811,20 Aug 2022 18:30:43.819,20 Aug 2022 18:30:46.510,2.690
812,21 Aug 2022 00:58:42.777,21 Aug 2022 01:03:56.194,313.417
813,21 Aug 2022 02:33:54.016,21 Aug 2022 02:41:38.513,464.497
814,21 Aug 2022 04:09:25.293,21 Aug 2022 04:17:25.171,479.878
815,21 Aug 2022 05:45:04.464,21 Aug 2022 05:51:35.327,390.863
816,21 Aug 2022 07:20:53.849,21 Aug 2022 07:24:21.715,207.866
817,21 Aug 2022 10:29:40.393,21 Aug 2022 10:31:04.302,83.909
818,21 Aug 2022 12:01:45.331,21 Aug 2022 12:07:11.598,326.267
819,21 Aug 2022 13:35:19.337,21 Aug 2022 13:42:53.843,454.506
820,21 Aug 2022 15:10:24.042,21 Aug 2022 15:18:28.873,484.831
821,21 Aug 2022 16:47:14.445,21 Aug 2022 16:53:51.777,397.332
822,21 Aug 2022 18:27:14.269,21 Aug 2022 18:27:40.977,26.708
823,22 Aug 2022 00:55:25.862,22 Aug 2022 01:00:38.248,312.386
824,22 Aug 2022 02:30:36.938,22 Aug 2022 02:38:21.126,464.189
825,22 Aug 2022 04:06:08.171,22 Aug 2022 04:14:08.211,480.041
826,22 Aug 2022 05:41:47.314,22 Aug 2022 05:48:18.736,391.422
827,22 Aug 2022 07:17:36.618,22 Aug 2022 07:21:05.460,208.842
828,22 Aug 2022 10:26:24.585,22 Aug 2022 10:27:46.697,82.112
829,22 Aug 2022 11:58:28.879,22 Aug 2022 12:03:54.430,325.551
830,22 Aug 2022 13:32:02.539,22 Aug 2022 13:39:36.709,454.170
831,22 Aug 2022 15:07:06.843,22 Aug 2022 15:15:11.772,484.928
832,22 Aug 2022 16:43:56.769,22 Aug 2022 16:50:34.757,397.988
833,22 Aug 2022 18:23:51.251,22 Aug 2022 18:24:28.925,37.674
834,23 Aug 2022 00:52:08.948,23 Aug 2022 00:57:20.298,311.350
835,23 Aug 2022 02:27:19.859,23 Aug 2022 02:35:03.737,463.878
836,23 Aug 2022 04:02:51.049,23 Aug 2022 04:10:51.251,480.202
837,23 Aug 2022 05:38:30.164,23 Aug 2022 05:45:02.143,391.980
838,23 Aug 2022 07:14:19.389,23 Aug 2022 07:17:49.204,209.816
839,23 Aug 2022 10:23:08.792,23 Aug 2022 10:24:29.074,80.282
840,23 Aug 2022 11:55:12.428,23 Aug 2022 12:00:37.261,324.834
841,23 Aug 2022 13:28:45.743,23 Aug 2022 13:36:19.573,453.830
842,23 Aug 2022 15:03:49.646,23 Aug 2022 15:11:54.669,485.022
843,23 Aug 2022 16:40:39.096,23 Aug 2022 16:47:17.737,398.641
844,23 Aug 2022 18:20:29.498,23 Aug 2022 18:21:15.598,46.100
845,24 Aug 2022 00:48:52.036,24 Aug 2022 00:54:02.345,310.308
846,24 Aug 2022 02:24:02.781,24 Aug 2022 02:31:46.347,463.566
847,24 Aug 2022 03:59:33.927,24 Aug 2022 04:07:34.288,480.361
848,24 Aug 2022 05:35:13.014,24 Aug 2022 05:41:45.549,392.536
849,24 Aug 2022 07:11:02.160,24 Aug 2022 07:14:32.947,210.787
850,24 Aug 2022 10:19:53.016,24 Aug 2022 10:21:11.439,78.423
851,24 Aug 2022 11:51:55.978,24 Aug 2022 11:57:20.093,324.115
852,24 Aug 2022 13:25:28.948,24 Aug 2022 13:33:02.439,453.491
853,24 Aug 2022 15:00:32.451,24 Aug 2022 15:08:37.567,485.116
854,24 Aug 2022 16:37:21.424,24 Aug 2022 16:44:00.716,399.291
855,24 Aug 2022 18:17:08.405,24 Aug 2022 18:18:01.618,53.213
856,25 Aug 2022 00:45:35.126,25 Aug 2022 00:50:44.388,309.262
857,25 Aug 2022 02:20:45.703,25 Aug 2022 02:28:28.954,463.252
858,25 Aug 2022 03:56:16.805,25 Aug 2022 04:04:17.322,480.517
859,25 Aug 2022 05:31:55.864,25 Aug 2022 05:38:28.954,393.090
860,25 Aug 2022 07:07:44.932,25 Aug 2022 07:11:16.687,211.756
861,25 Aug 2022 10:16:37.259,25 Aug 2022 10:17:53.784,76.525
862,25 Aug 2022 11:48:39.529,25 Aug 2022 11:54:02.925,323.395
863,25 Aug 2022 13:22:12.155,25 Aug 2022 13:29:45.306,453.150
864,25 Aug 2022 14:57:15.258,25 Aug 2022 15:05:20.465,485.207
865,25 Aug 2022 16:34:03.755,25 Aug 2022 16:40:43.694,399.939
866,25 Aug 2022 18:13:47.736,25 Aug 2022 18:14:47.215,59.479
867,26 Aug 2022 00:42:18.218,26 Aug 2022 00:47:26.430,308.213
868,26 Aug 2022 02:17:28.625,26 Aug 2022 02:25:11.560,462.935
869,26 Aug 2022 03:52:59.684,26 Aug 2022 04:01:00.357,480.673
870,26 Aug 2022 05:28:38.714,26 Aug 2022 05:35:12.358,393.644
871,26 Aug 2022 07:04:27.705,26 Aug 2022 07:08:00.427,212.722
872,26 Aug 2022 10:13:21.521,26 Aug 2022 10:14:36.109,74.588
873,26 Aug 2022 11:45:23.082,26 Aug 2022 11:50:45.756,322.674
874,26 Aug 2022 13:18:55.364,26 Aug 2022 13:26:28.172,452.808
875,26 Aug 2022 14:53:58.066,26 Aug 2022 15:02:03.362,485.296
876,26 Aug 2022 16:30:46.088,26 Aug 2022 16:37:26.671,400.583
877,26 Aug 2022 18:10:27.367,26 Aug 2022 18:11:32.512,65.145
878,27 Aug 2022 00:39:01.309,27 Aug 2022 00:44:08.470,307.161
879,27 Aug 2022 02:14:11.548,27 Aug 2022 02:21:54.164,462.617
880,27 Aug 2022 03:49:42.562,27 Aug 2022 03:57:43.390,480.828
881,27 Aug 2022 05:25:21.565,27 Aug 2022 05:31:55.760,394.196
882,27 Aug 2022 07:01:10.478,27 Aug 2022 07:04:44.164,213.686
883,27 Aug 2022 10:10:05.805,27 Aug 2022 10:11:18.414,72.609
884,27 Aug 2022 11:42:06.636,27 Aug 2022 11:47:28.587,321.951
885,27 Aug 2022 13:15:38.574,27 Aug 2022 13:23:11.038,452.464
886,27 Aug 2022 14:50:40.876,27 Aug 2022 14:58:46.260,485.384
887,27 Aug 2022 16:27:28.424,27 Aug 2022 16:34:09.647,401.223
888,27 Aug 2022 18:07:07.227,27 Aug 2022 18:08:17.581,70.354
889,28 Aug 2022 00:35:44.404,28 Aug 2022 00:40:50.504,306.100
890,28 Aug 2022 02:10:54.471,28 Aug 2022 02:18:36.767,462.296
891,28 Aug 2022 03:46:25.441,28 Aug 2022 03:54:26.419,480.978
892,28 Aug 2022 05:22:04.415,28 Aug 2022 05:28:39.161,394.746
893,28 Aug 2022 06:57:53.253,28 Aug 2022 07:01:27.900,214.648
894,28 Aug 2022 10:06:50.112,28 Aug 2022 10:08:00.695,70.583
895,28 Aug 2022 11:38:50.192,28 Aug 2022 11:44:11.418,321.226
896,28 Aug 2022 13:12:21.786,28 Aug 2022 13:19:53.904,452.118
897,28 Aug 2022 14:47:23.688,28 Aug 2022 14:55:29.157,485.469
898,28 Aug 2022 16:24:10.762,28 Aug 2022 16:30:52.624,401.862
899,28 Aug 2022 18:03:47.267,28 Aug 2022 18:05:02.474,75.208
900,29 Aug 2022 00:32:27.501,29 Aug 2022 00:37:32.534,305.033
901,29 Aug 2022 02:07:37.394,29 Aug 2022 02:15:19.367,461.973
902,29 Aug 2022 03:43:08.320,29 Aug 2022 03:51:09.450,481.129
903,29 Aug 2022 05:18:47.266,29 Aug 2022 05:25:22.561,395.295
904,29 Aug 2022 06:54:36.028,29 Aug 2022 06:58:11.635,215.606
905,29 Aug 2022 10:03:34.446,29 Aug 2022 10:04:42.952,68.506
906,29 Aug 2022 11:35:33.749,29 Aug 2022 11:40:54.249,320.500
907,29 Aug 2022 13:09:04.999,29 Aug 2022 13:16:36.770,451.771
908,29 Aug 2022 14:44:06.502,29 Aug 2022 14:52:12.055,485.553
909,29 Aug 2022 16:20:53.102,29 Aug 2022 16:27:35.600,402.498
910,29 Aug 2022 18:00:27.454,29 Aug 2022 18:01:47.217,79.763
911,30 Aug 2022 00:29:10.600,30 Aug 2022 00:34:14.562,303.962
912,30 Aug 2022 02:04:20.318,30 Aug 2022 02:12:01.966,461.648
913,30 Aug 2022 03:39:51.199,30 Aug 2022 03:47:52.478,481.279
914,30 Aug 2022 05:15:30.117,30 Aug 2022 05:22:05.959,395.842
915,30 Aug 2022 06:51:18.805,30 Aug 2022 06:54:55.369,216.564
916,30 Aug 2022 10:00:18.807,30 Aug 2022 10:01:25.180,66.373
917,30 Aug 2022 11:32:17.308,30 Aug 2022 11:37:37.079,319.772
918,30 Aug 2022 13:05:48.214,30 Aug 2022 13:13:19.636,451.422
919,30 Aug 2022 14:40:49.318,30 Aug 2022 14:48:54.952,485.634
920,30 Aug 2022 16:17:35.444,30 Aug 2022 16:24:18.575,403.131
921,30 Aug 2022 17:57:07.766,30 Aug 2022 17:58:31.841,84.075
922,31 Aug 2022 00:25:53.700,31 Aug 2022 00:30:56.586,302.886
923,31 Aug 2022 02:01:03.242,31 Aug 2022 02:08:44.562,461.320
924,31 Aug 2022 03:36:34.079,31 Aug 2022 03:44:35.505,481.426
925,31 Aug 2022 05:12:12.969,31 Aug 2022 05:18:49.356,396.387
926,31 Aug 2022 06:48:01.583,31 Aug 2022 06:51:39.098,217.516
927,31 Aug 2022 09:57:03.198,31 Aug 2022 09:58:07.378,64.180
928,31 Aug 2022 11:29:00.868,31 Aug 2022 11:34:19.910,319.042
929,31 Aug 2022 13:02:31.430,31 Aug 2022 13:10:02.501,451.071
930,31 Aug 2022 14:37:32.135,31 Aug 2022 14:45:37.849,485.714
931,31 Aug 2022 16:14:17.789,31 Aug 2022 16:21:01.550,403.761
932,31 Aug 2022 17:53:48.182,31 Aug 2022 17:55:16.364,88.181
933,1 Sep 2022 00:22:36.803,1 Sep 2022 00:27:38.606,301.804
934,1 Sep 2022 01:57:46.166,1 Sep 2022 02:05:27.157,460.991
935,1 Sep 2022 03:33:16.958,1 Sep 2022 03:41:18.530,481.572
936,1 Sep 2022 05:08:55.821,1 Sep 2022 05:15:32.750,396.930
937,1 Sep 2022 06:44:44.361,1 Sep 2022 06:48:22.827,218.466
938,1 Sep 2022 09:53:47.625,1 Sep 2022 09:54:49.542,61.916
939,1 Sep 2022 11:25:44.429,1 Sep 2022 11:31:02.739,318.310
940,1 Sep 2022 12:59:14.648,1 Sep 2022 13:06:45.367,450.719
941,1 Sep 2022 14:34:14.955,1 Sep 2022 14:42:20.746,485.792
942,1 Sep 2022 16:11:00.136,1 Sep 2022 16:17:44.524,404.389
943,1 Sep 2022 17:50:28.690,1 Sep 2022 17:52:00.794,92.104
944,2 Sep 2022 00:19:19.906,2 Sep 2022 00:24:20.624,300.717
945,2 Sep 2022 01:54:29.091,2 Sep 2022 02:02:09.750,460.659
946,2 Sep 2022 03:29:59.838,2 Sep 2022 03:38:01.553,481.715
947,2 Sep 2022 05:05:38.672,2 Sep 2022 05:12:16.143,397.471
948,2 Sep 2022 06:41:27.141,2 Sep 2022 06:45:06.557,219.416
949,2 Sep 2022 09:50:32.091,2 Sep 2022 09:51:31.667,59.576
950,2 Sep 2022 11:22:27.992,2 Sep 2022 11:27:45.569,317.577
951,2 Sep 2022 12:55:57.868,2 Sep 2022 13:03:28.232,450.364
952,2 Sep 2022 14:30:57.776,2 Sep 2022 14:39:03.643,485.867
953,2 Sep 2022 16:07:42.484,2 Sep 2022 16:14:27.498,405.014
954,2 Sep 2022 17:47:09.278,2 Sep 2022 17:48:45.145,95.867
955,3 Sep 2022 00:16:03.012,3 Sep 2022 00:21:02.637,299.625
956,3 Sep 2022 01:51:12.015,3 Sep 2022 01:58:52.341,460.326
957,3 Sep 2022 03:26:42.718,3 Sep 2022 03:34:44.574,481.856
958,3 Sep 2022 05:02:21.524,3 Sep 2022 05:08:59.535,398.011
959,3 Sep 2022 06:38:09.921,3 Sep 2022 06:41:50.284,220.363
960,3 Sep 2022 09:47:16.604,3 Sep 2022 09:48:13.750,57.145
961,3 Sep 2022 11:19:11.556,3 Sep 2022 11:24:28.398,316.842
962,3 Sep 2022 12:52:41.089,3 Sep 2022 13:00:11.097,450.009
963,3 Sep 2022 14:27:40.598,3 Sep 2022 14:35:46.539,485.941
964,3 Sep 2022 16:04:24.835,3 Sep 2022 16:11:10.471,405.636
965,3 Sep 2022 17:43:49.938,3 Sep 2022 17:45:29.425,99.488
966,4 Sep 2022 00:12:46.119,4 Sep 2022 00:17:44.647,298.528
967,4 Sep 2022 01:47:54.940,4 Sep 2022 01:55:34.930,459.990
968,4 Sep 2022 03:23:25.597,4 Sep 2022 03:31:27.588,481.991
969,4 Sep 2022 04:59:04.376,4 Sep 2022 05:05:42.925,398.549
970,4 Sep 2022 06:34:52.702,4 Sep 2022 06:38:34.003,221.301
971,4 Sep 2022 09:44:01.160,4 Sep 2022 09:44:55.787,54.627
972,4 Sep 2022 11:15:55.121,4 Sep 2022 11:21:11.226,316.105
973,4 Sep 2022 12:49:24.311,4 Sep 2022 12:56:53.962,449.651
974,4 Sep 2022 14:24:23.422,4 Sep 2022 14:32:29.435,486.013
975,4 Sep 2022 16:01:07.188,4 Sep 2022 16:07:53.443,406.255
976,4 Sep 2022 17:40:30.662,4 Sep 2022 17:42:13.643,102.981
977,5 Sep 2022 00:09:29.228,5 Sep 2022 00:14:26.653,297.425
978,5 Sep 2022 01:44:37.865,5 Sep 2022 01:52:17.517,459.652
979,5 Sep 2022 03:20:08.477,5 Sep 2022 03:28:10.606,482.129
