data/Partner_Institute/Skyhopper_Partner-Cambridge_AER_1year.csv

"Time (UTCG)","Azimuth (deg)","Elevation (deg)","Range (km)"
1 Jun 2022 05:58:53.562,313.974,-25.243,1839.951912
1 Jun 2022 05:59:53.000,302.381,-27.194,1573.279594
1 Jun 2022 06:00:53.000,286.073,-29.269,1390.683041
1 Jun 2022 06:01:53.000,266.043,-30.116,1332.200316
1 Jun 2022 06:02:53.000,246.414,-28.964,1413.642620
1 Jun 2022 06:03:53.000,230.889,-26.828,1613.717825
1 Jun 2022 06:04:45.763,220.999,-25.148,1857.556232
1 Jun 2022 07:33:02.701,13.393,-25.280,1833.476661
1 Jun 2022 07:34:02.000,18.311,-28.487,1451.853541
1 Jun 2022 07:35:02.000,27.576,-34.802,1099.658210
1 Jun 2022 07:36:02.000,48.415,-45.401,828.438581
1 Jun 2022 07:37:02.000,93.755,-51.972,735.544059
1 Jun 2022 07:38:02.000,133.487,-42.671,879.611078
1 Jun 2022 07:39:02.000,150.467,-32.980,1176.040382
1 Jun 2022 07:40:02.000,158.344,-27.535,1538.230435
1 Jun 2022 07:40:51.402,162.086,-25.144,1858.216403
1 Jun 2022 19:03:42.197,15.279,-25.144,1858.296174
1 Jun 2022 19:04:42.000,19.276,-28.311,1466.775206
1 Jun 2022 19:05:42.000,26.849,-34.729,1102.441887
1 Jun 2022 19:06:42.000,44.853,-46.584,808.906416
1 Jun 2022 19:07:42.000,93.359,-56.812,686.288984
1 Jun 2022 19:08:42.000,140.761,-46.122,816.358900
1 Jun 2022 19:09:42.000,158.216,-34.444,1113.603024
1 Jun 2022 19:10:42.000,165.633,-28.161,1479.795934
1 Jun 2022 19:11:35.925,169.280,-25.280,1833.309683
1 Jun 2022 20:39:56.838,315.637,-25.149,1857.333908
1 Jun 2022 20:40:56.000,303.790,-26.884,1607.239256
1 Jun 2022 20:41:56.000,287.627,-28.595,1442.901865
1 Jun 2022 20:42:56.000,268.534,-29.130,1401.021733
1 Jun 2022 20:43:56.000,250.218,-28.023,1492.052630
1 Jun 2022 20:44:56.000,235.651,-26.180,1694.301792
1 Jun 2022 20:45:29.119,229.394,-25.239,1840.800620
2 Jun 2022 05:55:37.562,313.679,-25.243,1840.027292
2 Jun 2022 05:56:37.000,302.037,-27.177,1575.071271
2 Jun 2022 05:57:37.000,285.717,-29.215,1394.657360
2 Jun 2022 05:58:37.000,265.763,-30.022,1338.376609
2 Jun 2022 05:59:37.000,246.270,-28.865,1421.364617
2 Jun 2022 06:00:37.000,230.858,-26.755,1622.136163
2 Jun 2022 06:01:28.063,221.294,-25.148,1857.535356
2 Jun 2022 07:29:45.293,13.152,-25.280,1833.460103
2 Jun 2022 07:30:45.000,18.043,-28.525,1448.689788
2 Jun 2022 07:31:45.000,27.236,-34.902,1095.859941
2 Jun 2022 07:32:45.000,48.073,-45.666,823.942768
2 Jun 2022 07:33:45.000,93.989,-52.355,731.148427
2 Jun 2022 07:34:45.000,133.990,-42.822,876.538487
2 Jun 2022 07:35:45.000,150.847,-33.019,1174.220170
2 Jun 2022 07:36:45.000,158.629,-27.545,1537.223706
2 Jun 2022 07:37:34.488,162.324,-25.144,1858.223497
2 Jun 2022 19:00:25.254,15.515,-25.144,1858.288511
2 Jun 2022 19:01:25.000,19.576,-28.301,1467.633669
2 Jun 2022 19:02:25.000,27.264,-34.687,1104.073700
2 Jun 2022 19:03:25.000,45.435,-46.406,811.757941
2 Jun 2022 19:04:25.000,93.494,-56.362,690.341470
2 Jun 2022 19:05:25.000,140.321,-45.883,820.312518
2 Jun 2022 19:06:25.000,157.857,-34.361,1116.873958
2 Jun 2022 19:07:25.000,165.361,-28.130,1482.514260
2 Jun 2022 19:08:18.572,169.042,-25.280,1833.322335
2 Jun 2022 20:36:39.062,315.946,-25.149,1857.353691
2 Jun 2022 20:37:39.000,303.963,-26.925,1602.613910
2 Jun 2022 20:38:39.000,287.755,-28.663,1437.370960
2 Jun 2022 20:39:39.000,268.569,-29.212,1394.945843
2 Jun 2022 20:40:39.000,250.161,-28.091,1486.004156
2 Jun 2022 20:41:39.000,235.543,-26.222,1688.685979
2 Jun 2022 20:42:13.223,229.084,-25.239,1840.720474
3 Jun 2022 05:52:21.572,313.382,-25.243,1840.103212
3 Jun 2022 05:53:21.000,301.694,-27.159,1576.914925
3 Jun 2022 05:54:21.000,285.364,-29.161,1398.678366
3 Jun 2022 05:55:21.000,265.486,-29.928,1344.581568
3 Jun 2022 05:56:21.000,246.130,-28.767,1429.095249
3 Jun 2022 05:57:21.000,230.827,-26.684,1630.552101
3 Jun 2022 05:58:10.357,221.591,-25.148,1857.515724
3 Jun 2022 07:26:27.890,12.911,-25.280,1833.443925
3 Jun 2022 07:27:27.000,17.667,-28.487,1451.814076
3 Jun 2022 07:28:27.000,26.678,-34.858,1097.526043
3 Jun 2022 07:29:27.000,47.194,-45.728,822.893974
3 Jun 2022 07:30:27.000,93.330,-52.787,726.306380
3 Jun 2022 07:31:27.000,134.071,-43.173,869.488245
3 Jun 2022 07:32:27.000,151.050,-33.184,1166.761339
3 Jun 2022 07:33:27.000,158.821,-27.620,1529.892322
3 Jun 2022 07:34:17.571,162.562,-25.144,1858.230423
3 Jun 2022 18:57:08.314,15.750,-25.144,1858.280747
3 Jun 2022 18:58:08.000,19.876,-28.290,1468.517756
3 Jun 2022 18:59:08.000,27.678,-34.644,1105.741730
3 Jun 2022 19:00:08.000,46.009,-46.226,814.657025
3 Jun 2022 19:01:08.000,93.626,-55.917,694.443525
3 Jun 2022 19:02:08.000,139.889,-45.644,824.313416
3 Jun 2022 19:03:08.000,157.502,-34.279,1120.187238
3 Jun 2022 19:04:08.000,165.091,-28.099,1485.268965
3 Jun 2022 19:05:01.215,168.802,-25.280,1833.335372
3 Jun 2022 20:33:21.293,316.254,-25.149,1857.372618
3 Jun 2022 20:34:21.000,304.372,-26.934,1601.626706
3 Jun 2022 20:35:21.000,288.187,-28.709,1433.680201
3 Jun 2022 20:36:21.000,268.932,-29.300,1388.470600
3 Jun 2022 20:37:21.000,250.383,-28.188,1477.429857
3 Jun 2022 20:38:21.000,235.642,-26.296,1678.970057
3 Jun 2022 20:38:57.316,228.776,-25.240,1840.640899
4 Jun 2022 05:49:05.593,313.083,-25.242,1840.168525
4 Jun 2022 05:50:05.000,301.353,-27.142,1578.810336
4 Jun 2022 05:51:05.000,285.014,-29.107,1402.745563
4 Jun 2022 05:52:05.000,265.214,-29.835,1350.814640
4 Jun 2022 05:53:05.000,245.991,-28.670,1436.834177
4 Jun 2022 05:54:05.000,230.797,-26.614,1638.965453
4 Jun 2022 05:54:52.644,221.889,-25.148,1857.495226
4 Jun 2022 07:23:10.494,12.670,-25.280,1833.428130
4 Jun 2022 07:24:10.000,17.397,-28.525,1448.730865
4 Jun 2022 07:25:10.000,26.333,-34.956,1093.820192
4 Jun 2022 07:26:10.000,46.834,-45.993,818.491211
4 Jun 2022 07:27:10.000,93.563,-53.181,721.982692
4 Jun 2022 07:28:10.000,134.586,-43.326,866.476249
4 Jun 2022 07:29:10.000,151.435,-33.223,1164.990412
4 Jun 2022 07:30:10.000,159.108,-27.630,1528.922409
4 Jun 2022 07:31:00.651,162.799,-25.144,1858.237181
4 Jun 2022 18:53:51.376,15.986,-25.144,1858.272883
4 Jun 2022 18:54:51.000,20.176,-28.280,1469.427532
4 Jun 2022 18:55:51.000,28.091,-34.600,1107.445909
4 Jun 2022 18:56:51.000,46.577,-46.046,817.603218
4 Jun 2022 18:57:51.000,93.754,-55.477,698.594257
4 Jun 2022 18:58:51.000,139.465,-45.406,828.360818
4 Jun 2022 18:59:51.000,157.149,-34.196,1123.542369
4 Jun 2022 19:00:51.000,164.822,-28.068,1488.059716
4 Jun 2022 19:01:43.851,168.563,-25.280,1833.348794
4 Jun 2022 20:30:03.533,316.560,-25.149,1857.392856
4 Jun 2022 20:31:03.000,304.781,-26.942,1600.703416
4 Jun 2022 20:32:03.000,288.622,-28.755,1430.054929
4 Jun 2022 20:33:03.000,269.297,-29.388,1382.045153
4 Jun 2022 20:34:03.000,250.609,-28.286,1468.882915
4 Jun 2022 20:35:03.000,235.742,-26.371,1669.267146
4 Jun 2022 20:35:41.399,228.470,-25.240,1840.561937
5 Jun 2022 05:45:49.623,312.784,-25.242,1840.247209
5 Jun 2022 05:46:49.000,301.013,-27.124,1580.757300
5 Jun 2022 05:47:49.000,284.667,-29.053,1406.858486
5 Jun 2022 05:48:49.000,264.944,-29.743,1357.075332
5 Jun 2022 05:49:49.000,245.854,-28.575,1444.581127
5 Jun 2022 05:50:49.000,230.767,-26.545,1647.376101
5 Jun 2022 05:51:34.923,222.188,-25.148,1857.474917
5 Jun 2022 07:19:53.102,12.430,-25.280,1833.412718
5 Jun 2022 07:20:53.000,17.126,-28.562,1445.683896
5 Jun 2022 07:21:53.000,25.984,-35.053,1090.155220
5 Jun 2022 07:22:53.000,46.466,-46.259,814.131524
5 Jun 2022 07:23:53.000,93.802,-53.580,717.703153
5 Jun 2022 07:24:53.000,135.106,-43.478,863.507129
5 Jun 2022 07:25:53.000,151.821,-33.262,1163.252569
5 Jun 2022 07:26:53.000,159.394,-27.640,1527.976078
5 Jun 2022 07:27:43.728,163.036,-25.144,1858.243770
5 Jun 2022 18:50:34.442,16.222,-25.144,1858.264918
5 Jun 2022 18:51:34.000,20.475,-28.269,1470.363002
5 Jun 2022 18:52:34.000,28.502,-34.556,1109.186104
5 Jun 2022 18:53:34.000,47.137,-45.866,820.596015
5 Jun 2022 18:54:34.000,93.879,-55.043,702.792752
5 Jun 2022 18:55:34.000,139.049,-45.169,832.453959
5 Jun 2022 18:56:34.000,156.800,-34.112,1126.938881
5 Jun 2022 18:57:34.000,164.554,-28.036,1490.886212
5 Jun 2022 18:58:26.483,168.324,-25.280,1833.362601
5 Jun 2022 20:26:45.777,316.865,-25.148,1857.431352
5 Jun 2022 20:27:45.000,305.191,-26.950,1599.844236
5 Jun 2022 20:28:45.000,289.059,-28.799,1426.495717
5 Jun 2022 20:29:45.000,269.667,-29.477,1375.670257
5 Jun 2022 20:30:45.000,250.838,-28.386,1460.363845
5 Jun 2022 20:31:45.000,235.843,-26.447,1659.577488
5 Jun 2022 20:32:25.472,228.165,-25.240,1840.483639
6 Jun 2022 05:42:33.662,312.484,-25.241,1840.326512
6 Jun 2022 05:43:33.000,300.675,-27.105,1582.755612
6 Jun 2022 05:44:33.000,284.322,-28.998,1411.016700
6 Jun 2022 05:45:33.000,264.678,-29.652,1363.363202
6 Jun 2022 05:46:33.000,245.720,-28.481,1452.335892
6 Jun 2022 05:47:33.000,230.738,-26.477,1655.784000
6 Jun 2022 05:48:17.197,222.488,-25.148,1857.465027
6 Jun 2022 07:16:35.717,12.189,-25.280,1833.397683
6 Jun 2022 07:17:35.000,16.751,-28.522,1448.960472
6 Jun 2022 07:18:35.000,25.425,-35.004,1092.011878
6 Jun 2022 07:19:35.000,45.561,-46.310,813.297524
6 Jun 2022 07:20:35.000,93.103,-54.028,713.008941
6 Jun 2022 07:21:35.000,135.203,-43.842,856.530888
6 Jun 2022 07:22:35.000,152.034,-33.430,1155.843479
6 Jun 2022 07:23:35.000,159.592,-27.715,1520.680799
6 Jun 2022 07:24:26.802,163.272,-25.144,1858.250191
6 Jun 2022 18:47:17.511,16.458,-25.144,1858.256853
6 Jun 2022 18:48:17.000,20.774,-28.258,1471.324095
6 Jun 2022 18:49:17.000,28.912,-34.511,1110.962113
6 Jun 2022 18:50:17.000,47.690,-45.684,823.634855
6 Jun 2022 18:51:17.000,94.001,-54.614,707.038087
6 Jun 2022 18:52:17.000,138.642,-44.932,836.592099
6 Jun 2022 18:53:17.000,156.453,-34.029,1130.376343
6 Jun 2022 18:54:17.000,164.288,-28.005,1493.748203
6 Jun 2022 18:55:09.109,168.084,-25.280,1833.376796
6 Jun 2022 20:23:28.033,317.169,-25.148,1857.448695
6 Jun 2022 20:24:28.000,305.369,-26.991,1595.295984
6 Jun 2022 20:25:28.000,289.194,-28.869,1421.022640
6 Jun 2022 20:26:28.000,269.708,-29.562,1369.619034
6 Jun 2022 20:27:28.000,250.780,-28.457,1454.322353
6 Jun 2022 20:28:28.000,235.731,-26.491,1653.973691
6 Jun 2022 20:29:09.534,227.861,-25.241,1840.406014
7 Jun 2022 05:39:17.711,312.182,-25.241,1840.406442
7 Jun 2022 05:40:17.000,300.337,-27.086,1584.805052
7 Jun 2022 05:41:17.000,283.981,-28.944,1415.219775
7 Jun 2022 05:42:17.000,264.416,-29.562,1369.677848
7 Jun 2022 05:43:17.000,245.588,-28.389,1460.098323
7 Jun 2022 05:44:17.000,230.710,-26.410,1664.189170
7 Jun 2022 05:44:59.459,222.790,-25.148,1857.434520
7 Jun 2022 07:13:18.336,11.949,-25.280,1833.383029
7 Jun 2022 07:14:18.000,16.478,-28.558,1445.995132
7 Jun 2022 07:15:18.000,25.071,-35.099,1088.441390
7 Jun 2022 07:16:18.000,45.174,-46.576,809.034836
7 Jun 2022 07:17:18.000,93.340,-54.439,708.805479
7 Jun 2022 07:18:18.000,135.736,-43.996,853.624566
7 Jun 2022 07:19:18.000,152.425,-33.468,1154.155616
7 Jun 2022 07:20:18.000,159.880,-27.725,1519.771256
7 Jun 2022 07:21:09.873,163.509,-25.144,1858.256464
7 Jun 2022 18:44:00.582,16.695,-25.144,1858.248688
7 Jun 2022 18:45:00.000,21.073,-28.246,1472.310662
7 Jun 2022 18:46:00.000,29.321,-34.465,1112.773660
7 Jun 2022 18:47:00.000,48.236,-45.502,826.719122
7 Jun 2022 18:48:00.000,94.120,-54.191,711.329341
7 Jun 2022 18:49:00.000,138.242,-44.697,840.774539
7 Jun 2022 18:50:00.000,156.110,-33.945,1133.854383
7 Jun 2022 18:51:00.000,164.022,-27.973,1496.645503
7 Jun 2022 18:51:51.729,167.844,-25.280,1833.391376
7 Jun 2022 20:20:10.297,317.471,-25.148,1857.465836
7 Jun 2022 20:21:10.000,305.781,-26.998,1594.525164
7 Jun 2022 20:22:10.000,289.635,-28.914,1417.548944
7 Jun 2022 20:23:10.000,270.083,-29.653,1363.303739
7 Jun 2022 20:24:10.000,251.012,-28.560,1445.832860
7 Jun 2022 20:25:10.000,235.833,-26.570,1644.298725
7 Jun 2022 20:25:53.585,227.558,-25.241,1840.329107
8 Jun 2022 05:36:01.771,311.878,-25.240,1840.487018
8 Jun 2022 05:37:01.000,300.002,-27.067,1586.905362
8 Jun 2022 05:38:01.000,283.643,-28.889,1419.467278
8 Jun 2022 05:39:01.000,264.157,-29.472,1376.018891
8 Jun 2022 05:40:01.000,245.457,-28.298,1467.868316
8 Jun 2022 05:41:01.000,230.683,-26.345,1672.591691
8 Jun 2022 05:41:41.716,223.093,-25.148,1857.414285
8 Jun 2022 07:10:00.962,11.710,-25.280,1833.368749
8 Jun 2022 07:11:00.000,16.105,-28.517,1449.378750
8 Jun 2022 07:12:00.000,24.512,-35.046,1090.436377
8 Jun 2022 07:13:00.000,44.254,-46.618,808.366866
8 Jun 2022 07:14:00.000,92.606,-54.896,704.234590
8 Jun 2022 07:15:00.000,135.843,-44.370,846.706468
8 Jun 2022 07:16:00.000,152.644,-33.639,1146.781223
8 Jun 2022 07:17:00.000,160.082,-27.802,1512.499685
8 Jun 2022 07:17:52.942,163.745,-25.144,1858.262567
8 Jun 2022 18:40:43.656,16.932,-25.144,1858.240421
8 Jun 2022 18:41:43.000,21.372,-28.235,1473.322475
8 Jun 2022 18:42:43.000,29.727,-34.418,1114.620397
8 Jun 2022 18:43:43.000,48.774,-45.319,829.848159
8 Jun 2022 18:44:43.000,94.237,-53.773,715.665608
8 Jun 2022 18:45:43.000,137.850,-44.463,845.000632
8 Jun 2022 18:46:43.000,155.770,-33.860,1137.372697
8 Jun 2022 18:47:43.000,163.758,-27.941,1499.578006
8 Jun 2022 18:48:34.344,167.604,-25.280,1833.406284
8 Jun 2022 20:16:52.569,317.771,-25.148,1857.482780
8 Jun 2022 20:17:52.000,306.192,-27.004,1593.818986
8 Jun 2022 20:18:52.000,290.078,-28.958,1414.142863
8 Jun 2022 20:19:52.000,270.462,-29.744,1357.041023
8 Jun 2022 20:20:52.000,251.246,-28.663,1437.372715
8 Jun 2022 20:21:52.000,235.936,-26.650,1634.637910
8 Jun 2022 20:22:37.627,227.257,-25.242,1840.253478
9 Jun 2022 05:32:45.841,311.573,-25.240,1840.568248
9 Jun 2022 05:33:45.000,299.667,-27.047,1589.056229
9 Jun 2022 05:34:45.000,283.307,-28.834,1423.758740
9 Jun 2022 05:35:45.000,263.902,-29.383,1382.385955
9 Jun 2022 05:36:45.000,245.329,-28.208,1475.645793
9 Jun 2022 05:37:45.000,230.656,-26.280,1680.991685
9 Jun 2022 05:38:23.965,223.398,-25.149,1857.393961
9 Jun 2022 07:06:43.593,11.470,-25.280,1833.354850
9 Jun 2022 07:07:43.000,15.830,-28.552,1446.494984
9 Jun 2022 07:08:43.000,24.152,-35.139,1086.961031
9 Jun 2022 07:09:43.000,43.848,-46.882,804.203443
9 Jun 2022 07:10:43.000,92.840,-55.319,700.110153
9 Jun 2022 07:11:43.000,136.390,-44.526,843.864868
9 Jun 2022 07:12:43.000,153.040,-33.677,1145.144420
9 Jun 2022 07:13:43.000,160.372,-27.811,1511.627586
9 Jun 2022 07:14:36.008,163.981,-25.144,1858.268521
9 Jun 2022 18:37:26.733,17.169,-25.144,1858.232054
9 Jun 2022 18:38:26.000,21.670,-28.223,1474.359236
9 Jun 2022 18:39:26.000,30.132,-34.371,1116.501920
9 Jun 2022 18:40:26.000,49.306,-45.136,833.021285
9 Jun 2022 18:41:26.000,94.351,-53.360,720.046022
9 Jun 2022 18:42:26.000,137.466,-44.230,849.269811
9 Jun 2022 18:43:26.000,155.432,-33.776,1140.931070
9 Jun 2022 18:44:26.000,163.496,-27.909,1502.545697
9 Jun 2022 18:45:16.954,167.363,-25.280,1833.424103
9 Jun 2022 20:13:34.848,318.070,-25.148,1857.499520
9 Jun 2022 20:14:34.000,306.603,-27.010,1593.177409
9 Jun 2022 20:15:34.000,290.524,-29.001,1410.804825
9 Jun 2022 20:16:34.000,270.845,-29.835,1350.831639
9 Jun 2022 20:17:34.000,251.484,-28.769,1428.942544
9 Jun 2022 20:18:34.000,236.039,-26.731,1624.991662
9 Jun 2022 20:19:21.658,226.958,-25.242,1840.177552
10 Jun 2022 05:29:29.927,311.266,-25.240,1840.626347
10 Jun 2022 05:30:29.000,299.334,-27.027,1591.257253
10 Jun 2022 05:31:29.000,282.974,-28.779,1428.093627
10 Jun 2022 05:32:29.000,263.649,-29.295,1388.778624
10 Jun 2022 05:33:29.000,245.203,-28.120,1483.430659
10 Jun 2022 05:34:29.000,230.629,-26.217,1689.389281
10 Jun 2022 05:35:06.206,223.704,-25.149,1857.373477
10 Jun 2022 07:03:26.229,11.231,-25.280,1833.341323
10 Jun 2022 07:04:26.000,15.553,-28.586,1443.647705
10 Jun 2022 07:05:26.000,23.789,-35.232,1083.527683
10 Jun 2022 07:06:26.000,43.432,-47.148,800.085766
10 Jun 2022 07:07:26.000,93.080,-55.747,696.033198
10 Jun 2022 07:08:26.000,136.944,-44.681,841.068327
10 Jun 2022 07:09:26.000,153.437,-33.714,1143.541734
10 Jun 2022 07:10:26.000,160.662,-27.820,1510.779635
10 Jun 2022 07:11:19.071,164.217,-25.144,1858.277110
10 Jun 2022 18:34:09.813,17.406,-25.144,1858.223583
10 Jun 2022 18:35:09.000,21.967,-28.211,1475.420614
10 Jun 2022 18:36:09.000,30.536,-34.323,1118.417811
10 Jun 2022 18:37:09.000,49.832,-44.952,836.237838
10 Jun 2022 18:38:09.000,94.463,-52.953,724.469790
10 Jun 2022 18:39:09.000,137.089,-43.999,853.581601
10 Jun 2022 18:40:09.000,155.098,-33.691,1144.529378
10 Jun 2022 18:41:09.000,163.235,-27.876,1505.548649
10 Jun 2022 18:41:59.559,167.122,-25.280,1833.442205
10 Jun 2022 20:10:17.134,318.368,-25.148,1857.516053
10 Jun 2022 20:11:17.000,306.786,-27.050,1588.710090
10 Jun 2022 20:12:17.000,290.666,-29.072,1405.395245
10 Jun 2022 20:13:17.000,270.891,-29.925,1344.810299
10 Jun 2022 20:14:17.000,251.427,-28.845,1422.911684
10 Jun 2022 20:15:17.000,235.925,-26.779,1619.403085
10 Jun 2022 20:16:05.680,226.660,-25.243,1840.103080
11 Jun 2022 05:26:14.019,310.959,-25.239,1840.709699
11 Jun 2022 05:27:14.000,298.765,-27.039,1589.977071
11 Jun 2022 05:28:14.000,282.339,-28.746,1430.763335
11 Jun 2022 05:29:14.000,263.075,-29.201,1395.728493
11 Jun 2022 05:30:14.000,244.802,-28.004,1493.854963
11 Jun 2022 05:31:14.000,230.398,-26.124,1701.960837
11 Jun 2022 05:31:48.439,224.011,-25.149,1857.352779
11 Jun 2022 07:00:08.871,10.992,-25.280,1833.328172
11 Jun 2022 07:01:08.000,15.182,-28.543,1447.181812
11 Jun 2022 07:02:08.000,23.229,-35.173,1085.713919
11 Jun 2022 07:03:08.000,42.488,-47.176,799.641571
11 Jun 2022 07:04:08.000,92.298,-56.221,691.625316
11 Jun 2022 07:05:08.000,137.069,-45.067,834.233739
11 Jun 2022 07:06:08.000,153.667,-33.888,1136.222752
11 Jun 2022 07:07:08.000,160.869,-27.898,1503.547898
11 Jun 2022 07:08:02.132,164.453,-25.144,1858.284930
11 Jun 2022 18:30:52.896,17.643,-25.144,1858.215012
11 Jun 2022 18:31:52.000,22.265,-28.198,1476.506313
11 Jun 2022 18:32:52.000,30.938,-34.274,1120.367700
11 Jun 2022 18:33:52.000,50.350,-44.769,839.497234
11 Jun 2022 18:34:52.000,94.572,-52.551,728.936222
11 Jun 2022 18:35:52.000,136.720,-43.768,857.935613
11 Jun 2022 18:36:52.000,154.767,-33.606,1148.167561
11 Jun 2022 18:37:52.000,162.975,-27.843,1508.586985
11 Jun 2022 18:38:42.158,166.882,-25.280,1833.460602
11 Jun 2022 20:06:59.428,318.665,-25.148,1857.532567
11 Jun 2022 20:07:59.000,307.199,-27.056,1588.157166
11 Jun 2022 20:08:59.000,291.116,-29.115,1402.145326
11 Jun 2022 20:09:59.000,271.280,-30.017,1338.664233
11 Jun 2022 20:10:59.000,251.667,-28.953,1414.514021
11 Jun 2022 20:11:59.000,236.029,-26.862,1609.773807
11 Jun 2022 20:12:49.691,226.363,-25.243,1840.028979
12 Jun 2022 05:22:58.121,310.649,-25.239,1840.791895
12 Jun 2022 05:23:58.000,298.435,-27.018,1592.309832
12 Jun 2022 05:24:58.000,282.013,-28.690,1435.219325
12 Jun 2022 05:25:58.000,262.831,-29.114,1402.199909
12 Jun 2022 05:26:58.000,244.681,-27.918,1501.669592
12 Jun 2022 05:27:58.000,230.374,-26.063,1710.358620
12 Jun 2022 05:28:30.663,224.321,-25.149,1857.331804
12 Jun 2022 06:56:51.517,10.753,-25.280,1833.315395
12 Jun 2022 06:57:51.000,14.904,-28.577,1444.415260
12 Jun 2022 06:58:51.000,22.861,-35.264,1082.376120
12 Jun 2022 06:59:51.000,42.052,-47.440,795.626327
12 Jun 2022 07:00:51.000,92.535,-56.662,687.632459
12 Jun 2022 07:01:51.000,137.638,-45.223,831.506015
12 Jun 2022 07:02:51.000,154.069,-33.925,1134.674022
12 Jun 2022 07:03:51.000,161.162,-27.906,1502.739679
12 Jun 2022 07:04:45.189,164.688,-25.144,1858.292658
12 Jun 2022 18:27:35.982,17.881,-25.144,1858.206336
12 Jun 2022 18:28:35.000,22.561,-28.186,1477.616168
12 Jun 2022 18:29:35.000,31.338,-34.225,1122.351358
12 Jun 2022 18:30:35.000,50.862,-44.585,842.799030
12 Jun 2022 18:31:35.000,94.680,-52.154,733.444748
12 Jun 2022 18:32:35.000,136.358,-43.539,862.331505
12 Jun 2022 18:33:35.000,154.439,-33.521,1151.845554
12 Jun 2022 18:34:35.000,162.716,-27.811,1511.660801
12 Jun 2022 18:35:24.751,166.640,-25.280,1833.479285
12 Jun 2022 20:03:41.729,318.960,-25.148,1857.548439
12 Jun 2022 20:04:41.000,307.612,-27.060,1587.668081
12 Jun 2022 20:05:41.000,291.568,-29.158,1398.963836
12 Jun 2022 20:06:41.000,271.673,-30.110,1332.572679
12 Jun 2022 20:07:41.000,251.911,-29.062,1406.147289
12 Jun 2022 20:08:41.000,236.134,-26.947,1600.159747
12 Jun 2022 20:09:33.693,226.067,-25.243,1839.956374
13 Jun 2022 05:19:42.235,310.338,-25.238,1840.874031
13 Jun 2022 05:20:42.000,298.106,-26.996,1594.690888
13 Jun 2022 05:21:42.000,281.690,-28.635,1439.716228
13 Jun 2022 05:22:42.000,262.591,-29.029,1408.694652
13 Jun 2022 05:23:42.000,244.562,-27.834,1509.490412
13 Jun 2022 05:24:42.000,230.351,-26.004,1718.753653
13 Jun 2022 05:25:12.879,224.631,-25.149,1857.310488
13 Jun 2022 06:53:34.170,10.514,-25.281,1833.302991
13 Jun 2022 06:54:34.000,14.624,-28.610,1441.685070
13 Jun 2022 06:55:34.000,22.490,-35.354,1079.080871
13 Jun 2022 06:56:34.000,41.608,-47.705,791.658669
13 Jun 2022 06:57:34.000,92.780,-57.107,683.689863
13 Jun 2022 06:58:34.000,138.212,-45.379,828.825547
13 Jun 2022 06:59:34.000,154.472,-33.961,1133.160871
13 Jun 2022 07:00:34.000,161.454,-27.915,1501.956754
13 Jun 2022 07:01:28.244,164.923,-25.144,1858.300294
13 Jun 2022 18:24:19.070,18.119,-25.144,1858.197555
13 Jun 2022 18:25:19.000,22.963,-28.244,1472.508607
13 Jun 2022 18:26:19.000,31.946,-34.310,1118.924149
13 Jun 2022 18:27:19.000,51.866,-44.595,842.620146
13 Jun 2022 18:28:19.000,95.654,-51.742,738.229464
13 Jun 2022 18:29:19.000,136.454,-43.118,870.593902
13 Jun 2022 18:30:19.000,154.306,-33.309,1161.140458
13 Jun 2022 18:31:19.000,162.557,-27.711,1521.076527
13 Jun 2022 18:32:07.338,166.399,-25.279,1833.498258
13 Jun 2022 20:00:24.034,319.254,-25.148,1857.578275
13 Jun 2022 20:01:24.000,307.798,-27.101,1583.256444
13 Jun 2022 20:02:24.000,291.715,-29.230,1393.598901
13 Jun 2022 20:03:24.000,271.723,-30.203,1326.573369
13 Jun 2022 20:04:24.000,251.854,-29.142,1400.126382
13 Jun 2022 20:05:24.000,236.017,-26.997,1594.586323
13 Jun 2022 20:06:17.686,225.772,-25.244,1839.885077
14 Jun 2022 05:16:26.360,310.026,-25.238,1840.956096
14 Jun 2022 05:17:26.000,297.778,-26.974,1597.119575
14 Jun 2022 05:18:26.000,281.369,-28.579,1444.253129
14 Jun 2022 05:19:26.000,262.353,-28.944,1415.211820
14 Jun 2022 05:20:26.000,244.445,-27.751,1517.316754
14 Jun 2022 05:21:26.000,230.328,-25.945,1727.145446
14 Jun 2022 05:21:55.086,224.944,-25.149,1857.288766
14 Jun 2022 06:50:16.827,10.276,-25.281,1833.290960
14 Jun 2022 06:51:16.000,14.255,-28.565,1445.367989
14 Jun 2022 06:52:16.000,21.930,-35.289,1081.458461
14 Jun 2022 06:53:16.000,40.640,-47.719,791.443965
14 Jun 2022 06:54:16.000,91.944,-57.598,679.456005
14 Jun 2022 06:55:16.000,138.359,-45.776,822.082744
14 Jun 2022 06:56:16.000,154.712,-34.138,1125.903090
14 Jun 2022 06:57:16.000,161.667,-27.993,1494.769285
14 Jun 2022 06:58:11.296,165.158,-25.144,1858.307837
14 Jun 2022 18:21:02.161,18.357,-25.144,1858.188667
14 Jun 2022 18:22:02.000,23.261,-28.231,1473.679025
14 Jun 2022 18:23:02.000,32.345,-34.259,1120.994091
14 Jun 2022 18:24:02.000,52.365,-44.407,846.030948
14 Jun 2022 18:25:02.000,95.745,-51.355,742.830734
14 Jun 2022 18:26:02.000,136.104,-42.895,875.061746
14 Jun 2022 18:27:02.000,153.984,-33.225,1164.885609
14 Jun 2022 18:28:02.000,162.303,-27.679,1524.212269
14 Jun 2022 18:28:49.920,166.157,-25.279,1833.517518
14 Jun 2022 19:57:06.348,319.547,-25.147,1857.595334
14 Jun 2022 19:58:06.000,308.212,-27.104,1582.854462
14 Jun 2022 19:59:06.000,292.172,-29.272,1390.505288
14 Jun 2022 20:00:06.000,272.121,-30.298,1320.545529
14 Jun 2022 20:01:06.000,252.101,-29.254,1391.792027
14 Jun 2022 20:02:06.000,236.122,-27.085,1584.988851
14 Jun 2022 20:03:01.669,225.479,-25.244,1839.815180
15 Jun 2022 05:13:10.496,309.712,-25.237,1841.038076
15 Jun 2022 05:14:10.000,297.452,-26.952,1599.595382
15 Jun 2022 05:15:10.000,281.051,-28.523,1448.829207
15 Jun 2022 05:16:10.000,262.118,-28.860,1421.750531
15 Jun 2022 05:17:10.000,244.330,-27.669,1525.147887
15 Jun 2022 05:18:10.000,230.305,-25.887,1735.533384
15 Jun 2022 05:18:37.284,225.258,-25.149,1857.266577
15 Jun 2022 06:46:59.490,10.037,-25.281,1833.279302
15 Jun 2022 06:47:59.000,13.974,-28.598,1442.719410
15 Jun 2022 06:48:59.000,21.555,-35.377,1078.260903
15 Jun 2022 06:49:59.000,40.175,-47.981,787.583614
15 Jun 2022 06:50:59.000,92.184,-58.056,675.603956
15 Jun 2022 06:51:59.000,138.949,-45.933,819.475554
15 Jun 2022 06:52:59.000,155.120,-34.173,1124.446467
15 Jun 2022 06:53:59.000,161.961,-28.002,1494.027718
15 Jun 2022 06:54:54.344,165.393,-25.144,1858.315288
15 Jun 2022 18:17:45.256,18.595,-25.144,1858.179670
15 Jun 2022 18:18:45.000,23.558,-28.217,1474.874584
15 Jun 2022 18:19:45.000,32.742,-34.207,1123.098478
15 Jun 2022 18:20:45.000,52.857,-44.219,849.483749
15 Jun 2022 18:21:45.000,95.834,-50.973,747.472519
15 Jun 2022 18:22:45.000,135.761,-42.673,879.569866
15 Jun 2022 18:23:45.000,153.666,-33.141,1168.669320
15 Jun 2022 18:24:45.000,162.049,-27.646,1527.382522
15 Jun 2022 18:25:32.494,165.915,-25.279,1833.520918
15 Jun 2022 19:53:48.668,319.839,-25.147,1857.612184
15 Jun 2022 19:54:48.000,308.626,-27.107,1582.515865
15 Jun 2022 19:55:48.000,292.630,-29.313,1387.480375
15 Jun 2022 19:56:48.000,272.524,-30.392,1314.572820
15 Jun 2022 19:57:48.000,252.351,-29.368,1383.488577
15 Jun 2022 19:58:48.000,236.229,-27.174,1575.405967
15 Jun 2022 19:59:45.643,225.187,-25.245,1839.746793
16 Jun 2022 05:09:54.644,309.396,-25.237,1841.119958
16 Jun 2022 05:10:54.000,297.128,-26.930,1602.118030
16 Jun 2022 05:11:54.000,280.736,-28.468,1453.443855
16 Jun 2022 05:12:54.000,261.886,-28.777,1428.310076
16 Jun 2022 05:13:54.000,244.216,-27.588,1532.983196
16 Jun 2022 05:14:54.000,230.283,-25.830,1743.916910
16 Jun 2022 05:15:19.473,225.573,-25.149,1857.243858
16 Jun 2022 06:43:42.158,9.799,-25.281,1833.268017
16 Jun 2022 06:44:42.000,13.692,-28.630,1440.108689
16 Jun 2022 06:45:42.000,21.176,-35.464,1075.107903
16 Jun 2022 06:46:42.000,39.700,-48.244,783.773760
16 Jun 2022 06:47:42.000,92.432,-58.519,671.805148
16 Jun 2022 06:48:42.000,139.546,-46.088,816.916987
16 Jun 2022 06:49:42.000,155.529,-34.208,1123.025565
16 Jun 2022 06:50:42.000,162.256,-28.010,1493.311082
16 Jun 2022 06:51:37.390,165.628,-25.144,1858.322647
16 Jun 2022 18:14:28.353,18.834,-25.144,1858.170564
16 Jun 2022 18:15:28.000,23.854,-28.203,1476.095718
16 Jun 2022 18:16:28.000,33.138,-34.154,1125.237551
16 Jun 2022 18:17:28.000,53.343,-44.031,852.978329
16 Jun 2022 18:18:28.000,95.922,-50.596,752.154077
16 Jun 2022 18:19:28.000,135.424,-42.453,884.117377
16 Jun 2022 18:20:28.000,153.351,-33.057,1172.490807
16 Jun 2022 18:21:28.000,161.796,-27.613,1530.586601
16 Jun 2022 18:22:15.065,165.673,-25.279,1833.542555
16 Jun 2022 19:50:30.996,320.129,-25.147,1857.628833
16 Jun 2022 19:51:30.000,309.041,-27.110,1582.240943
16 Jun 2022 19:52:30.000,293.090,-29.354,1384.524734
16 Jun 2022 19:53:30.000,272.931,-30.487,1308.655959
16 Jun 2022 19:54:30.000,252.605,-29.483,1375.216391
16 Jun 2022 19:55:30.000,236.337,-27.264,1565.837621
16 Jun 2022 19:56:29.608,224.895,-25.245,1839.680029
17 Jun 2022 05:06:38.804,309.079,-25.237,1841.201733
17 Jun 2022 05:07:38.000,296.805,-26.907,1604.687435
17 Jun 2022 05:08:38.000,280.424,-28.413,1458.096702
17 Jun 2022 05:09:38.000,261.657,-28.694,1434.890005
17 Jun 2022 05:10:38.000,244.105,-27.509,1540.822316
17 Jun 2022 05:11:38.000,230.261,-25.774,1752.295693
17 Jun 2022 05:12:01.654,225.890,-25.149,1857.220549
17 Jun 2022 06:40:24.832,9.562,-25.281,1833.257100
17 Jun 2022 06:41:24.000,13.325,-28.583,1443.942975
17 Jun 2022 06:42:24.000,20.616,-35.393,1077.680614
17 Jun 2022 06:43:24.000,38.710,-48.242,783.796730
17 Jun 2022 06:44:24.000,91.533,-59.025,667.756874
17 Jun 2022 06:45:24.000,139.716,-46.498,810.272182
17 Jun 2022 06:46:24.000,155.781,-34.388,1115.831305
17 Jun 2022 06:47:24.000,162.474,-28.089,1486.168275
17 Jun 2022 06:48:20.434,165.862,-25.144,1858.329914
17 Jun 2022 18:11:11.454,19.073,-25.144,1858.161350
17 Jun 2022 18:12:11.000,24.151,-28.189,1477.342654
17 Jun 2022 18:13:11.000,33.532,-34.101,1127.411334
17 Jun 2022 18:14:11.000,53.823,-43.843,856.514254
17 Jun 2022 18:15:11.000,96.008,-50.224,756.874515
17 Jun 2022 18:16:11.000,135.094,-42.234,888.703341
17 Jun 2022 18:17:11.000,153.038,-32.973,1176.349296
17 Jun 2022 18:18:11.000,161.545,-27.580,1533.823865
17 Jun 2022 18:18:57.630,165.430,-25.279,1833.564368
17 Jun 2022 19:47:13.329,320.419,-25.147,1857.645281
17 Jun 2022 19:48:13.000,309.231,-27.150,1577.909922
17 Jun 2022 19:49:13.000,293.245,-29.427,1379.225314
17 Jun 2022 19:50:13.000,272.987,-30.585,1302.687522
17 Jun 2022 19:51:13.000,252.548,-29.568,1369.204594
17 Jun 2022 19:52:13.000,236.216,-27.318,1560.277969
17 Jun 2022 19:53:13.000,224.694,-25.261,1836.726420
17 Jun 2022 19:53:13.564,224.605,-25.245,1839.615005
18 Jun 2022 05:03:22.976,308.759,-25.236,1841.283392
18 Jun 2022 05:04:22.000,296.484,-26.884,1607.303593
18 Jun 2022 05:05:22.000,280.115,-28.357,1462.787532
18 Jun 2022 05:06:22.000,261.431,-28.613,1441.490096
18 Jun 2022 05:07:22.000,243.994,-27.431,1548.665153
18 Jun 2022 05:08:22.000,230.240,-25.720,1760.669690
18 Jun 2022 05:08:43.825,226.210,-25.150,1857.195584
18 Jun 2022 06:37:07.511,9.324,-25.281,1833.246557
18 Jun 2022 06:38:07.000,13.042,-28.614,1441.416900
18 Jun 2022 06:39:07.000,20.233,-35.477,1074.629060
18 Jun 2022 06:40:07.000,38.214,-48.501,780.099638
18 Jun 2022 06:41:07.000,91.775,-59.501,664.053963
18 Jun 2022 06:42:07.000,140.329,-46.654,807.788676
18 Jun 2022 06:43:07.000,156.195,-34.422,1114.466274
18 Jun 2022 06:44:07.000,162.770,-28.097,1485.491275
18 Jun 2022 06:45:03.475,166.096,-25.143,1858.337090
18 Jun 2022 18:07:54.557,19.312,-25.144,1858.152025
18 Jun 2022 18:08:54.000,24.447,-28.174,1478.615340
18 Jun 2022 18:09:54.000,33.924,-34.047,1129.619586
18 Jun 2022 18:10:54.000,54.296,-43.656,860.090887
18 Jun 2022 18:11:54.000,96.093,-49.856,761.632880
18 Jun 2022 18:12:54.000,134.769,-42.017,893.326891
18 Jun 2022 18:13:54.000,152.729,-32.889,1180.244162
18 Jun 2022 18:14:54.000,161.296,-27.547,1537.093863
18 Jun 2022 18:15:40.189,165.187,-25.279,1833.586367
18 Jun 2022 19:43:55.670,320.707,-25.147,1857.661519
18 Jun 2022 19:44:55.000,309.646,-27.152,1577.724631
18 Jun 2022 19:45:55.000,293.710,-29.467,1376.361258
18 Jun 2022 19:46:55.000,273.400,-30.681,1296.837892
18 Jun 2022 19:47:55.000,252.806,-29.687,1360.965958
18 Jun 2022 19:48:55.000,236.325,-27.411,1550.725488
18 Jun 2022 19:49:55.000,224.713,-25.318,1826.668285
18 Jun 2022 19:49:57.511,224.316,-25.246,1839.547170
19 Jun 2022 05:00:07.160,308.438,-25.236,1841.364928
19 Jun 2022 05:01:07.000,295.923,-26.889,1606.725311
19 Jun 2022 05:02:07.000,279.508,-28.318,1466.126966
19 Jun 2022 05:03:07.000,260.899,-28.523,1448.903072
19 Jun 2022 05:04:07.000,243.625,-27.327,1559.292022
19 Jun 2022 05:05:07.000,230.025,-25.639,1773.271831
19 Jun 2022 05:05:25.986,226.530,-25.150,1857.169571
19 Jun 2022 06:33:50.195,9.087,-25.281,1833.236379
19 Jun 2022 06:34:50.000,12.757,-28.644,1438.929765
19 Jun 2022 06:35:50.000,19.846,-35.561,1071.623495
19 Jun 2022 06:36:50.000,37.708,-48.760,776.455172
19 Jun 2022 06:37:50.000,92.025,-59.982,660.406358
19 Jun 2022 06:38:50.000,140.949,-46.808,805.354296
19 Jun 2022 06:39:50.000,156.610,-34.455,1113.136433
19 Jun 2022 06:40:50.000,163.067,-28.104,1484.838324
19 Jun 2022 06:41:46.513,166.330,-25.143,1858.343557
19 Jun 2022 18:04:37.664,19.552,-25.145,1858.142593
19 Jun 2022 18:05:37.000,24.742,-28.160,1479.913507
19 Jun 2022 18:06:37.000,34.315,-33.993,1131.861880
19 Jun 2022 18:07:37.000,54.762,-43.468,863.707477
19 Jun 2022 18:08:37.000,96.177,-49.494,766.428249
19 Jun 2022 18:09:37.000,134.451,-41.801,897.987317
19 Jun 2022 18:10:37.000,152.422,-32.804,1184.174985
19 Jun 2022 18:11:37.000,161.047,-27.513,1540.396367
19 Jun 2022 18:12:22.743,164.944,-25.279,1833.608544
19 Jun 2022 19:40:38.017,320.994,-25.147,1857.677558
19 Jun 2022 19:41:38.000,309.839,-27.192,1573.428715
19 Jun 2022 19:42:38.000,293.868,-29.541,1371.090436
19 Jun 2022 19:43:38.000,273.459,-30.781,1290.884350
19 Jun 2022 19:44:38.000,252.748,-29.774,1354.962254
19 Jun 2022 19:45:38.000,236.202,-27.466,1545.178160
19 Jun 2022 19:46:38.000,224.572,-25.346,1821.733164
19 Jun 2022 19:46:41.448,224.029,-25.246,1839.477010
20 Jun 2022 04:56:51.356,308.116,-25.235,1841.446331
20 Jun 2022 04:57:51.000,295.605,-26.865,1609.467451
20 Jun 2022 04:58:51.000,279.205,-28.262,1470.927490
20 Jun 2022 04:59:51.000,260.681,-28.443,1455.569554
20 Jun 2022 05:00:51.000,243.520,-27.252,1567.156296
20 Jun 2022 05:01:51.000,230.006,-25.586,1781.640989
20 Jun 2022 05:02:08.138,226.853,-25.150,1857.142948
20 Jun 2022 06:30:32.885,8.850,-25.281,1833.226573
20 Jun 2022 06:31:32.000,12.392,-28.595,1442.916866
20 Jun 2022 06:32:32.000,19.289,-35.484,1074.393466
20 Jun 2022 06:33:32.000,36.697,-48.741,776.721721
20 Jun 2022 06:34:32.000,91.055,-60.505,656.553100
20 Jun 2022 06:35:32.000,141.144,-47.231,798.811771
20 Jun 2022 06:36:32.000,156.874,-34.637,1106.006385
20 Jun 2022 06:37:32.000,163.290,-28.184,1477.739247
20 Jun 2022 06:38:29.548,166.564,-25.143,1858.349907
20 Jun 2022 18:01:20.774,19.792,-25.145,1858.133051
20 Jun 2022 18:02:20.000,25.037,-28.145,1481.236779
20 Jun 2022 18:03:20.000,34.703,-33.938,1134.137713
20 Jun 2022 18:04:20.000,55.223,-43.281,867.363269
20 Jun 2022 18:05:20.000,96.259,-49.136,771.259800
20 Jun 2022 18:06:20.000,134.139,-41.587,902.684065
20 Jun 2022 18:07:20.000,152.118,-32.720,1188.141523
20 Jun 2022 18:08:20.000,160.800,-27.480,1543.731335
20 Jun 2022 18:09:05.292,164.700,-25.279,1833.630907
20 Jun 2022 19:37:20.370,321.281,-25.147,1857.693388
20 Jun 2022 19:38:20.000,310.255,-27.193,1573.334330
20 Jun 2022 19:39:20.000,294.337,-29.581,1368.320249
20 Jun 2022 19:40:20.000,273.879,-30.878,1285.104640
20 Jun 2022 19:41:20.000,253.010,-29.895,1346.759232
20 Jun 2022 19:42:20.000,236.311,-27.561,1535.643052
20 Jun 2022 19:43:20.000,224.590,-25.405,1811.688785
20 Jun 2022 19:43:25.377,223.742,-25.246,1839.407335
21 Jun 2022 04:53:35.566,307.791,-25.235,1841.527590
21 Jun 2022 04:54:35.000,295.288,-26.840,1612.255661
21 Jun 2022 04:55:35.000,278.905,-28.207,1475.764876
21 Jun 2022 04:56:35.000,260.466,-28.363,1462.255415
21 Jun 2022 04:57:35.000,243.417,-27.177,1575.024354
21 Jun 2022 04:58:35.000,229.988,-25.535,1790.005964
21 Jun 2022 04:58:50.280,227.178,-25.150,1857.115739
21 Jun 2022 06:27:15.581,8.613,-25.281,1833.217132
21 Jun 2022 06:28:15.000,12.106,-28.625,1440.514354
21 Jun 2022 06:29:15.000,18.898,-35.565,1071.490133
21 Jun 2022 06:30:15.000,36.171,-48.995,773.193050
21 Jun 2022 06:31:15.000,91.297,-60.999,653.005994
21 Jun 2022 06:32:15.000,141.781,-47.385,796.455072
21 Jun 2022 06:33:15.000,157.293,-34.670,1104.733429
21 Jun 2022 06:34:15.000,163.589,-28.191,1477.126291
21 Jun 2022 06:35:12.581,166.797,-25.143,1858.359538
21 Jun 2022 17:58:03.887,20.032,-25.145,1858.123400
21 Jun 2022 17:59:03.000,25.331,-28.129,1482.584783
21 Jun 2022 18:00:03.000,35.090,-33.882,1136.446609
21 Jun 2022 18:01:03.000,55.678,-43.094,871.057573
21 Jun 2022 18:02:03.000,96.340,-48.784,776.126822
21 Jun 2022 18:03:03.000,133.832,-41.374,907.416700
21 Jun 2022 18:04:03.000,151.817,-32.636,1192.143637
21 Jun 2022 18:05:03.000,160.554,-27.447,1547.098814
21 Jun 2022 18:05:47.832,164.456,-25.279,1833.639492
21 Jun 2022 19:34:02.730,321.566,-25.147,1857.709014
21 Jun 2022 19:35:02.000,310.671,-27.193,1573.304722
21 Jun 2022 19:36:02.000,294.808,-29.619,1365.622190
21 Jun 2022 19:37:02.000,274.303,-30.976,1279.384737
21 Jun 2022 19:38:02.000,253.275,-30.018,1338.590469
21 Jun 2022 19:39:02.000,236.421,-27.659,1526.124272
21 Jun 2022 19:40:02.000,224.607,-25.464,1801.653891
21 Jun 2022 19:40:09.296,223.456,-25.247,1839.338144
22 Jun 2022 04:50:19.784,307.465,-25.234,1841.629752
22 Jun 2022 04:51:19.000,294.974,-26.816,1615.089464
22 Jun 2022 04:52:19.000,278.608,-28.151,1480.638593
22 Jun 2022 04:53:19.000,260.253,-28.285,1468.960307
22 Jun 2022 04:54:19.000,243.315,-27.104,1582.896149
22 Jun 2022 04:55:19.000,229.969,-25.484,1798.366894
22 Jun 2022 04:55:32.416,227.504,-25.150,1857.109341
22 Jun 2022 06:23:58.281,8.376,-25.281,1833.208058
22 Jun 2022 06:24:58.000,11.819,-28.654,1438.150416
22 Jun 2022 06:25:58.000,18.504,-35.646,1068.632958
22 Jun 2022 06:26:58.000,35.633,-49.250,769.718385
22 Jun 2022 06:27:58.000,91.548,-61.498,649.516586
22 Jun 2022 06:28:58.000,142.425,-47.538,794.149155
22 Jun 2022 06:29:58.000,157.714,-34.702,1103.496624
22 Jun 2022 06:30:58.000,163.888,-28.198,1476.538120
22 Jun 2022 06:31:55.613,167.031,-25.143,1858.373347
22 Jun 2022 17:54:47.003,20.273,-25.145,1858.113638
22 Jun 2022 17:55:47.000,25.743,-28.183,1477.835992
22 Jun 2022 17:56:47.000,35.704,-33.952,1133.537371
22 Jun 2022 17:57:47.000,56.628,-43.070,871.539356
22 Jun 2022 17:58:47.000,97.183,-48.408,781.418344
22 Jun 2022 17:59:47.000,133.963,-40.998,915.957389
22 Jun 2022 18:00:47.000,151.718,-32.438,1201.669591
22 Jun 2022 18:01:47.000,160.416,-27.352,1556.733467
22 Jun 2022 18:02:30.370,164.212,-25.278,1833.664529
22 Jun 2022 19:30:45.095,321.850,-25.147,1857.724435
22 Jun 2022 19:31:45.000,310.867,-27.233,1569.070623
22 Jun 2022 19:32:45.000,294.971,-29.695,1360.404016
22 Jun 2022 19:33:45.000,274.367,-31.079,1273.459425
22 Jun 2022 19:34:45.000,253.217,-30.110,1332.599143
22 Jun 2022 19:35:45.000,236.295,-27.716,1520.593136
22 Jun 2022 19:36:45.000,224.463,-25.494,1796.745013
22 Jun 2022 19:36:53.205,223.172,-25.247,1839.256455
23 Jun 2022 04:47:04.020,307.136,-25.234,1841.710540
23 Jun 2022 04:48:04.000,294.417,-26.818,1614.884673
23 Jun 2022 04:49:04.000,278.017,-28.110,1484.329620
23 Jun 2022 04:50:04.000,259.742,-28.197,1476.615915
23 Jun 2022 04:51:04.000,242.961,-27.006,1593.633601
23 Jun 2022 04:52:04.000,229.763,-25.409,1810.991546
23 Jun 2022 04:52:14.537,227.832,-25.150,1857.080902
23 Jun 2022 06:20:40.987,8.139,-25.281,1833.199347
23 Jun 2022 06:21:40.000,11.457,-28.603,1442.287765
23 Jun 2022 06:22:40.000,17.948,-35.562,1071.598700
23 Jun 2022 06:23:40.000,34.603,-49.212,770.231971
23 Jun 2022 06:24:40.000,90.496,-62.036,645.868632
23 Jun 2022 06:25:40.000,142.648,-47.972,787.716461
23 Jun 2022 06:26:40.000,157.990,-34.887,1096.435554
23 Jun 2022 06:27:40.000,164.117,-28.279,1469.486209
23 Jun 2022 06:28:38.639,167.264,-25.143,1858.371510
23 Jun 2022 17:51:30.122,20.513,-25.145,1858.103766
23 Jun 2022 17:52:30.000,26.038,-28.167,1479.245737
23 Jun 2022 17:53:30.000,36.089,-33.895,1135.931315
23 Jun 2022 17:54:30.000,57.070,-42.881,875.334068
23 Jun 2022 17:55:30.000,97.251,-48.065,786.363642
23 Jun 2022 17:56:30.000,133.666,-40.792,920.750201
23 Jun 2022 17:57:30.000,151.423,-32.355,1205.730457
23 Jun 2022 17:58:30.000,160.174,-27.319,1560.156996
23 Jun 2022 17:59:12.901,163.968,-25.278,1833.689528
23 Jun 2022 19:27:27.465,322.133,-25.147,1857.753016
23 Jun 2022 19:28:27.000,311.284,-27.233,1569.131340
23 Jun 2022 19:29:27.000,295.446,-29.733,1357.801103
23 Jun 2022 19:30:27.000,274.798,-31.178,1267.812015
23 Jun 2022 19:31:27.000,253.487,-30.236,1324.468176
23 Jun 2022 19:32:27.000,236.406,-27.817,1511.093482
23 Jun 2022 19:33:27.000,224.480,-25.555,1786.725682
23 Jun 2022 19:33:37.107,222.889,-25.248,1839.185950
24 Jun 2022 04:43:48.269,306.805,-25.233,1841.791140
24 Jun 2022 04:44:48.000,294.105,-26.792,1617.840585
24 Jun 2022 04:45:48.000,277.726,-28.054,1489.307436
24 Jun 2022 04:46:48.000,259.536,-28.120,1483.382462
24 Jun 2022 04:47:48.000,242.864,-26.935,1601.525031
24 Jun 2022 04:48:48.000,229.747,-25.360,1819.348037
24 Jun 2022 04:48:56.647,228.163,-25.150,1857.051969
24 Jun 2022 06:17:23.698,7.903,-25.281,1833.191003
24 Jun 2022 06:18:23.000,11.169,-28.631,1440.007409
24 Jun 2022 06:19:23.000,17.551,-35.640,1068.843791
24 Jun 2022 06:20:23.000,34.045,-49.460,766.876041
24 Jun 2022 06:21:23.000,90.737,-62.548,642.485589
24 Jun 2022 06:22:23.000,143.311,-48.125,785.492760
24 Jun 2022 06:23:23.000,158.416,-34.918,1095.258631
24 Jun 2022 06:24:23.000,164.418,-28.285,1468.940342
24 Jun 2022 06:25:21.665,167.497,-25.143,1858.388801
24 Jun 2022 17:48:13.244,20.754,-25.145,1858.093779
24 Jun 2022 17:49:13.000,26.332,-28.151,1480.679727
24 Jun 2022 17:50:13.000,36.472,-33.837,1138.357566
24 Jun 2022 17:51:13.000,57.506,-42.693,879.165805
24 Jun 2022 17:52:13.000,97.319,-47.726,791.342733
24 Jun 2022 17:53:13.000,133.375,-40.587,925.577869
24 Jun 2022 17:54:13.000,151.132,-32.273,1209.826491
24 Jun 2022 17:55:13.000,159.933,-27.285,1563.613061
24 Jun 2022 17:55:55.426,163.723,-25.278,1833.706262
24 Jun 2022 19:24:09.842,322.415,-25.147,1857.768566
24 Jun 2022 19:25:09.000,311.701,-27.232,1569.256024
24 Jun 2022 19:26:09.000,295.923,-29.770,1355.270653
24 Jun 2022 19:27:09.000,275.233,-31.278,1262.225759
24 Jun 2022 19:28:09.000,253.760,-30.364,1316.372574
24 Jun 2022 19:29:09.000,236.519,-27.919,1501.610791
24 Jun 2022 19:30:09.000,224.496,-25.617,1776.716383
24 Jun 2022 19:30:21.000,222.606,-25.248,1839.115721
25 Jun 2022 04:40:32.532,306.472,-25.233,1841.871539
25 Jun 2022 04:41:32.000,293.795,-26.766,1620.840295
25 Jun 2022 04:42:32.000,277.437,-27.998,1494.319337
25 Jun 2022 04:43:32.000,259.333,-28.044,1490.166188
25 Jun 2022 04:44:32.000,242.768,-26.865,1609.419251
25 Jun 2022 04:45:32.000,229.731,-25.312,1827.700168
25 Jun 2022 04:45:38.746,228.496,-25.150,1857.022578
25 Jun 2022 06:14:06.414,7.667,-25.281,1833.183023
25 Jun 2022 06:15:06.000,10.880,-28.659,1437.765575
25 Jun 2022 06:16:06.000,17.150,-35.716,1066.135565
25 Jun 2022 06:17:06.000,33.475,-49.709,763.575942
25 Jun 2022 06:18:06.000,90.987,-63.066,639.163178
25 Jun 2022 06:19:06.000,143.981,-48.275,783.321847
25 Jun 2022 06:20:06.000,158.843,-34.948,1094.119006
25 Jun 2022 06:21:06.000,164.718,-28.291,1468.420093
25 Jun 2022 06:22:04.687,167.730,-25.143,1858.393883
25 Jun 2022 17:44:56.369,20.996,-25.145,1858.083680
25 Jun 2022 17:45:56.000,26.625,-28.134,1482.137945
25 Jun 2022 17:46:56.000,36.853,-33.779,1140.816001
25 Jun 2022 17:47:56.000,57.936,-42.505,883.034214
25 Jun 2022 17:48:56.000,97.386,-47.392,796.355150
25 Jun 2022 17:49:56.000,133.089,-40.383,930.440011
25 Jun 2022 17:50:56.000,150.843,-32.190,1213.957474
25 Jun 2022 17:51:56.000,159.694,-27.252,1567.101565
25 Jun 2022 17:52:37.946,163.478,-25.278,1833.734369
25 Jun 2022 19:20:52.226,322.696,-25.146,1857.783905
25 Jun 2022 19:21:52.000,311.900,-27.271,1565.082849
25 Jun 2022 19:22:52.000,296.093,-29.846,1350.105553
25 Jun 2022 19:23:52.000,275.302,-31.384,1256.329564
25 Jun 2022 19:24:52.000,253.702,-30.459,1310.394272
25 Jun 2022 19:25:52.000,236.390,-27.979,1496.096912
25 Jun 2022 19:26:52.000,224.349,-25.648,1771.835421
25 Jun 2022 19:27:04.885,222.325,-25.248,1839.045769
26 Jun 2022 04:37:16.805,306.137,-25.232,1841.964376
26 Jun 2022 04:38:16.000,293.487,-26.740,1623.883240
26 Jun 2022 04:39:16.000,277.152,-27.943,1499.364628
26 Jun 2022 04:40:16.000,259.133,-27.969,1496.966503
26 Jun 2022 04:41:16.000,242.674,-26.797,1617.315886
26 Jun 2022 04:42:16.000,229.715,-25.265,1836.047705
26 Jun 2022 04:42:20.835,228.831,-25.151,1856.992771
26 Jun 2022 06:10:49.136,7.430,-25.281,1833.175408
26 Jun 2022 06:11:49.000,10.590,-28.686,1435.562440
26 Jun 2022 06:12:49.000,16.747,-35.792,1063.474386
26 Jun 2022 06:13:49.000,32.894,-49.956,760.332428
26 Jun 2022 06:14:49.000,91.247,-63.590,635.902407
26 Jun 2022 06:15:49.000,144.657,-48.423,781.204223
26 Jun 2022 06:16:49.000,159.271,-34.977,1093.016853
26 Jun 2022 06:17:49.000,165.019,-28.297,1467.925543
26 Jun 2022 06:18:47.708,167.963,-25.143,1858.412225
26 Jun 2022 17:41:39.497,21.237,-25.145,1858.073464
26 Jun 2022 17:42:39.000,26.918,-28.118,1483.620443
26 Jun 2022 17:43:39.000,37.232,-33.720,1143.306556
26 Jun 2022 17:44:39.000,58.360,-42.318,886.938978
26 Jun 2022 17:45:39.000,97.453,-47.062,801.400425
26 Jun 2022 17:46:39.000,132.808,-40.181,935.336205
26 Jun 2022 17:47:39.000,150.556,-32.107,1218.123122
26 Jun 2022 17:48:39.000,159.456,-27.219,1570.622333
26 Jun 2022 17:49:20.458,163.233,-25.278,1833.750458
26 Jun 2022 19:17:34.615,322.976,-25.146,1857.799037
26 Jun 2022 19:18:34.000,312.317,-27.269,1565.296819
26 Jun 2022 19:19:34.000,296.573,-29.882,1347.670697
26 Jun 2022 19:20:34.000,275.743,-31.485,1250.817259
26 Jun 2022 19:21:34.000,253.979,-30.590,1302.337292
26 Jun 2022 19:22:34.000,236.502,-28.084,1486.633622
26 Jun 2022 19:23:34.000,224.364,-25.712,1761.842023
26 Jun 2022 19:23:48.761,222.044,-25.249,1838.976078
27 Jun 2022 04:34:01.095,305.800,-25.232,1842.048605
27 Jun 2022 04:35:01.000,292.935,-26.739,1624.042351
27 Jun 2022 04:36:01.000,276.575,-27.899,1503.390755
27 Jun 2022 04:37:01.000,258.641,-27.884,1504.847931
27 Jun 2022 04:38:01.000,242.335,-26.704,1628.153865
27 Jun 2022 04:39:01.000,229.517,-25.195,1848.690935
27 Jun 2022 04:39:02.913,229.167,-25.151,1856.968911
27 Jun 2022 06:07:31.863,7.195,-25.281,1833.168156
27 Jun 2022 06:08:31.000,10.231,-28.632,1439.893204
27 Jun 2022 06:09:31.000,16.194,-35.701,1066.691459
27 Jun 2022 06:10:31.000,31.840,-49.892,761.163228
27 Jun 2022 06:11:31.000,90.076,-64.149,632.522704
27 Jun 2022 06:12:31.000,144.924,-48.870,774.923483
27 Jun 2022 06:13:31.000,159.563,-35.164,1086.055041
27 Jun 2022 06:14:31.000,165.256,-28.379,1460.942768
27 Jun 2022 06:15:30.726,168.196,-25.143,1858.424931
27 Jun 2022 17:38:22.629,21.479,-25.145,1858.063133
27 Jun 2022 17:39:22.000,27.211,-28.101,1485.127322
27 Jun 2022 17:40:22.000,37.610,-33.661,1145.829205
27 Jun 2022 17:41:22.000,58.779,-42.131,890.879799
27 Jun 2022 17:42:22.000,97.519,-46.737,806.478078
27 Jun 2022 17:43:22.000,132.532,-39.981,940.265982
27 Jun 2022 17:44:22.000,150.273,-32.025,1222.323089
27 Jun 2022 17:45:22.000,159.219,-27.185,1574.175126
27 Jun 2022 17:46:02.965,162.987,-25.278,1833.766581
27 Jun 2022 19:14:17.010,323.255,-25.146,1857.813964
27 Jun 2022 19:15:17.000,312.518,-27.309,1561.158639
27 Jun 2022 19:16:17.000,296.746,-29.959,1342.535982
27 Jun 2022 19:17:17.000,275.815,-31.593,1244.938168
27 Jun 2022 19:18:17.000,253.922,-30.689,1296.368828
27 Jun 2022 19:19:17.000,236.371,-28.146,1481.134415
27 Jun 2022 19:20:17.000,224.214,-25.744,1756.983193
27 Jun 2022 19:20:32.629,221.765,-25.249,1838.906657
28 Jun 2022 04:30:45.396,305.461,-25.231,1842.143922
28 Jun 2022 04:31:45.000,292.630,-26.712,1627.202593
28 Jun 2022 04:32:45.000,276.296,-27.844,1508.533186
28 Jun 2022 04:33:45.000,258.447,-27.810,1511.703398
28 Jun 2022 04:34:45.000,242.245,-26.638,1636.066042
28 Jun 2022 04:35:44.979,229.507,-25.151,1856.939127
28 Jun 2022 06:04:14.594,6.959,-25.281,1833.161264
28 Jun 2022 06:05:14.000,9.940,-28.658,1437.774245
28 Jun 2022 06:06:14.000,15.787,-35.773,1064.134400
28 Jun 2022 06:07:14.000,31.239,-50.133,758.043708
28 Jun 2022 06:08:14.000,90.324,-64.685,629.376674
28 Jun 2022 06:09:14.000,145.621,-49.017,772.893480
28 Jun 2022 06:10:14.000,159.996,-35.192,1085.015454
28 Jun 2022 06:11:14.000,165.559,-28.384,1460.492042
28 Jun 2022 06:12:13.735,168.428,-25.143,1858.400489
28 Jun 2022 17:35:05.763,21.722,-25.145,1858.052683
28 Jun 2022 17:36:05.000,27.503,-28.084,1486.658705
28 Jun 2022 17:37:05.000,37.985,-33.601,1148.383931
28 Jun 2022 17:38:05.000,59.192,-41.945,894.856371
28 Jun 2022 17:39:05.000,97.584,-46.416,811.587600
28 Jun 2022 17:40:05.000,132.261,-39.783,945.228826
28 Jun 2022 17:41:05.000,149.992,-31.942,1226.556973
28 Jun 2022 17:42:05.000,158.984,-27.152,1577.759641
28 Jun 2022 17:42:45.466,162.741,-25.278,1833.789087
28 Jun 2022 19:10:59.410,323.533,-25.146,1857.828688
28 Jun 2022 19:11:59.000,312.937,-27.306,1561.461841
28 Jun 2022 19:12:59.000,297.231,-29.994,1340.197383
28 Jun 2022 19:13:59.000,276.264,-31.695,1239.500793
28 Jun 2022 19:14:59.000,254.203,-30.823,1288.350785
28 Jun 2022 19:15:59.000,236.484,-28.254,1471.690352
28 Jun 2022 19:16:59.000,224.228,-25.810,1747.005469
28 Jun 2022 19:17:16.491,221.486,-25.250,1838.852250
29 Jun 2022 04:27:29.714,305.120,-25.231,1842.231240
29 Jun 2022 04:28:29.000,292.327,-26.685,1630.404559
29 Jun 2022 04:29:29.000,276.019,-27.789,1513.706893
29 Jun 2022 04:30:29.000,258.256,-27.738,1518.573525
29 Jun 2022 04:31:29.000,242.156,-26.572,1643.979339
29 Jun 2022 04:32:27.032,229.848,-25.151,1856.908749
29 Jun 2022 06:00:57.331,6.723,-25.281,1833.154735
29 Jun 2022 06:01:57.000,9.648,-28.684,1435.694708
29 Jun 2022 06:02:57.000,15.377,-35.845,1061.625566
29 Jun 2022 06:03:57.000,30.626,-50.372,754.983012
29 Jun 2022 06:04:57.000,90.582,-65.227,626.295189
29 Jun 2022 06:05:57.000,146.324,-49.161,770.918176
29 Jun 2022 06:06:57.000,160.429,-35.219,1084.013671
29 Jun 2022 06:07:57.000,165.862,-28.389,1460.066970
29 Jun 2022 06:08:56.748,168.660,-25.143,1858.412124
29 Jun 2022 17:31:48.901,21.964,-25.145,1858.042114
29 Jun 2022 17:32:48.000,27.795,-28.066,1488.214715
29 Jun 2022 17:33:48.000,38.359,-33.541,1150.970705
29 Jun 2022 17:34:48.000,59.600,-41.760,898.868365
29 Jun 2022 17:35:48.000,97.648,-46.100,816.728451
29 Jun 2022 17:36:48.000,131.996,-39.586,950.224181
29 Jun 2022 17:37:48.000,149.714,-31.860,1230.824326
29 Jun 2022 17:38:48.000,158.750,-27.118,1581.375536
29 Jun 2022 17:39:27.962,162.494,-25.278,1833.812664
29 Jun 2022 19:07:41.816,323.810,-25.146,1857.843213
29 Jun 2022 19:08:41.000,313.354,-27.303,1561.828508
29 Jun 2022 19:09:41.000,297.718,-30.028,1337.932220
29 Jun 2022 19:10:41.000,276.718,-31.797,1234.126762
29 Jun 2022 19:11:41.000,254.489,-30.959,1280.369417
29 Jun 2022 19:12:41.000,236.599,-28.363,1462.263411
29 Jun 2022 19:13:41.000,224.243,-25.877,1737.037596
29 Jun 2022 19:14:00.343,221.208,-25.250,1838.781930
30 Jun 2022 04:24:14.046,304.776,-25.230,1842.319038
30 Jun 2022 04:25:14.000,291.780,-26.681,1630.845544
30 Jun 2022 04:26:14.000,275.454,-27.744,1517.990040
30 Jun 2022 04:27:14.000,257.779,-27.654,1526.627163
30 Jun 2022 04:28:14.000,241.829,-26.484,1654.894489
30 Jun 2022 04:29:09.074,230.192,-25.151,1856.877784
30 Jun 2022 05:57:40.074,6.488,-25.281,1833.148571
30 Jun 2022 05:58:40.000,9.355,-28.710,1433.654917
30 Jun 2022 05:59:40.000,14.965,-35.917,1059.165430
30 Jun 2022 06:00:40.000,30.002,-50.610,751.981929
30 Jun 2022 06:01:40.000,90.851,-65.773,623.279157
30 Jun 2022 06:02:40.000,147.035,-49.303,768.997844
30 Jun 2022 06:03:40.000,160.864,-35.245,1083.049618
30 Jun 2022 06:04:40.000,166.165,-28.394,1459.667384
30 Jun 2022 06:05:39.758,168.893,-25.143,1858.429593
30 Jun 2022 17:28:32.042,22.207,-25.145,1858.031425
30 Jun 2022 17:29:32.000,28.214,-28.116,1483.792645
30 Jun 2022 17:30:32.000,38.974,-33.598,1148.524786
30 Jun 2022 17:31:32.000,60.501,-41.713,899.912861
30 Jun 2022 17:32:32.000,98.400,-45.756,822.424510
30 Jun 2022 17:33:32.000,132.146,-39.248,958.981327
30 Jun 2022 17:34:32.000,149.641,-31.675,1240.534210
30 Jun 2022 17:35:32.000,158.628,-27.028,1591.190897
30 Jun 2022 17:36:10.452,162.248,-25.278,1833.836283
30 Jun 2022 19:04:24.227,324.086,-25.146,1857.857540
30 Jun 2022 19:05:24.000,313.558,-27.342,1557.752079
30 Jun 2022 19:06:24.000,297.896,-30.106,1332.852556
30 Jun 2022 19:07:24.000,276.795,-31.909,1228.278207
30 Jun 2022 19:08:24.000,254.431,-31.063,1274.413610
30 Jun 2022 19:09:24.000,236.464,-28.428,1456.780784
30 Jun 2022 19:10:24.000,224.089,-25.910,1732.206385
30 Jun 2022 19:10:44.188,220.931,-25.250,1838.721953
1 Jul 2022 04:20:58.394,304.429,-25.230,1842.407322
1 Jul 2022 04:21:58.000,291.480,-26.654,1634.162012
1 Jul 2022 04:22:58.000,275.184,-27.689,1523.256322
1 Jul 2022 04:23:58.000,257.594,-27.583,1533.548019
1 Jul 2022 04:24:58.000,241.744,-26.421,1662.820393
1 Jul 2022 04:25:51.103,230.539,-25.151,1856.846254
1 Jul 2022 05:54:22.821,6.253,-25.281,1833.142765
1 Jul 2022 05:55:22.000,8.999,-28.653,1438.179967
1 Jul 2022 05:56:22.000,14.416,-35.816,1062.636092
1 Jul 2022 05:57:22.000,28.928,-50.517,753.139137
1 Jul 2022 05:58:22.000,89.533,-66.352,620.187073
1 Jul 2022 05:59:22.000,147.350,-49.761,762.881594
1 Jul 2022 06:00:22.000,161.173,-35.434,1076.192770
1 Jul 2022 06:01:22.000,166.409,-28.476,1452.756234
1 Jul 2022 06:02:22.000,169.099,-25.171,1853.253990
1 Jul 2022 06:02:22.766,169.125,-25.143,1858.449919
1 Jul 2022 17:25:15.187,22.451,-25.145,1858.020615
1 Jul 2022 17:26:15.000,28.506,-28.097,1485.412325
1 Jul 2022 17:27:15.000,39.346,-33.536,1151.196491
1 Jul 2022 17:28:15.000,60.896,-41.526,904.019408
1 Jul 2022 17:29:15.000,98.455,-45.448,827.634544
1 Jul 2022 17:30:15.000,131.888,-39.056,964.029610
1 Jul 2022 17:31:15.000,149.369,-31.595,1244.854863
1 Jul 2022 17:32:15.000,158.397,-26.995,1594.858961
1 Jul 2022 17:32:52.936,162.000,-25.277,1833.860179
1 Jul 2022 19:01:06.643,324.362,-25.146,1857.871672
1 Jul 2022 19:02:06.000,313.977,-27.338,1558.208714
1 Jul 2022 19:03:06.000,298.387,-30.139,1330.685639
1 Jul 2022 19:04:06.000,277.256,-32.012,1222.981774
1 Jul 2022 19:05:06.000,254.722,-31.202,1266.472570
1 Jul 2022 19:06:06.000,236.579,-28.541,1447.373254
1 Jul 2022 19:07:06.000,224.102,-25.979,1722.253995
1 Jul 2022 19:07:28.025,220.654,-25.251,1838.662000
2 Jul 2022 04:17:42.756,304.080,-25.229,1842.499542
2 Jul 2022 04:18:42.000,291.182,-26.626,1637.519128
2 Jul 2022 04:19:42.000,274.916,-27.634,1528.552270
2 Jul 2022 04:20:42.000,257.412,-27.513,1540.482118
2 Jul 2022 04:21:42.000,241.660,-26.359,1670.746546
2 Jul 2022 04:22:33.119,230.888,-25.152,1856.814175
2 Jul 2022 05:51:05.574,6.017,-25.281,1833.137318
2 Jul 2022 05:52:05.000,8.706,-28.678,1436.226028
2 Jul 2022 05:53:05.000,14.001,-35.884,1060.282655
2 Jul 2022 05:54:05.000,28.284,-50.747,750.267390
2 Jul 2022 05:55:05.000,89.784,-66.912,617.293544
2 Jul 2022 05:56:05.000,148.081,-49.901,761.052803
2 Jul 2022 05:57:05.000,161.612,-35.459,1075.292186
2 Jul 2022 05:58:05.000,166.713,-28.480,1452.400180
2 Jul 2022 05:59:05.000,169.331,-25.171,1853.232516
2 Jul 2022 05:59:05.770,169.356,-25.143,1858.455669
2 Jul 2022 17:21:58.335,22.694,-25.145,1858.009683
2 Jul 2022 17:22:58.000,28.797,-28.079,1487.056878
2 Jul 2022 17:23:58.000,39.715,-33.474,1153.899985
2 Jul 2022 17:24:58.000,61.287,-41.341,908.160071
2 Jul 2022 17:25:58.000,98.509,-45.144,832.874028
2 Jul 2022 17:26:58.000,131.635,-38.867,969.108644
2 Jul 2022 17:27:58.000,149.099,-31.514,1249.207539
2 Jul 2022 17:28:58.000,158.168,-26.961,1598.557274
2 Jul 2022 17:29:35.414,161.753,-25.277,1833.884488
2 Jul 2022 18:57:49.065,324.637,-25.146,1857.885609
2 Jul 2022 18:58:49.000,314.183,-27.377,1554.169344
2 Jul 2022 18:59:49.000,298.569,-30.218,1325.639007
2 Jul 2022 19:00:49.000,277.337,-32.126,1217.152348
2 Jul 2022 19:01:49.000,254.664,-31.308,1260.527201
2 Jul 2022 19:02:49.000,236.442,-28.608,1441.905401
2 Jul 2022 19:03:49.000,223.946,-26.013,1717.444943
2 Jul 2022 19:04:11.854,220.379,-25.251,1838.601860
3 Jul 2022 04:14:27.134,303.729,-25.229,1842.592693
3 Jul 2022 04:15:27.000,290.639,-26.620,1638.238064
3 Jul 2022 04:16:27.000,274.362,-27.587,1533.084099
3 Jul 2022 04:17:27.000,256.949,-27.431,1548.699044
3 Jul 2022 04:18:27.000,241.344,-26.275,1681.732969
3 Jul 2022 04:19:15.123,231.239,-25.152,1856.781568
3 Jul 2022 05:47:48.332,5.783,-25.281,1833.132231
3 Jul 2022 05:48:48.000,8.411,-28.701,1434.312510
3 Jul 2022 05:49:48.000,13.583,-35.951,1057.978954
3 Jul 2022 05:50:48.000,27.629,-50.974,747.457231
3 Jul 2022 05:51:48.000,90.047,-67.477,614.468047
3 Jul 2022 05:52:48.000,148.820,-50.037,759.280004
3 Jul 2022 05:53:48.000,162.052,-35.483,1074.429330
3 Jul 2022 05:54:48.000,167.018,-28.484,1452.069286
3 Jul 2022 05:55:48.000,169.564,-25.171,1853.228214
3 Jul 2022 05:55:48.771,169.588,-25.143,1858.461330
3 Jul 2022 17:18:41.486,22.938,-25.145,1857.998630
3 Jul 2022 17:19:41.000,29.087,-28.060,1488.726217
3 Jul 2022 17:20:41.000,40.082,-33.412,1156.635014
3 Jul 2022 17:21:41.000,61.672,-41.156,912.334318
3 Jul 2022 17:22:41.000,98.563,-44.845,838.142309
3 Jul 2022 17:23:41.000,131.386,-38.679,974.217836
3 Jul 2022 17:24:41.000,148.832,-31.434,1253.591796
3 Jul 2022 17:25:41.000,157.940,-26.928,1602.285528
3 Jul 2022 17:26:17.886,161.505,-25.277,1833.909210
3 Jul 2022 18:54:31.493,324.910,-25.146,1857.899353
3 Jul 2022 18:55:31.000,314.602,-27.372,1554.716813
3 Jul 2022 18:56:31.000,299.064,-30.250,1323.572052
3 Jul 2022 18:57:31.000,277.805,-32.230,1211.935668
3 Jul 2022 18:58:31.000,254.960,-31.451,1252.627847
3 Jul 2022 18:59:31.000,236.558,-28.724,1432.517894
3 Jul 2022 19:00:31.000,223.957,-26.084,1707.508396
3 Jul 2022 19:00:55.676,220.104,-25.251,1838.541300
4 Jul 2022 04:11:11.528,303.375,-25.228,1842.686647
4 Jul 2022 04:12:11.000,290.345,-26.591,1641.707538
4 Jul 2022 04:13:11.000,274.101,-27.533,1538.469026
4 Jul 2022 04:14:11.000,256.773,-27.362,1555.680645
4 Jul 2022 04:15:11.000,241.264,-26.215,1689.669971
4 Jul 2022 04:15:57.113,231.594,-25.152,1856.748465
4 Jul 2022 05:44:31.095,5.548,-25.281,1833.127503
4 Jul 2022 05:45:31.000,8.116,-28.725,1432.439566
4 Jul 2022 05:46:31.000,13.163,-36.017,1055.725285
4 Jul 2022 05:47:31.000,26.961,-51.199,744.709285
4 Jul 2022 05:48:31.000,90.324,-68.047,611.711398
4 Jul 2022 05:49:31.000,149.565,-50.170,757.563458
4 Jul 2022 05:50:31.000,162.493,-35.506,1073.604179
4 Jul 2022 05:51:31.000,167.323,-28.488,1451.763473
4 Jul 2022 05:52:31.000,169.796,-25.171,1853.240997
4 Jul 2022 05:52:31.769,169.820,-25.143,1858.466900
4 Jul 2022 17:15:24.640,23.183,-25.145,1857.987454
4 Jul 2022 17:16:24.000,29.377,-28.042,1490.420174
4 Jul 2022 17:17:24.000,40.447,-33.349,1159.401258
4 Jul 2022 17:18:24.000,62.053,-40.973,916.541575
4 Jul 2022 17:19:24.000,98.616,-44.549,843.438733
4 Jul 2022 17:20:24.000,131.141,-38.493,979.356625
4 Jul 2022 17:21:24.000,148.568,-31.354,1258.007242
4 Jul 2022 17:22:24.000,157.713,-26.895,1606.043471
4 Jul 2022 17:23:00.352,161.257,-25.277,1833.934346
4 Jul 2022 18:51:13.925,325.183,-25.146,1857.912906
4 Jul 2022 18:52:13.000,315.020,-27.366,1555.328251
4 Jul 2022 18:53:13.000,299.560,-30.281,1321.580641
4 Jul 2022 18:54:13.000,278.278,-32.334,1206.785880
4 Jul 2022 18:55:13.000,255.259,-31.596,1244.767741
4 Jul 2022 18:56:13.000,236.675,-28.842,1423.148599
4 Jul 2022 18:57:13.000,223.969,-26.156,1697.582190
4 Jul 2022 18:57:39.489,219.831,-25.252,1838.480074
5 Jul 2022 04:07:55.939,303.018,-25.228,1842.781422
5 Jul 2022 04:08:55.000,290.053,-26.562,1645.216765
5 Jul 2022 04:09:55.000,273.842,-27.479,1543.882399
5 Jul 2022 04:10:55.000,256.600,-27.294,1562.674626
5 Jul 2022 04:11:55.000,241.186,-26.156,1697.606960
5 Jul 2022 04:12:39.089,231.951,-25.152,1856.714895
5 Jul 2022 05:41:13.864,5.313,-25.282,1833.123131
5 Jul 2022 05:42:13.000,7.764,-28.666,1437.159462
5 Jul 2022 05:43:13.000,12.619,-35.908,1059.450870
5 Jul 2022 05:44:13.000,25.874,-51.077,746.200158
5 Jul 2022 05:45:13.000,88.817,-68.643,608.924897
5 Jul 2022 05:46:13.000,149.934,-50.638,751.623018
5 Jul 2022 05:47:13.000,162.819,-35.696,1066.856655
5 Jul 2022 05:48:13.000,167.574,-28.571,1444.925174
5 Jul 2022 05:49:13.000,169.998,-25.208,1846.473674
5 Jul 2022 05:49:14.765,170.051,-25.143,1858.472381
5 Jul 2022 17:12:07.798,23.428,-25.145,1857.976156
5 Jul 2022 17:13:07.000,29.667,-28.023,1492.138515
5 Jul 2022 17:14:07.000,40.811,-33.286,1162.198336
5 Jul 2022 17:15:07.000,62.428,-40.790,920.781241
5 Jul 2022 17:16:07.000,98.670,-44.258,848.762665
5 Jul 2022 17:17:07.000,130.900,-38.309,984.524501
5 Jul 2022 17:18:07.000,148.306,-31.274,1262.453552
5 Jul 2022 17:19:07.000,157.488,-26.862,1609.830926
5 Jul 2022 17:19:42.812,161.008,-25.277,1833.960413
5 Jul 2022 18:47:56.363,325.455,-25.146,1857.926269
5 Jul 2022 18:48:56.000,315.229,-27.404,1551.354581
5 Jul 2022 18:49:56.000,299.748,-30.360,1316.594630
5 Jul 2022 18:50:56.000,278.365,-32.452,1200.992224
5 Jul 2022 18:51:56.000,255.202,-31.707,1238.837943
5 Jul 2022 18:52:56.000,236.534,-28.912,1417.699190
5 Jul 2022 18:53:56.000,223.809,-26.192,1692.802372
5 Jul 2022 18:54:23.290,219.558,-25.252,1838.391757
6 Jul 2022 04:04:40.366,302.658,-25.227,1842.877038
6 Jul 2022 04:05:40.000,289.515,-26.554,1646.210046
6 Jul 2022 04:06:40.000,273.300,-27.431,1548.655613
6 Jul 2022 04:07:40.000,256.151,-27.215,1571.047640
6 Jul 2022 04:08:40.000,240.879,-26.076,1708.660669
6 Jul 2022 04:09:21.051,232.310,-25.152,1856.680896
6 Jul 2022 05:37:56.637,5.079,-25.282,1833.119119
6 Jul 2022 05:38:56.000,7.468,-28.688,1435.372736
6 Jul 2022 05:39:56.000,12.197,-35.971,1057.305060
6 Jul 2022 05:40:56.000,25.188,-51.292,743.585459
6 Jul 2022 05:41:56.000,89.068,-69.226,606.297905
6 Jul 2022 05:42:56.000,150.701,-50.768,750.002055
6 Jul 2022 05:43:56.000,163.264,-35.718,1066.096368
6 Jul 2022 05:44:56.000,167.881,-28.574,1444.663283
6 Jul 2022 05:45:56.000,170.231,-25.207,1846.516608
