data/Partner_Institute/Skyhopper_Partner-Creswick_AER_1year.csv

"Time (UTCG)","Azimuth (deg)","Elevation (deg)","Range (km)"
1 Jun 2022 09:52:45.671,349.545,-25.168,1820.036193
1 Jun 2022 09:53:45.000,345.234,-28.483,1432.140398
1 Jun 2022 09:54:45.000,336.922,-35.222,1071.096368
1 Jun 2022 09:55:45.000,316.848,-47.361,788.137275
1 Jun 2022 09:56:45.000,265.941,-55.703,689.015786
1 Jun 2022 09:57:45.000,222.673,-44.136,841.614214
1 Jun 2022 09:58:45.000,206.687,-33.261,1149.146730
1 Jun 2022 09:59:45.000,199.672,-27.500,1519.351064
1 Jun 2022 10:00:34.503,196.400,-25.032,1844.743663
1 Jun 2022 21:31:20.125,345.704,-25.031,1844.837819
1 Jun 2022 21:32:20.000,342.169,-28.282,1448.763706
1 Jun 2022 21:33:20.000,335.347,-35.013,1078.723870
1 Jun 2022 21:34:20.000,318.222,-48.060,777.881118
1 Jun 2022 21:35:20.000,264.810,-60.079,652.692395
1 Jun 2022 21:36:20.000,214.069,-47.098,792.114715
1 Jun 2022 21:37:20.000,197.987,-34.465,1099.467541
1 Jun 2022 21:38:20.000,191.437,-28.007,1472.382772
1 Jun 2022 21:39:12.431,188.321,-25.169,1819.952069
2 Jun 2022 09:49:28.294,349.856,-25.168,1820.023348
2 Jun 2022 09:50:28.000,345.604,-28.521,1429.061102
2 Jun 2022 09:51:28.000,337.419,-35.330,1067.201846
2 Jun 2022 09:52:28.000,317.451,-47.695,783.189238
2 Jun 2022 09:53:28.000,265.670,-56.270,683.806764
2 Jun 2022 09:54:28.000,221.984,-44.347,837.770579
2 Jun 2022 09:55:28.000,206.190,-33.318,1146.669985
2 Jun 2022 09:56:28.000,199.306,-27.516,1517.755881
2 Jun 2022 09:57:17.671,196.093,-25.032,1844.757640
2 Jun 2022 21:28:03.261,345.399,-25.031,1844.825302
2 Jun 2022 21:29:03.000,341.782,-28.265,1450.197070
2 Jun 2022 21:30:03.000,334.805,-34.951,1081.006302
2 Jun 2022 21:31:03.000,317.431,-47.810,781.494512
2 Jun 2022 21:32:03.000,264.753,-59.440,657.478885
2 Jun 2022 21:33:03.000,214.761,-46.817,796.420340
2 Jun 2022 21:34:03.000,198.486,-34.380,1102.801102
2 Jun 2022 21:35:03.000,191.802,-27.978,1475.021728
2 Jun 2022 21:35:55.102,188.630,-25.169,1819.963061
3 Jun 2022 09:46:10.925,350.166,-25.168,1820.011013
3 Jun 2022 09:47:10.000,346.068,-28.479,1432.418150
3 Jun 2022 09:48:10.000,338.114,-35.280,1068.986220
3 Jun 2022 09:49:10.000,318.606,-47.780,781.936577
3 Jun 2022 09:50:10.000,266.456,-56.905,678.166559
3 Jun 2022 09:51:10.000,221.703,-44.795,829.780842
3 Jun 2022 09:52:10.000,205.850,-33.509,1138.417806
3 Jun 2022 09:53:10.000,199.019,-27.600,1509.744193
3 Jun 2022 09:54:00.833,195.787,-25.032,1844.771392
3 Jun 2022 21:24:46.402,345.094,-25.031,1844.812552
3 Jun 2022 21:25:46.000,341.396,-28.247,1451.677604
3 Jun 2022 21:26:46.000,334.266,-34.888,1083.353310
3 Jun 2022 21:27:46.000,316.655,-47.559,785.192513
3 Jun 2022 21:28:46.000,264.697,-58.810,662.356818
3 Jun 2022 21:29:46.000,215.437,-46.536,800.811599
3 Jun 2022 21:30:46.000,198.980,-34.293,1106.206325
3 Jun 2022 21:31:46.000,192.165,-27.947,1477.719094
3 Jun 2022 21:32:37.765,188.940,-25.168,1819.973992
4 Jun 2022 09:42:53.564,350.477,-25.168,1819.999187
4 Jun 2022 09:43:53.000,346.441,-28.516,1429.467811
4 Jun 2022 09:44:53.000,338.618,-35.385,1065.249785
4 Jun 2022 09:45:53.000,319.242,-48.110,777.166492
4 Jun 2022 09:46:53.000,266.187,-57.493,673.112163
4 Jun 2022 09:47:53.000,220.989,-45.008,826.065556
4 Jun 2022 09:48:53.000,205.345,-33.565,1136.042455
4 Jun 2022 09:49:53.000,198.649,-27.616,1508.225970
4 Jun 2022 09:50:43.990,195.481,-25.032,1844.784922
4 Jun 2022 21:21:29.548,344.789,-25.032,1844.799570
4 Jun 2022 21:22:29.000,341.010,-28.229,1453.205285
4 Jun 2022 21:23:29.000,333.730,-34.824,1085.764580
4 Jun 2022 21:24:29.000,315.893,-47.305,788.974001
4 Jun 2022 21:25:29.000,264.642,-58.190,667.324180
4 Jun 2022 21:26:29.000,216.098,-46.255,805.287010
4 Jun 2022 21:27:29.000,199.471,-34.206,1109.682440
4 Jun 2022 21:28:29.000,192.527,-27.917,1480.474428
4 Jun 2022 21:29:20.419,189.249,-25.168,1819.984667
5 Jun 2022 09:39:36.212,350.787,-25.168,1819.987862
5 Jun 2022 09:40:36.000,346.815,-28.551,1426.577118
5 Jun 2022 09:41:36.000,339.127,-35.488,1061.585496
5 Jun 2022 09:42:36.000,319.895,-48.440,772.479485
5 Jun 2022 09:43:36.000,265.907,-58.090,668.143668
5 Jun 2022 09:44:36.000,220.265,-45.219,822.429063
5 Jun 2022 09:45:36.000,204.837,-33.619,1133.727344
5 Jun 2022 09:46:36.000,198.280,-27.631,1506.751987
5 Jun 2022 09:47:27.142,195.175,-25.032,1844.798231
5 Jun 2022 21:18:12.700,344.483,-25.032,1844.786354
5 Jun 2022 21:19:12.000,340.625,-28.210,1454.780018
5 Jun 2022 21:20:12.000,333.197,-34.758,1088.239729
5 Jun 2022 21:21:12.000,315.145,-47.050,792.837800
5 Jun 2022 21:22:12.000,264.589,-57.580,672.378962
5 Jun 2022 21:23:12.000,216.745,-45.973,809.845114
5 Jun 2022 21:24:12.000,199.957,-34.117,1113.228702
5 Jun 2022 21:25:12.000,192.887,-27.885,1483.287323
5 Jun 2022 21:26:03.066,189.559,-25.168,1819.995867
6 Jun 2022 09:36:18.868,351.096,-25.168,1819.977044
6 Jun 2022 09:37:18.000,347.277,-28.507,1430.162973
6 Jun 2022 09:38:18.000,339.824,-35.429,1063.668371
6 Jun 2022 09:39:18.000,321.092,-48.504,771.591308
6 Jun 2022 09:40:18.000,266.765,-58.755,662.793234
6 Jun 2022 09:41:18.000,219.944,-45.683,814.613978
6 Jun 2022 09:42:18.000,204.481,-33.814,1125.600685
6 Jun 2022 09:43:18.000,197.984,-27.716,1498.835056
6 Jun 2022 09:44:10.287,194.870,-25.032,1844.811322
6 Jun 2022 21:14:55.858,344.177,-25.032,1844.772903
6 Jun 2022 21:15:55.000,340.241,-28.191,1456.401638
6 Jun 2022 21:16:55.000,332.667,-34.691,1090.778300
6 Jun 2022 21:17:55.000,314.410,-46.794,796.782680
6 Jun 2022 21:18:55.000,264.537,-56.979,677.519162
6 Jun 2022 21:19:55.000,217.378,-45.691,814.484479
6 Jun 2022 21:20:55.000,200.439,-34.027,1116.844410
6 Jun 2022 21:21:55.000,193.246,-27.854,1486.157425
6 Jun 2022 21:22:45.705,189.870,-25.168,1820.007595
7 Jun 2022 09:33:01.531,351.406,-25.169,1819.966725
7 Jun 2022 09:34:01.000,347.654,-28.541,1427.402655
7 Jun 2022 09:35:01.000,340.340,-35.528,1060.165570
7 Jun 2022 09:36:01.000,321.779,-48.828,767.090721
7 Jun 2022 09:37:01.000,266.488,-59.373,657.990769
7 Jun 2022 09:38:01.000,219.193,-45.895,811.112549
7 Jun 2022 09:39:01.000,203.965,-33.867,1123.389758
7 Jun 2022 09:40:01.000,197.611,-27.731,1497.439054
7 Jun 2022 09:40:53.428,194.565,-25.031,1844.823487
7 Jun 2022 21:11:39.021,343.871,-25.032,1844.759217
7 Jun 2022 21:12:39.000,339.769,-28.247,1451.687817
7 Jun 2022 21:13:39.000,331.954,-34.772,1087.726723
7 Jun 2022 21:14:39.000,313.190,-46.778,797.033213
7 Jun 2022 21:15:39.000,263.432,-56.364,682.962808
7 Jun 2022 21:16:39.000,217.546,-45.172,823.243652
7 Jun 2022 21:17:39.000,200.745,-33.797,1126.291097
7 Jun 2022 21:18:39.000,193.518,-27.751,1495.519636
7 Jun 2022 21:19:28.335,190.181,-25.168,1820.019853
8 Jun 2022 09:29:44.203,351.714,-25.169,1819.956906
8 Jun 2022 09:30:44.000,348.032,-28.575,1424.702691
8 Jun 2022 09:31:44.000,340.861,-35.626,1056.736682
8 Jun 2022 09:32:44.000,322.484,-49.153,762.677337
8 Jun 2022 09:33:44.000,266.197,-59.999,653.279719
8 Jun 2022 09:34:44.000,218.430,-46.105,807.693073
8 Jun 2022 09:35:44.000,203.447,-33.920,1121.240286
8 Jun 2022 09:36:44.000,197.237,-27.745,1496.087752
8 Jun 2022 09:37:36.563,194.261,-25.031,1844.835129
8 Jun 2022 21:08:22.191,343.564,-25.032,1844.745294
8 Jun 2022 21:09:22.000,339.385,-28.227,1453.414868
8 Jun 2022 21:10:22.000,331.428,-34.701,1090.410325
8 Jun 2022 21:11:22.000,312.481,-46.514,801.163173
8 Jun 2022 21:12:22.000,263.406,-55.783,688.274074
8 Jun 2022 21:13:22.000,218.150,-44.896,828.023833
8 Jun 2022 21:14:22.000,201.216,-33.707,1130.028417
8 Jun 2022 21:15:22.000,193.872,-27.719,1498.492972
8 Jun 2022 21:16:10.957,190.492,-25.168,1820.032641
9 Jun 2022 09:26:26.883,352.023,-25.169,1819.947584
9 Jun 2022 09:27:26.000,348.491,-28.527,1428.516534
9 Jun 2022 09:28:26.000,341.557,-35.558,1059.119603
9 Jun 2022 09:29:26.000,323.721,-49.191,762.164769
9 Jun 2022 09:30:26.000,267.142,-60.695,648.239859
9 Jun 2022 09:31:26.000,218.067,-46.584,800.065784
9 Jun 2022 09:32:26.000,203.073,-34.116,1113.245921
9 Jun 2022 09:33:26.000,196.934,-27.830,1488.269271
9 Jun 2022 09:34:19.692,193.956,-25.031,1844.847627
9 Jun 2022 21:05:05.365,343.257,-25.032,1844.731133
9 Jun 2022 21:06:05.000,339.002,-28.206,1455.188047
9 Jun 2022 21:07:05.000,330.904,-34.629,1093.155822
9 Jun 2022 21:08:05.000,311.786,-46.249,805.370419
9 Jun 2022 21:09:05.000,263.380,-55.211,693.664911
9 Jun 2022 21:10:05.000,218.741,-44.620,832.881225
9 Jun 2022 21:11:05.000,201.682,-33.617,1133.833273
9 Jun 2022 21:12:05.000,194.224,-27.687,1501.522719
9 Jun 2022 21:12:53.571,190.803,-25.168,1820.045961
10 Jun 2022 09:23:09.571,352.331,-25.169,1819.938759
10 Jun 2022 09:24:09.000,348.871,-28.559,1425.946948
10 Jun 2022 09:25:09.000,342.085,-35.652,1055.854202
10 Jun 2022 09:26:09.000,324.461,-49.508,757.945315
10 Jun 2022 09:27:09.000,266.856,-61.343,643.706782
10 Jun 2022 09:28:09.000,217.276,-46.793,796.789114
10 Jun 2022 09:29:09.000,202.547,-34.167,1111.204577
10 Jun 2022 09:30:09.000,196.557,-27.844,1486.998224
10 Jun 2022 09:31:02.818,193.652,-25.031,1844.869180
10 Jun 2022 21:01:48.546,342.949,-25.032,1844.716733
10 Jun 2022 21:02:48.000,338.620,-28.184,1457.006909
10 Jun 2022 21:03:48.000,330.384,-34.556,1095.962507
10 Jun 2022 21:04:48.000,311.104,-45.984,809.653596
10 Jun 2022 21:05:48.000,263.354,-54.649,699.133507
10 Jun 2022 21:06:48.000,219.319,-44.345,837.814677
10 Jun 2022 21:07:48.000,202.144,-33.526,1137.705252
10 Jun 2022 21:08:48.000,194.574,-27.654,1504.608830
10 Jun 2022 21:09:36.177,191.115,-25.168,1820.059814
10 Jun 2022 22:40:30.790,85.364,-25.076,1836.673759
10 Jun 2022 22:40:36.391,86.681,-25.080,1835.940905
10 Jun 2022 22:40:41.992,87.998,-25.079,1836.104735
11 Jun 2022 09:19:52.267,352.639,-25.169,1819.930428
11 Jun 2022 09:20:52.000,349.252,-28.591,1423.437712
11 Jun 2022 09:21:52.000,342.617,-35.744,1052.663820
11 Jun 2022 09:22:52.000,325.220,-49.824,753.816830
11 Jun 2022 09:23:52.000,266.556,-62.001,639.271019
11 Jun 2022 09:24:52.000,216.472,-47.001,793.598195
11 Jun 2022 09:25:52.000,202.018,-34.217,1109.226625
11 Jun 2022 09:26:52.000,196.179,-27.858,1485.773113
11 Jun 2022 09:27:45.935,193.349,-25.031,1844.876377
11 Jun 2022 20:58:31.732,342.642,-25.032,1844.702092
11 Jun 2022 20:59:31.000,338.239,-28.163,1458.871038
11 Jun 2022 21:00:31.000,329.867,-34.482,1098.829715
11 Jun 2022 21:01:31.000,310.435,-45.719,814.011415
11 Jun 2022 21:02:31.000,263.328,-54.096,704.678148
11 Jun 2022 21:03:31.000,219.884,-44.070,842.823105
11 Jun 2022 21:04:31.000,202.602,-33.434,1141.643982
11 Jun 2022 21:05:31.000,194.922,-27.621,1507.751287
11 Jun 2022 21:06:18.775,191.428,-25.168,1820.074203
11 Jun 2022 22:36:55.082,80.904,-25.071,1837.600280
11 Jun 2022 22:37:19.604,86.678,-25.125,1827.737738
11 Jun 2022 22:37:44.127,92.459,-25.084,1835.107037
12 Jun 2022 09:16:34.971,352.947,-25.169,1819.922590
12 Jun 2022 09:17:34.000,349.708,-28.540,1427.476629
12 Jun 2022 09:18:34.000,343.312,-35.666,1055.346163
12 Jun 2022 09:19:34.000,326.492,-49.834,753.689237
12 Jun 2022 09:20:34.000,267.603,-62.726,634.563784
12 Jun 2022 09:21:34.000,216.061,-47.493,786.174194
12 Jun 2022 09:22:34.000,201.625,-34.416,1101.373642
12 Jun 2022 09:23:34.000,195.867,-27.943,1478.059075
12 Jun 2022 09:24:29.049,193.045,-25.031,1844.888356
12 Jun 2022 20:55:14.924,342.333,-25.032,1844.687208
12 Jun 2022 20:56:14.000,337.859,-28.140,1460.780151
12 Jun 2022 20:57:14.000,329.354,-34.406,1101.756913
12 Jun 2022 20:58:14.000,309.778,-45.454,818.442716
12 Jun 2022 20:59:14.000,263.301,-53.553,710.297230
12 Jun 2022 21:00:14.000,220.437,-43.797,847.905441
12 Jun 2022 21:01:14.000,203.056,-33.341,1145.649051
12 Jun 2022 21:02:14.000,195.269,-27.587,1510.950011
12 Jun 2022 21:03:01.364,191.740,-25.168,1820.089127
12 Jun 2022 22:33:28.631,78.613,-25.068,1838.058186
12 Jun 2022 22:34:28.000,92.641,-25.127,1827.377720
12 Jun 2022 22:34:37.005,94.751,-25.087,1834.582384
13 Jun 2022 09:13:17.683,353.255,-25.169,1819.915244
13 Jun 2022 09:14:17.000,350.091,-28.570,1425.097022
13 Jun 2022 09:15:17.000,343.850,-35.754,1052.320543
13 Jun 2022 09:16:17.000,327.285,-50.140,749.761847
13 Jun 2022 09:17:17.000,267.310,-63.405,630.319003
13 Jun 2022 09:18:17.000,215.227,-47.698,783.135157
13 Jun 2022 09:19:17.000,201.089,-34.464,1099.508996
13 Jun 2022 09:20:17.000,195.487,-27.956,1476.917689
13 Jun 2022 09:21:12.159,192.742,-25.031,1844.916678
13 Jun 2022 20:51:58.121,342.025,-25.032,1844.672079
13 Jun 2022 20:52:58.000,337.379,-28.191,1456.438558
13 Jun 2022 20:53:58.000,328.638,-34.471,1099.233823
13 Jun 2022 20:54:58.000,308.622,-45.398,819.383829
13 Jun 2022 20:55:58.000,262.352,-52.988,716.319257
13 Jun 2022 20:56:58.000,220.534,-43.318,857.036985
13 Jun 2022 20:57:58.000,203.322,-33.119,1155.404385
13 Jun 2022 20:58:58.000,195.521,-27.487,1520.582532
13 Jun 2022 20:59:43.944,192.054,-25.168,1820.103240
13 Jun 2022 22:30:04.396,76.839,-25.066,1838.402470
13 Jun 2022 22:31:04.000,90.959,-25.196,1815.086551
13 Jun 2022 22:31:27.663,96.527,-25.089,1834.169786
14 Jun 2022 09:10:00.402,353.562,-25.169,1819.908388
14 Jun 2022 09:11:00.000,350.475,-28.599,1422.778205
14 Jun 2022 09:12:00.000,344.392,-35.840,1049.371461
14 Jun 2022 09:13:00.000,328.097,-50.444,745.929627
14 Jun 2022 09:14:00.000,267.000,-64.093,626.177987
14 Jun 2022 09:15:00.000,214.381,-47.900,780.185824
14 Jun 2022 09:16:00.000,200.550,-34.511,1097.709614
14 Jun 2022 09:17:00.000,195.105,-27.969,1475.823327
14 Jun 2022 09:17:55.262,192.439,-25.031,1844.935021
14 Jun 2022 20:48:41.324,341.715,-25.032,1844.656704
14 Jun 2022 20:49:41.000,336.999,-28.168,1458.451617
14 Jun 2022 20:50:41.000,328.129,-34.392,1102.301878
14 Jun 2022 20:51:41.000,307.991,-45.129,823.986865
14 Jun 2022 20:52:41.000,262.343,-52.463,722.088038
14 Jun 2022 20:53:41.000,221.063,-43.051,862.245465
14 Jun 2022 20:54:41.000,203.765,-33.027,1159.523870
14 Jun 2022 20:55:41.000,195.863,-27.453,1523.881497
14 Jun 2022 20:56:26.517,192.367,-25.168,1820.122793
14 Jun 2022 22:26:41.330,75.335,-25.065,1838.688639
14 Jun 2022 22:27:41.000,89.492,-25.257,1804.536776
14 Jun 2022 22:28:17.151,98.032,-25.091,1833.820719
15 Jun 2022 09:06:43.129,353.868,-25.169,1819.902021
15 Jun 2022 09:07:43.000,350.861,-28.627,1420.520833
15 Jun 2022 09:08:43.000,344.938,-35.924,1046.499900
15 Jun 2022 09:09:43.000,328.929,-50.745,742.194310
15 Jun 2022 09:10:43.000,266.671,-64.790,622.142866
15 Jun 2022 09:11:43.000,213.523,-48.099,777.327063
15 Jun 2022 09:12:43.000,200.010,-34.555,1095.975567
15 Jun 2022 09:13:43.000,194.724,-27.980,1474.775802
15 Jun 2022 09:14:38.354,192.137,-25.031,1844.917725
15 Jun 2022 20:45:24.533,341.406,-25.032,1844.641076
15 Jun 2022 20:46:24.000,336.621,-28.144,1460.510327
15 Jun 2022 20:47:24.000,327.623,-34.313,1105.429714
15 Jun 2022 20:48:24.000,307.372,-44.859,828.660821
15 Jun 2022 20:49:24.000,262.334,-51.946,727.926606
15 Jun 2022 20:50:24.000,221.581,-42.785,867.523942
15 Jun 2022 20:51:24.000,204.203,-32.935,1163.707193
15 Jun 2022 20:52:24.000,196.202,-27.419,1527.235071
15 Jun 2022 20:53:09.081,192.681,-25.168,1820.142687
15 Jun 2022 22:23:19.020,74.005,-25.063,1838.937381
15 Jun 2022 22:24:19.000,88.248,-25.312,1795.214868
15 Jun 2022 22:25:05.876,99.363,-25.093,1833.505655
16 Jun 2022 09:03:25.864,354.175,-25.169,1819.896139
16 Jun 2022 09:04:25.000,351.312,-28.573,1424.853358
16 Jun 2022 09:05:25.000,345.630,-35.834,1049.572810
16 Jun 2022 09:06:25.000,330.246,-50.714,742.574325
16 Jun 2022 09:07:25.000,267.875,-65.556,617.890390
16 Jun 2022 09:08:25.000,213.038,-48.604,770.191705
16 Jun 2022 09:09:25.000,199.592,-34.756,1088.323806
16 Jun 2022 09:10:25.000,194.401,-28.066,1467.209452
16 Jun 2022 09:11:21.448,191.834,-25.031,1844.943569
16 Jun 2022 20:42:07.748,341.096,-25.033,1844.625197
16 Jun 2022 20:43:07.000,336.243,-28.119,1462.614978
16 Jun 2022 20:44:07.000,327.121,-34.232,1108.617247
16 Jun 2022 20:45:07.000,306.765,-44.591,833.404774
16 Jun 2022 20:46:07.000,262.324,-51.439,733.833276
16 Jun 2022 20:47:07.000,222.088,-42.521,872.870853
16 Jun 2022 20:48:07.000,204.637,-32.842,1167.953243
16 Jun 2022 20:49:07.000,196.541,-27.385,1530.642415
16 Jun 2022 20:49:51.636,192.996,-25.167,1820.162918
16 Jun 2022 22:19:57.249,72.800,-25.062,1839.160698
16 Jun 2022 22:20:57.000,86.991,-25.363,1786.678833
16 Jun 2022 22:21:54.057,100.569,-25.095,1833.215973
17 Jun 2022 09:00:08.607,354.481,-25.169,1819.890745
17 Jun 2022 09:01:08.000,351.699,-28.599,1422.728825
17 Jun 2022 09:02:08.000,346.181,-35.913,1046.871318
17 Jun 2022 09:03:08.000,331.112,-51.003,739.051863
17 Jun 2022 09:04:08.000,267.558,-66.275,614.063767
17 Jun 2022 09:05:08.000,212.148,-48.799,767.494274
17 Jun 2022 09:06:08.000,199.044,-34.799,1086.706046
17 Jun 2022 09:07:08.000,194.016,-28.077,1466.245992
17 Jun 2022 09:08:04.535,191.532,-25.031,1844.967021
17 Jun 2022 20:38:50.969,340.785,-25.033,1844.609066
17 Jun 2022 20:39:50.000,335.867,-28.094,1464.765654
17 Jun 2022 20:40:50.000,326.623,-34.151,1111.864184
17 Jun 2022 20:41:50.000,306.169,-44.323,838.217624
17 Jun 2022 20:42:50.000,262.314,-50.940,739.806285
17 Jun 2022 20:43:50.000,222.584,-42.258,878.284641
17 Jun 2022 20:44:50.000,205.067,-32.748,1172.260962
17 Jun 2022 20:45:50.000,196.877,-27.350,1534.102772
17 Jun 2022 20:46:34.184,193.311,-25.167,1820.183481
17 Jun 2022 22:16:35.893,71.688,-25.061,1839.359243
17 Jun 2022 22:17:35.000,85.720,-25.410,1778.940306
17 Jun 2022 22:18:35.000,100.116,-25.159,1821.619111
17 Jun 2022 22:18:41.827,101.682,-25.096,1832.953915
18 Jun 2022 08:56:51.358,354.787,-25.169,1819.885835
18 Jun 2022 08:57:51.000,352.087,-28.625,1420.667496
18 Jun 2022 08:58:51.000,346.737,-35.990,1044.249861
18 Jun 2022 08:59:51.000,331.997,-51.288,735.630882
18 Jun 2022 09:00:51.000,267.220,-67.002,610.348947
18 Jun 2022 09:01:51.000,211.245,-48.989,764.889762
18 Jun 2022 09:02:51.000,198.493,-34.840,1085.153598
18 Jun 2022 09:03:51.000,193.631,-28.088,1465.328524
18 Jun 2022 09:04:47.616,191.230,-25.031,1844.977175
18 Jun 2022 20:35:34.196,340.474,-25.033,1844.592681
18 Jun 2022 20:36:34.000,335.381,-28.141,1460.747010
18 Jun 2022 20:37:34.000,325.907,-34.203,1109.791365
18 Jun 2022 20:38:34.000,305.070,-44.240,839.722653
18 Jun 2022 20:39:34.000,261.468,-50.416,746.271000
18 Jun 2022 20:40:34.000,222.636,-41.813,887.691763
18 Jun 2022 20:41:34.000,205.304,-32.535,1182.248429
18 Jun 2022 20:42:34.000,197.113,-27.252,1543.943195
18 Jun 2022 20:43:16.723,193.626,-25.167,1820.204379
18 Jun 2022 22:13:14.862,70.651,-25.060,1839.545534
18 Jun 2022 22:14:14.000,84.682,-25.455,1771.703657
18 Jun 2022 22:15:14.000,99.203,-25.241,1807.247961
18 Jun 2022 22:15:29.265,102.721,-25.097,1832.707349
19 Jun 2022 08:53:34.117,355.093,-25.169,1819.881409
19 Jun 2022 08:54:34.000,352.476,-28.651,1418.669622
19 Jun 2022 08:55:34.000,347.296,-36.066,1041.708985
19 Jun 2022 08:56:34.000,332.902,-51.568,732.312691
19 Jun 2022 08:57:34.000,266.859,-67.738,606.747800
19 Jun 2022 08:58:34.000,210.329,-49.175,762.378946
19 Jun 2022 08:59:34.000,197.941,-34.880,1083.666593
19 Jun 2022 09:00:34.000,193.246,-28.098,1464.457008
19 Jun 2022 09:01:30.692,190.929,-25.031,1844.987108
19 Jun 2022 20:32:17.430,340.162,-25.033,1844.576041
19 Jun 2022 20:33:17.000,335.005,-28.115,1463.004014
19 Jun 2022 20:34:17.000,325.414,-34.118,1113.178222
19 Jun 2022 20:35:17.000,304.499,-43.969,844.697151
19 Jun 2022 20:36:17.000,261.471,-49.935,752.376075
19 Jun 2022 20:37:17.000,223.112,-41.557,893.216860
19 Jun 2022 20:38:17.000,205.724,-32.442,1186.660108
19 Jun 2022 20:39:17.000,197.444,-27.218,1547.496255
19 Jun 2022 20:39:59.251,193.943,-25.167,1820.211312
19 Jun 2022 22:09:54.104,69.676,-25.059,1839.714074
19 Jun 2022 22:10:54.000,83.881,-25.500,1764.599513
19 Jun 2022 22:11:54.000,98.510,-25.315,1794.676726
19 Jun 2022 22:12:16.429,103.698,-25.099,1832.472742
20 Jun 2022 08:50:16.884,355.398,-25.169,1819.877467
20 Jun 2022 08:51:16.000,352.923,-28.592,1423.298654
20 Jun 2022 08:52:16.000,347.982,-35.963,1045.177390
20 Jun 2022 08:53:16.000,334.253,-51.491,733.218086
20 Jun 2022 08:54:16.000,268.274,-68.542,602.987830
20 Jun 2022 08:55:16.000,209.764,-49.690,755.554652
20 Jun 2022 08:56:16.000,197.498,-35.081,1076.224089
20 Jun 2022 08:57:16.000,192.911,-28.184,1457.039977
20 Jun 2022 08:58:13.762,190.627,-25.031,1844.996821
20 Jun 2022 20:29:00.669,339.850,-25.033,1844.559145
20 Jun 2022 20:30:00.000,334.631,-28.088,1465.306149
20 Jun 2022 20:31:00.000,324.924,-34.033,1116.622613
20 Jun 2022 20:32:00.000,303.939,-43.700,849.736542
20 Jun 2022 20:33:00.000,261.474,-49.463,758.542389
20 Jun 2022 20:34:00.000,223.578,-41.304,898.805020
20 Jun 2022 20:35:00.000,206.139,-32.349,1191.131277
20 Jun 2022 20:36:00.000,197.774,-27.183,1551.101171
20 Jun 2022 20:36:41.773,194.259,-25.167,1820.235232
20 Jun 2022 22:06:33.569,68.751,-25.058,1839.875486
20 Jun 2022 22:07:33.000,82.826,-25.540,1758.313196
20 Jun 2022 22:08:33.000,97.568,-25.397,1781.080636
20 Jun 2022 22:09:03.365,104.624,-25.100,1832.249781
21 Jun 2022 08:46:59.659,355.704,-25.169,1819.874003
21 Jun 2022 08:47:59.000,353.312,-28.616,1421.434447
21 Jun 2022 08:48:59.000,348.545,-36.033,1042.809139
21 Jun 2022 08:49:59.000,335.189,-51.756,730.121484
21 Jun 2022 08:50:59.000,267.931,-69.300,599.611266
21 Jun 2022 08:51:59.000,208.814,-49.870,753.214288
21 Jun 2022 08:52:59.000,196.938,-35.119,1074.856669
21 Jun 2022 08:53:59.000,192.523,-28.193,1456.253584
21 Jun 2022 08:54:56.828,190.326,-25.030,1845.006316
21 Jun 2022 20:25:43.915,339.538,-25.033,1844.541991
21 Jun 2022 20:26:43.000,334.257,-28.061,1467.652909
21 Jun 2022 20:27:43.000,324.438,-33.947,1120.123750
21 Jun 2022 20:28:43.000,303.390,-43.432,854.839508
21 Jun 2022 20:29:43.000,261.475,-48.998,764.768457
21 Jun 2022 20:30:43.000,224.034,-41.052,904.455230
21 Jun 2022 20:31:43.000,206.551,-32.256,1195.661508
21 Jun 2022 20:32:43.000,198.101,-27.147,1554.757858
21 Jun 2022 20:33:24.286,194.576,-25.167,1820.259270
21 Jun 2022 22:03:13.230,67.869,-25.057,1840.026557
21 Jun 2022 22:04:13.000,82.010,-25.581,1751.945241
21 Jun 2022 22:05:13.000,96.851,-25.471,1769.104028
21 Jun 2022 22:05:50.103,105.507,-25.101,1832.036864
22 Jun 2022 08:43:42.441,356.009,-25.169,1819.871019
22 Jun 2022 08:44:42.000,353.704,-28.638,1419.633412
22 Jun 2022 08:45:42.000,349.111,-36.101,1040.522035
22 Jun 2022 08:46:42.000,336.145,-52.016,727.130724
22 Jun 2022 08:47:42.000,267.561,-70.065,596.354241
22 Jun 2022 08:48:42.000,207.853,-50.045,750.971129
22 Jun 2022 08:49:42.000,196.376,-35.154,1073.556370
22 Jun 2022 08:50:42.000,192.135,-28.202,1455.514221
22 Jun 2022 08:51:39.888,190.025,-25.030,1845.015593
22 Jun 2022 20:22:27.166,339.225,-25.033,1844.524577
22 Jun 2022 20:23:27.000,333.767,-28.104,1463.899411
22 Jun 2022 20:24:27.000,323.724,-33.989,1118.416809
22 Jun 2022 20:25:27.000,302.336,-43.330,856.789321
22 Jun 2022 20:26:27.000,260.701,-48.505,771.566384
22 Jun 2022 20:27:27.000,224.058,-40.633,914.062594
22 Jun 2022 20:28:27.000,206.765,-32.051,1205.818679
22 Jun 2022 20:29:27.000,198.324,-27.052,1564.753270
22 Jun 2022 20:30:06.789,194.894,-25.167,1820.267700
22 Jun 2022 21:59:53.059,67.026,-25.057,1840.168748
22 Jun 2022 22:00:53.000,81.187,-25.620,1745.902079
22 Jun 2022 22:01:53.000,96.124,-25.546,1757.391019
22 Jun 2022 22:02:36.670,106.352,-25.102,1831.832683
23 Jun 2022 08:40:25.231,356.314,-25.169,1819.868511
23 Jun 2022 08:41:25.000,354.096,-28.660,1417.895536
23 Jun 2022 08:42:25.000,349.681,-36.167,1038.316380
23 Jun 2022 08:43:25.000,337.120,-52.270,724.246948
23 Jun 2022 08:44:25.000,267.161,-70.838,593.218722
23 Jun 2022 08:45:25.000,206.879,-50.213,748.826204
23 Jun 2022 08:46:25.000,195.813,-35.188,1072.323659
23 Jun 2022 08:47:25.000,191.746,-28.210,1454.822204
23 Jun 2022 08:48:22.942,189.724,-25.030,1845.024651
23 Jun 2022 20:19:10.424,338.911,-25.033,1844.506901
23 Jun 2022 20:20:10.000,333.395,-28.076,1466.350114
23 Jun 2022 20:21:10.000,323.243,-33.900,1122.053204
23 Jun 2022 20:22:10.000,301.811,-43.061,862.043501
23 Jun 2022 20:23:10.000,260.713,-48.058,777.911839
23 Jun 2022 20:24:10.000,224.496,-40.389,919.815726
23 Jun 2022 20:25:10.000,207.167,-31.958,1210.448483
23 Jun 2022 20:26:10.000,198.647,-27.017,1568.500856
23 Jun 2022 20:26:49.285,195.212,-25.167,1820.295406
23 Jun 2022 21:56:33.036,66.215,-25.056,1840.303219
23 Jun 2022 21:57:33.000,80.359,-25.658,1740.186778
23 Jun 2022 21:58:33.000,95.385,-25.620,1745.946769
23 Jun 2022 21:59:23.086,107.164,-25.103,1831.636232
24 Jun 2022 08:37:08.029,356.618,-25.169,1819.866480
24 Jun 2022 08:38:08.000,354.490,-28.682,1416.220874
24 Jun 2022 08:39:08.000,350.255,-36.232,1036.192536
24 Jun 2022 08:40:08.000,338.115,-52.518,721.471329
24 Jun 2022 08:41:08.000,266.727,-71.619,590.206656
24 Jun 2022 08:42:08.000,205.893,-50.376,746.780485
24 Jun 2022 08:43:08.000,195.248,-35.220,1071.158936
24 Jun 2022 08:44:08.000,191.356,-28.218,1454.177784
24 Jun 2022 08:45:05.990,189.424,-25.030,1845.018793
24 Jun 2022 20:15:53.688,338.597,-25.033,1844.488959
24 Jun 2022 20:16:53.000,333.024,-28.048,1468.844578
24 Jun 2022 20:17:53.000,322.766,-33.810,1125.744639
24 Jun 2022 20:18:53.000,301.295,-42.794,867.357819
24 Jun 2022 20:19:53.000,260.724,-47.618,784.313077
24 Jun 2022 20:20:53.000,224.925,-40.146,925.628078
24 Jun 2022 20:21:53.000,207.564,-31.866,1215.135899
24 Jun 2022 20:22:53.000,198.968,-26.982,1572.299664
24 Jun 2022 20:23:31.776,195.530,-25.166,1820.341255
24 Jun 2022 21:53:13.146,65.433,-25.055,1840.430896
24 Jun 2022 21:54:13.000,79.525,-25.694,1734.802224
24 Jun 2022 21:55:13.000,94.636,-25.694,1734.776393
24 Jun 2022 21:56:09.368,107.947,-25.104,1831.446671
25 Jun 2022 08:33:50.834,356.923,-25.169,1819.864928
25 Jun 2022 08:34:50.000,354.929,-28.618,1421.210037
25 Jun 2022 08:35:50.000,350.932,-36.113,1040.143973
25 Jun 2022 08:36:50.000,339.495,-52.378,723.031893
25 Jun 2022 08:37:50.000,268.500,-72.470,587.094014
25 Jun 2022 08:38:50.000,205.214,-50.893,740.377551
25 Jun 2022 08:39:50.000,194.774,-35.420,1063.998042
25 Jun 2022 08:40:50.000,191.009,-28.303,1446.960478
25 Jun 2022 08:41:49.034,189.124,-25.030,1845.024780
25 Jun 2022 20:12:36.958,338.283,-25.033,1844.470751
25 Jun 2022 20:13:36.000,332.654,-28.019,1471.382630
25 Jun 2022 20:14:36.000,322.293,-33.720,1129.490644
25 Jun 2022 20:15:36.000,300.790,-42.528,872.731281
25 Jun 2022 20:16:36.000,260.734,-47.186,790.768874
25 Jun 2022 20:17:36.000,225.345,-39.905,931.498663
25 Jun 2022 20:18:36.000,207.957,-31.774,1219.880364
25 Jun 2022 20:19:36.000,199.287,-26.946,1576.149414
25 Jun 2022 20:20:14.250,195.850,-25.166,1820.344562
25 Jun 2022 21:49:53.373,64.677,-25.054,1840.552532
25 Jun 2022 21:50:53.000,78.685,-25.728,1729.751141
25 Jun 2022 21:51:53.000,93.877,-25.768,1723.884980
25 Jun 2022 21:52:53.000,108.149,-25.141,1824.867445
25 Jun 2022 21:52:55.527,108.704,-25.105,1831.261218
26 Jun 2022 08:30:33.648,357.227,-25.169,1819.863847
26 Jun 2022 08:31:33.000,355.323,-28.638,1419.667683
26 Jun 2022 08:32:33.000,351.507,-36.171,1038.193533
26 Jun 2022 08:33:33.000,340.516,-52.607,720.486490
26 Jun 2022 08:34:33.000,268.094,-73.271,584.326902
26 Jun 2022 08:35:33.000,204.193,-51.047,738.515866
26 Jun 2022 08:36:33.000,194.202,-35.449,1062.959798
26 Jun 2022 08:37:33.000,190.617,-28.310,1446.405514
26 Jun 2022 08:38:32.073,188.823,-25.030,1845.030465
26 Jun 2022 20:09:20.234,337.967,-25.033,1844.452271
26 Jun 2022 20:10:20.000,332.160,-28.059,1467.894450
26 Jun 2022 20:11:20.000,321.582,-33.752,1128.145511
26 Jun 2022 20:12:20.000,299.781,-42.412,875.106754
26 Jun 2022 20:13:20.000,260.020,-46.724,797.872852
26 Jun 2022 20:14:20.000,225.345,-39.513,941.289885
26 Jun 2022 20:15:20.000,208.151,-31.576,1230.197819
26 Jun 2022 20:16:20.000,199.497,-26.854,1586.294827
26 Jun 2022 20:16:56.718,196.169,-25.166,1820.358991
26 Jun 2022 21:46:33.708,63.945,-25.054,1840.668748
26 Jun 2022 21:47:33.000,77.840,-25.760,1725.036114
26 Jun 2022 21:48:33.000,93.107,-25.842,1713.277610
26 Jun 2022 21:49:33.000,107.544,-25.229,1809.323688
26 Jun 2022 21:49:41.575,109.437,-25.106,1831.078363
27 Jun 2022 08:27:16.468,357.531,-25.169,1819.863243
27 Jun 2022 08:28:16.000,355.717,-28.657,1418.188882
27 Jun 2022 08:29:16.000,352.086,-36.228,1036.325914
27 Jun 2022 08:30:16.000,341.555,-52.828,718.052360
27 Jun 2022 08:31:16.000,267.647,-74.078,581.688905
27 Jun 2022 08:32:16.000,203.162,-51.193,736.756420
27 Jun 2022 08:33:16.000,193.628,-35.477,1061.990680
27 Jun 2022 08:34:16.000,190.224,-28.316,1445.898662
27 Jun 2022 08:35:15.106,188.523,-25.030,1845.035861
27 Jun 2022 20:06:03.516,337.652,-25.034,1844.433517
27 Jun 2022 20:07:03.000,331.792,-28.028,1470.536155
27 Jun 2022 20:08:03.000,321.115,-33.660,1132.024055
27 Jun 2022 20:09:03.000,299.298,-42.146,880.623033
27 Jun 2022 20:10:03.000,260.039,-46.308,804.437504
27 Jun 2022 20:11:03.000,225.750,-39.279,947.255652
27 Jun 2022 20:12:03.000,208.535,-31.485,1235.036950
27 Jun 2022 20:13:03.000,199.811,-26.819,1590.232619
27 Jun 2022 20:13:39.177,196.490,-25.166,1820.379223
27 Jun 2022 21:43:14.139,63.234,-25.053,1840.780064
27 Jun 2022 21:44:14.000,77.240,-25.799,1719.462505
27 Jun 2022 21:45:14.000,92.581,-25.910,1703.606054
27 Jun 2022 21:46:14.000,107.155,-25.305,1796.350298
27 Jun 2022 21:46:27.524,110.149,-25.107,1830.902330
28 Jun 2022 08:23:59.297,357.835,-25.169,1819.863110
28 Jun 2022 08:24:59.000,356.113,-28.675,1416.773940
28 Jun 2022 08:25:59.000,352.668,-36.282,1034.541654
28 Jun 2022 08:26:59.000,342.611,-53.042,715.730694
28 Jun 2022 08:27:59.000,267.152,-74.892,579.181760
28 Jun 2022 08:28:59.000,202.119,-51.332,735.099849
28 Jun 2022 08:29:59.000,193.054,-35.502,1061.090757
28 Jun 2022 08:30:59.000,189.832,-28.321,1445.439850
28 Jun 2022 08:31:58.134,188.223,-25.030,1845.041006
28 Jun 2022 20:02:46.805,337.335,-25.034,1844.414489
28 Jun 2022 20:03:46.000,331.425,-27.998,1473.221405
28 Jun 2022 20:04:46.000,320.652,-33.567,1135.956156
28 Jun 2022 20:05:46.000,298.824,-41.883,886.195605
28 Jun 2022 20:06:46.000,260.056,-45.899,811.053103
28 Jun 2022 20:07:46.000,226.146,-39.048,953.276569
28 Jun 2022 20:08:46.000,208.915,-31.394,1239.931024
28 Jun 2022 20:09:46.000,200.124,-26.783,1594.219986
28 Jun 2022 20:10:21.628,196.811,-25.166,1820.403335
28 Jun 2022 21:39:54.660,62.542,-25.053,1840.886916
28 Jun 2022 21:40:54.000,76.386,-25.827,1715.325862
28 Jun 2022 21:41:54.000,91.792,-25.983,1693.486866
28 Jun 2022 21:42:54.000,106.530,-25.397,1781.140503
28 Jun 2022 21:43:13.382,110.842,-25.108,1830.732393
29 Jun 2022 08:20:42.133,358.139,-25.169,1819.863448
29 Jun 2022 08:21:42.000,356.509,-28.692,1415.423186
29 Jun 2022 08:22:42.000,353.252,-36.333,1032.841304
29 Jun 2022 08:23:42.000,343.685,-53.248,713.522656
29 Jun 2022 08:24:42.000,266.601,-75.712,576.807124
29 Jun 2022 08:25:42.000,201.066,-51.463,733.546711
29 Jun 2022 08:26:42.000,192.478,-35.526,1060.260041
29 Jun 2022 08:27:42.000,189.439,-28.326,1445.028951
29 Jun 2022 08:28:41.157,187.924,-25.030,1845.045930
29 Jun 2022 19:59:30.101,337.018,-25.034,1844.395181
29 Jun 2022 20:00:30.000,330.928,-28.035,1469.941643
29 Jun 2022 20:01:30.000,319.944,-33.592,1134.893578
29 Jun 2022 20:02:30.000,297.848,-41.757,888.898230
29 Jun 2022 20:03:30.000,259.385,-45.458,818.387073
29 Jun 2022 20:04:30.000,226.133,-38.675,963.200006
29 Jun 2022 20:05:30.000,209.094,-31.203,1250.360987
29 Jun 2022 20:06:30.000,200.325,-26.693,1604.471257
29 Jun 2022 20:07:04.070,197.133,-25.166,1820.427767
29 Jun 2022 21:36:35.263,61.868,-25.052,1840.989681
29 Jun 2022 21:37:35.000,75.777,-25.864,1710.162549
29 Jun 2022 21:38:35.000,91.251,-26.052,1684.152057
29 Jun 2022 21:39:35.000,106.126,-25.476,1768.388809
29 Jun 2022 21:39:59.155,111.518,-25.109,1830.567741
30 Jun 2022 08:17:24.976,358.443,-25.169,1819.864257
30 Jun 2022 08:18:24.000,356.940,-28.624,1420.767743
30 Jun 2022 08:19:24.000,353.915,-36.199,1037.272433
30 Jun 2022 08:20:24.000,345.067,-53.040,715.750944
30 Jun 2022 08:21:24.000,268.969,-76.603,574.395682
30 Jun 2022 08:22:24.000,200.264,-51.974,727.606221
30 Jun 2022 08:23:24.000,191.972,-35.722,1053.401060
30 Jun 2022 08:24:24.000,189.078,-28.411,1438.022441
30 Jun 2022 08:25:24.000,187.627,-25.037,1843.847701
30 Jun 2022 08:25:24.175,187.624,-25.030,1845.050662
30 Jun 2022 19:56:13.403,336.701,-25.034,1844.375593
30 Jun 2022 19:57:13.000,330.562,-28.003,1472.731203
30 Jun 2022 19:58:13.000,319.487,-33.496,1138.956741
30 Jun 2022 19:59:13.000,297.395,-41.494,894.607547
30 Jun 2022 20:00:13.000,259.410,-45.064,825.103717
30 Jun 2022 20:01:13.000,226.515,-38.451,969.309819
30 Jun 2022 20:02:13.000,209.465,-31.114,1255.345037
30 Jun 2022 20:03:13.000,200.633,-26.658,1608.543296
30 Jun 2022 20:03:46.503,197.455,-25.166,1820.452300
30 Jun 2022 21:33:15.941,61.211,-25.052,1841.088679
30 Jun 2022 21:34:15.000,74.914,-25.889,1706.612381
30 Jun 2022 21:35:15.000,90.443,-26.124,1674.536875
30 Jun 2022 21:36:15.000,105.480,-25.571,1753.528073
30 Jun 2022 21:36:44.849,112.177,-25.110,1830.407299
1 Jul 2022 08:14:07.828,358.746,-25.169,1819.865539
1 Jul 2022 08:15:07.000,357.336,-28.639,1419.550454
1 Jul 2022 08:16:07.000,354.500,-36.245,1035.747861
1 Jul 2022 08:17:07.000,346.159,-53.224,713.781137
1 Jul 2022 08:18:07.000,268.473,-77.441,572.283964
1 Jul 2022 08:19:07.000,199.177,-52.093,726.247627
1 Jul 2022 08:20:07.000,191.390,-35.743,1052.700456
1 Jul 2022 08:21:07.000,188.683,-28.415,1437.702047
1 Jul 2022 08:22:07.000,187.328,-25.037,1843.763100
1 Jul 2022 08:22:07.191,187.325,-25.030,1845.072475
1 Jul 2022 19:52:56.711,336.383,-25.034,1844.355722
1 Jul 2022 19:53:56.000,330.198,-27.972,1475.564231
1 Jul 2022 19:54:56.000,319.034,-33.401,1143.072322
1 Jul 2022 19:55:56.000,296.951,-41.233,900.370197
1 Jul 2022 19:56:56.000,259.433,-44.677,831.867669
1 Jul 2022 19:57:56.000,226.889,-38.229,975.471543
1 Jul 2022 19:58:56.000,209.833,-31.024,1260.381657
1 Jul 2022 19:59:56.000,200.938,-26.622,1612.663250
1 Jul 2022 20:00:28.927,197.778,-25.166,1820.477415
1 Jul 2022 21:29:56.690,60.568,-25.051,1841.184191
1 Jul 2022 21:30:56.000,74.298,-25.923,1701.866280
1 Jul 2022 21:31:56.000,89.888,-26.193,1665.550889
1 Jul 2022 21:32:56.000,105.061,-25.653,1741.009005
1 Jul 2022 21:33:30.476,112.822,-25.111,1830.265718
2 Jul 2022 08:10:50.687,359.050,-25.169,1819.867286
2 Jul 2022 08:11:50.000,357.733,-28.654,1418.398031
2 Jul 2022 08:12:50.000,355.087,-36.289,1034.308299
2 Jul 2022 08:13:50.000,347.266,-53.398,711.927569
2 Jul 2022 08:14:50.000,267.908,-78.284,570.309355
2 Jul 2022 08:15:50.000,198.081,-52.204,724.994514
2 Jul 2022 08:16:50.000,190.807,-35.761,1052.069396
2 Jul 2022 08:17:50.000,188.288,-28.418,1437.429364
2 Jul 2022 08:18:50.000,187.029,-25.037,1843.712896
2 Jul 2022 08:18:50.199,187.026,-25.030,1845.078281
2 Jul 2022 19:49:40.026,336.064,-25.034,1844.335565
2 Jul 2022 19:50:40.000,329.698,-28.006,1472.495539
2 Jul 2022 19:51:40.000,318.328,-33.419,1142.291578
2 Jul 2022 19:52:40.000,296.008,-41.099,903.389521
2 Jul 2022 19:53:40.000,258.800,-44.257,839.416674
2 Jul 2022 19:54:40.000,226.864,-37.875,985.517131
2 Jul 2022 19:55:40.000,209.999,-30.840,1270.916671
2 Jul 2022 19:56:40.000,201.132,-26.535,1623.014698
2 Jul 2022 19:57:11.341,198.101,-25.165,1820.503113
2 Jul 2022 21:26:37.504,59.939,-25.051,1841.276283
2 Jul 2022 21:27:37.000,73.678,-25.956,1697.295217
2 Jul 2022 21:28:37.000,89.326,-26.261,1656.710151
2 Jul 2022 21:29:37.000,104.634,-25.736,1728.585326
2 Jul 2022 21:30:16.025,113.452,-25.112,1830.102828
3 Jul 2022 08:07:33.554,359.353,-25.169,1819.869503
3 Jul 2022 08:08:33.000,358.131,-28.668,1417.310695
3 Jul 2022 08:09:33.000,355.677,-36.330,1032.954144
3 Jul 2022 08:10:33.000,348.389,-53.563,710.191148
3 Jul 2022 08:11:33.000,267.257,-79.131,568.473195
3 Jul 2022 08:12:33.000,196.977,-52.305,723.847294
3 Jul 2022 08:13:33.000,190.223,-35.777,1051.507864
3 Jul 2022 08:14:33.000,187.893,-28.421,1437.204282
3 Jul 2022 08:15:33.000,186.729,-25.037,1843.696958
3 Jul 2022 08:15:33.202,186.726,-25.030,1845.083928
3 Jul 2022 19:46:23.348,335.744,-25.034,1844.315120
3 Jul 2022 19:47:23.000,329.335,-27.973,1475.432850
3 Jul 2022 19:48:23.000,317.882,-33.321,1146.535923
3 Jul 2022 19:49:23.000,295.584,-40.840,909.282233
3 Jul 2022 19:50:23.000,258.830,-43.884,846.273848
3 Jul 2022 19:51:23.000,227.226,-37.660,991.761504
3 Jul 2022 19:52:23.000,210.358,-30.752,1276.038559
3 Jul 2022 19:53:23.000,201.433,-26.499,1627.215930
3 Jul 2022 19:53:53.747,198.425,-25.165,1820.529395
3 Jul 2022 21:23:18.381,59.324,-25.050,1841.362440
3 Jul 2022 21:24:18.000,73.054,-25.987,1692.900613
3 Jul 2022 21:25:18.000,88.757,-26.330,1648.017023
3 Jul 2022 21:26:18.000,104.201,-25.821,1716.259152
3 Jul 2022 21:27:01.518,114.070,-25.113,1829.964336
4 Jul 2022 08:04:16.428,359.656,-25.169,1819.872186
4 Jul 2022 08:05:16.000,358.529,-28.681,1416.288599
4 Jul 2022 08:06:16.000,356.268,-36.369,1031.685720
4 Jul 2022 08:07:16.000,349.525,-53.718,708.572689
4 Jul 2022 08:08:16.000,266.498,-79.983,566.776740
4 Jul 2022 08:09:16.000,195.865,-52.398,722.806374
4 Jul 2022 08:10:16.000,189.638,-35.792,1051.015888
4 Jul 2022 08:11:16.000,187.498,-28.423,1437.026750
4 Jul 2022 08:12:16.000,186.430,-25.037,1843.715220
4 Jul 2022 08:12:16.200,186.427,-25.030,1845.089431
4 Jul 2022 19:43:06.677,335.424,-25.034,1844.294385
4 Jul 2022 19:44:06.000,328.974,-27.940,1478.413003
4 Jul 2022 19:45:06.000,317.440,-33.223,1150.831014
4 Jul 2022 19:46:06.000,295.168,-40.584,915.225004
4 Jul 2022 19:47:06.000,258.859,-43.518,853.174750
4 Jul 2022 19:48:06.000,227.580,-37.447,998.054744
4 Jul 2022 19:49:06.000,210.713,-30.664,1281.210867
4 Jul 2022 19:50:06.000,201.732,-26.464,1631.463666
4 Jul 2022 19:50:36.143,198.750,-25.165,1820.556667
4 Jul 2022 21:19:59.314,58.721,-25.050,1841.448941
4 Jul 2022 21:20:59.000,72.427,-26.018,1688.683835
4 Jul 2022 21:21:59.000,88.182,-26.399,1639.473887
4 Jul 2022 21:22:59.000,103.761,-25.907,1704.032670
4 Jul 2022 21:23:46.946,114.675,-25.113,1829.815375
5 Jul 2022 08:00:59.310,359.959,-25.169,1819.875337
5 Jul 2022 08:01:59.000,358.928,-28.693,1415.331814
5 Jul 2022 08:02:59.000,356.862,-36.405,1030.503263
5 Jul 2022 08:03:59.000,350.675,-53.862,707.072914
5 Jul 2022 08:04:59.000,265.600,-80.838,565.221169
5 Jul 2022 08:05:59.000,194.746,-52.482,721.872177
5 Jul 2022 08:06:59.000,189.053,-35.804,1050.593556
5 Jul 2022 08:07:59.000,187.102,-28.424,1436.896790
5 Jul 2022 08:08:59.000,186.131,-25.037,1843.767693
5 Jul 2022 08:08:59.193,186.128,-25.030,1845.094800
5 Jul 2022 19:39:50.012,335.103,-25.034,1844.273357
5 Jul 2022 19:40:50.000,328.472,-27.972,1475.556323
5 Jul 2022 19:41:50.000,316.739,-33.234,1150.329471
5 Jul 2022 19:42:50.000,294.258,-40.442,918.549220
5 Jul 2022 19:43:50.000,258.260,-43.118,860.924197
5 Jul 2022 19:44:50.000,227.545,-37.111,1008.213183
5 Jul 2022 19:45:50.000,210.866,-30.486,1291.844289
5 Jul 2022 19:46:50.000,201.916,-26.379,1641.910456
5 Jul 2022 19:47:18.531,199.076,-25.165,1820.587382
5 Jul 2022 21:16:40.301,58.128,-25.049,1841.533148
5 Jul 2022 21:17:40.000,71.797,-26.048,1684.646172
5 Jul 2022 21:18:40.000,87.600,-26.467,1631.083115
5 Jul 2022 21:19:40.000,103.313,-25.995,1691.908121
5 Jul 2022 21:20:32.317,115.268,-25.114,1829.672409
6 Jul 2022 07:57:42.200,0.261,-25.169,1819.878952
6 Jul 2022 07:58:42.000,359.327,-28.704,1414.440325
6 Jul 2022 07:59:42.000,357.458,-36.439,1029.406923
6 Jul 2022 08:00:42.000,351.837,-53.997,705.692443
6 Jul 2022 08:01:42.000,264.519,-81.695,563.807580
6 Jul 2022 08:02:42.000,193.621,-52.556,721.045143
6 Jul 2022 08:03:42.000,188.467,-35.814,1050.241022
6 Jul 2022 08:04:42.000,186.707,-28.425,1436.814504
6 Jul 2022 08:05:42.000,185.832,-25.037,1843.854472
6 Jul 2022 08:05:42.181,185.830,-25.030,1845.100049
6 Jul 2022 19:36:33.355,334.782,-25.035,1844.252035
6 Jul 2022 19:37:33.000,328.113,-27.937,1478.639423
6 Jul 2022 19:38:33.000,316.304,-33.134,1154.749807
6 Jul 2022 19:39:33.000,293.861,-40.188,924.614781
6 Jul 2022 19:40:33.000,258.295,-42.766,867.910943
6 Jul 2022 19:41:33.000,227.887,-36.905,1014.583666
6 Jul 2022 19:42:33.000,211.213,-30.400,1297.098099
6 Jul 2022 19:43:33.000,202.211,-26.344,1646.237073
6 Jul 2022 19:44:00.909,199.402,-25.165,1820.618483
6 Jul 2022 21:13:21.340,57.547,-25.049,1841.614802
6 Jul 2022 21:14:21.000,71.163,-26.077,1680.788806
6 Jul 2022 21:15:21.000,87.012,-26.536,1622.847049
6 Jul 2022 21:16:21.000,102.859,-26.084,1679.887778
6 Jul 2022 21:17:17.635,115.851,-25.115,1829.532449
7 Jul 2022 07:54:25.097,0.564,-25.169,1819.883033
7 Jul 2022 07:55:25.000,359.727,-28.715,1413.614030
7 Jul 2022 07:56:25.000,358.055,-36.470,1028.396759
7 Jul 2022 07:57:25.000,353.011,-54.120,704.431800
7 Jul 2022 07:58:25.000,263.192,-82.553,562.536990
7 Jul 2022 07:59:25.000,192.489,-52.621,720.325731
7 Jul 2022 08:00:25.000,187.881,-35.822,1049.958509
7 Jul 2022 08:01:25.000,186.311,-28.426,1436.780077
7 Jul 2022 08:02:25.000,185.532,-25.036,1843.975741
7 Jul 2022 08:02:25.164,185.531,-25.030,1845.105187
7 Jul 2022 19:33:16.704,334.459,-25.035,1844.230415
7 Jul 2022 19:34:16.000,327.755,-27.902,1481.764140
7 Jul 2022 19:35:16.000,315.873,-33.034,1159.218735
7 Jul 2022 19:36:16.000,293.471,-39.937,930.727032
7 Jul 2022 19:37:16.000,258.327,-42.420,874.938233
7 Jul 2022 19:38:16.000,228.223,-36.701,1021.000566
7 Jul 2022 19:39:16.000,211.556,-30.314,1302.400811
7 Jul 2022 19:40:16.000,202.503,-26.309,1650.609434
7 Jul 2022 19:40:43.278,199.729,-25.165,1820.649964
7 Jul 2022 21:10:02.427,56.976,-25.048,1841.694049
7 Jul 2022 21:11:02.000,70.527,-26.104,1677.112778
7 Jul 2022 21:12:02.000,86.417,-26.604,1614.767963
7 Jul 2022 21:13:02.000,102.398,-26.174,1667.973916
7 Jul 2022 21:14:02.000,116.239,-25.133,1826.333196
7 Jul 2022 21:14:02.898,116.423,-25.116,1829.382413
8 Jul 2022 07:51:08.002,0.867,-25.169,1819.887578
8 Jul 2022 07:52:08.000,0.128,-28.725,1412.852763
8 Jul 2022 07:53:08.000,358.654,-36.499,1027.472759
8 Jul 2022 07:54:08.000,354.196,-54.233,703.291420
8 Jul 2022 07:55:08.000,261.522,-83.409,561.410333
8 Jul 2022 07:56:08.000,191.353,-52.677,719.714413
8 Jul 2022 07:57:08.000,187.295,-35.829,1049.746297
8 Jul 2022 07:58:08.000,185.916,-28.426,1436.793763
8 Jul 2022 07:59:08.000,185.233,-25.035,1844.131755
8 Jul 2022 07:59:08.142,185.232,-25.030,1845.110225
8 Jul 2022 19:30:00.060,334.136,-25.035,1844.208494
8 Jul 2022 19:31:00.000,327.252,-27.932,1479.118580
8 Jul 2022 19:32:00.000,315.177,-33.039,1158.992076
8 Jul 2022 19:33:00.000,292.593,-39.790,934.343754
8 Jul 2022 19:34:00.000,257.759,-42.039,882.874957
8 Jul 2022 19:35:00.000,228.179,-36.382,1031.264495
8 Jul 2022 19:36:00.000,211.697,-30.143,1313.128003
8 Jul 2022 19:37:00.000,202.680,-26.227,1661.148732
8 Jul 2022 19:37:25.637,200.057,-25.164,1820.681832
8 Jul 2022 21:06:43.560,56.414,-25.048,1841.771023
8 Jul 2022 21:07:43.000,69.888,-26.131,1673.618970
8 Jul 2022 21:08:43.000,85.815,-26.672,1606.848030
8 Jul 2022 21:09:43.000,101.929,-26.266,1656.168774
8 Jul 2022 21:10:43.000,115.931,-25.215,1811.813894
8 Jul 2022 21:10:48.116,116.987,-25.117,1829.246770
9 Jul 2022 07:47:50.914,1.169,-25.169,1819.892587
9 Jul 2022 07:48:50.000,0.543,-28.649,1418.819908
9 Jul 2022 07:49:50.000,359.286,-36.337,1032.738517
9 Jul 2022 07:50:50.000,355.519,-53.900,706.688302
9 Jul 2022 07:51:50.000,266.475,-84.387,560.296218
9 Jul 2022 07:52:50.000,190.329,-53.141,714.667619
9 Jul 2022 07:53:50.000,186.738,-36.014,1043.464702
9 Jul 2022 07:54:50.000,185.534,-28.507,1430.184162
9 Jul 2022 07:55:50.000,184.942,-25.071,1837.446246
9 Jul 2022 07:55:51.115,184.934,-25.030,1845.115170
9 Jul 2022 19:26:43.422,333.813,-25.035,1844.186269
9 Jul 2022 19:27:43.000,326.896,-27.896,1482.344204
9 Jul 2022 19:28:43.000,314.753,-32.937,1163.582294
9 Jul 2022 19:29:43.000,292.222,-39.541,940.571879
9 Jul 2022 19:30:43.000,257.797,-41.706,889.982004
9 Jul 2022 19:31:43.000,228.504,-36.184,1037.754706
9 Jul 2022 19:32:43.000,212.032,-30.058,1318.509864
9 Jul 2022 19:33:43.000,202.968,-26.192,1665.598925
9 Jul 2022 19:34:07.984,200.385,-25.164,1820.698821
9 Jul 2022 21:03:24.736,55.861,-25.047,1841.845848
9 Jul 2022 21:04:24.000,69.246,-26.156,1670.308095
9 Jul 2022 21:05:24.000,85.207,-26.740,1599.089302
9 Jul 2022 21:06:24.000,101.453,-26.358,1644.474526
9 Jul 2022 21:07:24.000,115.619,-25.299,1797.356120
9 Jul 2022 21:07:33.287,117.541,-25.117,1829.113608
10 Jul 2022 07:44:33.834,1.472,-25.169,1819.898059
10 Jul 2022 07:45:33.000,0.942,-28.657,1418.189802
10 Jul 2022 07:46:33.000,359.883,-36.359,1031.989055
10 Jul 2022 07:47:33.000,356.703,-53.987,705.791580
10 Jul 2022 07:48:33.000,264.776,-85.261,559.454501
10 Jul 2022 07:49:33.000,189.166,-53.178,714.266683
10 Jul 2022 07:50:33.000,186.146,-36.016,1043.389991
10 Jul 2022 07:51:33.000,185.137,-28.505,1430.292529
10 Jul 2022 07:52:33.000,184.642,-25.070,1837.670956
10 Jul 2022 07:52:34.083,184.635,-25.030,1845.120030
10 Jul 2022 19:23:26.792,333.488,-25.035,1844.163735
10 Jul 2022 19:24:26.000,326.541,-27.860,1485.610411
10 Jul 2022 19:25:26.000,314.333,-32.836,1168.219275
10 Jul 2022 19:26:26.000,291.857,-39.295,946.843942
10 Jul 2022 19:27:26.000,257.832,-41.379,897.127216
10 Jul 2022 19:28:26.000,228.822,-35.989,1044.289569
10 Jul 2022 19:29:26.000,212.364,-29.974,1323.939626
10 Jul 2022 19:30:26.000,203.254,-26.158,1670.094518
10 Jul 2022 19:30:50.323,200.714,-25.164,1820.730870
10 Jul 2022 21:00:05.953,55.317,-25.047,1841.918636
10 Jul 2022 21:01:05.000,68.601,-26.180,1667.180733
10 Jul 2022 21:02:05.000,84.592,-26.807,1591.493718
10 Jul 2022 21:03:05.000,100.969,-26.453,1632.893256
10 Jul 2022 21:04:05.000,115.300,-25.386,1782.961207
10 Jul 2022 21:04:18.415,118.087,-25.118,1828.982813
11 Jul 2022 07:41:16.761,1.774,-25.169,1819.903995
11 Jul 2022 07:42:16.000,1.341,-28.664,1417.624059
11 Jul 2022 07:43:16.000,0.480,-36.380,1031.325292
11 Jul 2022 07:44:16.000,357.895,-54.063,705.015527
11 Jul 2022 07:45:16.000,262.319,-86.131,558.759070
11 Jul 2022 07:46:16.000,188.002,-53.205,713.975693
11 Jul 2022 07:47:16.000,185.555,-36.016,1043.386718
11 Jul 2022 07:48:16.000,184.739,-28.503,1430.449902
11 Jul 2022 07:49:16.000,184.342,-25.069,1837.931216
11 Jul 2022 07:49:17.046,184.337,-25.030,1845.124812
11 Jul 2022 19:20:10.169,333.163,-25.035,1844.140888
11 Jul 2022 19:21:10.000,326.037,-27.886,1483.175648
11 Jul 2022 19:22:10.000,313.643,-32.835,1168.263920
11 Jul 2022 19:23:10.000,291.010,-39.145,950.742376
11 Jul 2022 19:24:10.000,257.292,-41.017,905.240627
11 Jul 2022 19:25:10.000,228.770,-35.686,1054.653681
11 Jul 2022 19:26:10.000,212.494,-29.809,1334.757447
11 Jul 2022 19:27:10.000,203.423,-26.077,1680.724626
11 Jul 2022 19:27:32.654,201.044,-25.164,1820.766047
11 Jul 2022 20:56:47.214,54.781,-25.047,1841.973332
11 Jul 2022 20:57:47.000,68.203,-26.220,1661.996364
11 Jul 2022 20:58:47.000,84.250,-26.877,1583.709884
11 Jul 2022 20:59:47.000,100.741,-26.534,1623.034132
11 Jul 2022 21:00:47.000,115.193,-25.454,1771.883492
11 Jul 2022 21:01:03.500,118.625,-25.119,1828.854274
12 Jul 2022 07:37:59.696,2.076,-25.169,1819.910392
12 Jul 2022 07:38:59.000,1.741,-28.670,1417.122858
12 Jul 2022 07:39:59.000,1.079,-36.398,1030.747478
12 Jul 2022 07:40:59.000,359.093,-54.127,704.360586
12 Jul 2022 07:41:59.000,258.454,-86.992,558.210429
12 Jul 2022 07:42:59.000,186.835,-53.222,713.794676
12 Jul 2022 07:43:59.000,184.964,-36.014,1043.454757
12 Jul 2022 07:44:59.000,184.342,-28.501,1430.656138
12 Jul 2022 07:45:59.000,184.042,-25.067,1838.226883
12 Jul 2022 07:46:00.003,184.038,-25.030,1845.129520
12 Jul 2022 19:16:53.553,332.837,-25.035,1844.117723
12 Jul 2022 19:17:53.000,325.684,-27.849,1486.542593
12 Jul 2022 19:18:53.000,313.230,-32.732,1173.020074
12 Jul 2022 19:19:53.000,290.662,-38.902,957.125291
12 Jul 2022 19:20:53.000,257.332,-40.702,912.460987
12 Jul 2022 19:21:53.000,229.079,-35.497,1061.258425
12 Jul 2022 19:22:53.000,212.818,-29.727,1340.263788
12 Jul 2022 19:23:53.000,203.705,-26.043,1685.296381
12 Jul 2022 19:24:14.974,201.375,-25.164,1820.801475
12 Jul 2022 20:53:28.508,54.252,-25.046,1842.041836
12 Jul 2022 20:54:28.000,67.554,-26.242,1659.164680
12 Jul 2022 20:55:28.000,83.624,-26.944,1576.371908
12 Jul 2022 20:56:28.000,100.245,-26.631,1611.625618
12 Jul 2022 20:57:28.000,114.866,-25.545,1757.580384
12 Jul 2022 20:57:48.545,119.156,-25.119,1828.727879
13 Jul 2022 07:34:42.638,2.379,-25.169,1819.917255
13 Jul 2022 07:35:42.000,2.142,-28.676,1416.686605
13 Jul 2022 07:36:42.000,1.679,-36.413,1030.256056
13 Jul 2022 07:37:42.000,0.297,-54.180,703.827286
13 Jul 2022 07:38:42.000,251.566,-87.831,557.808942
13 Jul 2022 07:39:42.000,185.668,-53.229,713.723420
13 Jul 2022 07:40:42.000,184.372,-36.010,1043.593731
13 Jul 2022 07:41:42.000,183.945,-28.498,1430.910831
13 Jul 2022 07:42:42.000,183.742,-25.065,1838.557552
13 Jul 2022 07:42:42.956,183.740,-25.030,1845.134157
13 Jul 2022 19:13:36.944,332.510,-25.035,1844.094237
13 Jul 2022 19:14:36.000,325.333,-27.812,1489.950526
13 Jul 2022 19:15:36.000,312.820,-32.629,1177.822406
13 Jul 2022 19:16:36.000,290.321,-38.662,963.550290
13 Jul 2022 19:17:36.000,257.369,-40.393,919.717342
13 Jul 2022 19:18:36.000,229.381,-35.311,1067.905504
13 Jul 2022 19:19:36.000,213.139,-29.645,1345.816002
13 Jul 2022 19:20:36.000,203.985,-26.009,1689.911922
13 Jul 2022 19:20:57.284,201.707,-25.164,1820.837164
13 Jul 2022 20:50:09.837,53.731,-25.046,1842.108639
13 Jul 2022 20:51:09.000,66.902,-26.263,1656.518501
13 Jul 2022 20:52:09.000,82.992,-27.011,1569.202367
13 Jul 2022 20:53:09.000,99.741,-26.729,1600.335408
13 Jul 2022 20:54:09.000,114.533,-25.637,1743.343074
13 Jul 2022 20:54:33.553,119.679,-25.120,1828.609456
14 Jul 2022 07:31:25.588,2.681,-25.169,1819.924574
14 Jul 2022 07:32:25.000,2.542,-28.680,1416.315833
14 Jul 2022 07:33:25.000,2.279,-36.425,1029.851568
14 Jul 2022 07:34:25.000,1.504,-54.221,703.416173
14 Jul 2022 07:35:25.000,236.644,-88.602,557.554834
14 Jul 2022 07:36:25.000,184.500,-53.225,713.761548
14 Jul 2022 07:37:25.000,183.782,-36.004,1043.803100
14 Jul 2022 07:38:25.000,183.549,-28.494,1431.213418
14 Jul 2022 07:39:25.000,183.443,-25.063,1838.922659
14 Jul 2022 07:39:25.903,183.442,-25.030,1845.138728
14 Jul 2022 19:10:20.342,332.183,-25.035,1844.070426
14 Jul 2022 19:11:20.000,324.828,-27.836,1487.729948
14 Jul 2022 19:12:20.000,312.137,-32.622,1178.137742
14 Jul 2022 19:13:20.000,289.504,-38.509,967.721753
14 Jul 2022 19:14:20.000,256.855,-40.048,927.997536
14 Jul 2022 19:15:20.000,229.323,-35.023,1078.363023
14 Jul 2022 19:16:20.000,213.259,-29.486,1356.718542
14 Jul 2022 19:17:20.000,204.146,-25.931,1700.627703
14 Jul 2022 19:17:39.583,202.039,-25.163,1820.859009
14 Jul 2022 20:46:51.201,53.216,-25.046,1842.173814
14 Jul 2022 20:47:51.000,66.496,-26.301,1651.627147
14 Jul 2022 20:48:51.000,82.636,-27.082,1561.659005
14 Jul 2022 20:49:51.000,99.500,-26.815,1590.624173
14 Jul 2022 20:50:51.000,114.417,-25.711,1732.335708
14 Jul 2022 20:51:18.521,120.196,-25.121,1828.484321
15 Jul 2022 07:28:08.546,2.983,-25.169,1819.932357
15 Jul 2022 07:29:08.000,2.942,-28.684,1416.011022
15 Jul 2022 07:30:08.000,2.880,-36.435,1029.534492
15 Jul 2022 07:31:08.000,2.715,-54.249,703.127699
15 Jul 2022 07:32:08.000,198.073,-89.105,557.448205
15 Jul 2022 07:33:08.000,183.334,-53.212,713.908650
15 Jul 2022 07:34:08.000,183.191,-35.995,1044.082341
15 Jul 2022 07:35:08.000,183.153,-28.490,1431.563363
15 Jul 2022 07:36:08.000,183.143,-25.061,1839.321670
15 Jul 2022 07:36:08.846,183.143,-25.030,1845.143232
15 Jul 2022 19:07:03.748,331.854,-25.036,1844.046287
15 Jul 2022 19:08:03.000,324.479,-27.798,1491.240000
15 Jul 2022 19:09:03.000,311.735,-32.518,1183.058024
15 Jul 2022 19:10:03.000,289.178,-38.273,974.252645
15 Jul 2022 19:11:03.000,256.897,-39.751,935.323336
15 Jul 2022 19:12:03.000,229.616,-34.842,1085.074367
15 Jul 2022 19:13:03.000,213.573,-29.406,1362.342010
15 Jul 2022 19:14:03.000,204.421,-25.898,1705.314738
15 Jul 2022 19:14:21.874,202.373,-25.163,1820.898085
15 Jul 2022 20:43:32.598,52.708,-25.045,1842.237425
15 Jul 2022 20:44:32.000,65.839,-26.320,1649.282075
15 Jul 2022 20:45:32.000,81.992,-27.147,1554.757390
15 Jul 2022 20:46:32.000,98.983,-26.915,1579.516247
15 Jul 2022 20:47:32.000,114.075,-25.807,1718.195065
15 Jul 2022 20:48:03.459,120.706,-25.121,1828.378265
16 Jul 2022 07:24:51.511,3.285,-25.169,1819.940599
16 Jul 2022 07:25:51.000,3.343,-28.687,1415.772441
16 Jul 2022 07:26:51.000,3.481,-36.442,1029.305103
16 Jul 2022 07:27:51.000,3.928,-54.265,702.962121
16 Jul 2022 07:28:51.000,146.658,-88.885,557.489051
16 Jul 2022 07:29:51.000,182.169,-53.188,714.164414
16 Jul 2022 07:30:51.000,182.602,-35.985,1044.431110
16 Jul 2022 07:31:51.000,182.757,-28.485,1431.960334
16 Jul 2022 07:32:51.000,182.844,-25.059,1839.754264
16 Jul 2022 07:32:51.783,182.845,-25.030,1845.147672
16 Jul 2022 19:03:47.162,331.525,-25.036,1844.021818
16 Jul 2022 19:04:47.000,323.972,-27.820,1489.174513
16 Jul 2022 19:05:47.000,311.056,-32.507,1183.570223
16 Jul 2022 19:06:47.000,288.382,-38.117,978.624044
16 Jul 2022 19:07:47.000,256.402,-39.417,943.726236
16 Jul 2022 19:08:47.000,229.555,-34.565,1095.595099
16 Jul 2022 19:09:47.000,213.686,-29.252,1373.296579
16 Jul 2022 19:10:47.000,204.578,-25.822,1716.082051
16 Jul 2022 19:11:04.157,202.706,-25.163,1820.954525
16 Jul 2022 20:40:14.026,52.206,-25.045,1842.299535
16 Jul 2022 20:41:14.000,65.428,-26.358,1644.576213
16 Jul 2022 20:42:14.000,81.627,-27.219,1547.367482
16 Jul 2022 20:43:14.000,98.733,-27.004,1569.899626
16 Jul 2022 20:44:14.000,113.955,-25.884,1707.232522
16 Jul 2022 20:44:48.354,121.209,-25.122,1828.242214
17 Jul 2022 07:21:34.483,3.587,-25.169,1819.949302
17 Jul 2022 07:22:34.000,3.744,-28.689,1415.600087
17 Jul 2022 07:23:34.000,4.082,-36.446,1029.163415
17 Jul 2022 07:24:34.000,5.141,-54.270,702.919469
17 Jul 2022 07:25:34.000,123.928,-88.189,557.677275
17 Jul 2022 07:26:34.000,181.008,-53.154,714.528676
17 Jul 2022 07:27:34.000,182.013,-35.973,1044.849306
17 Jul 2022 07:28:34.000,182.361,-28.479,1432.404270
17 Jul 2022 07:29:34.000,182.545,-25.056,1840.220400
17 Jul 2022 07:29:34.716,182.547,-25.030,1845.152045
17 Jul 2022 19:00:30.583,331.195,-25.036,1843.997017
17 Jul 2022 19:01:30.000,323.626,-27.781,1492.785744
17 Jul 2022 19:02:30.000,310.662,-32.402,1188.605786
17 Jul 2022 19:03:30.000,288.071,-37.884,985.255964
17 Jul 2022 19:04:30.000,256.446,-39.131,951.117026
17 Jul 2022 19:05:30.000,229.840,-34.391,1102.367203
17 Jul 2022 19:06:30.000,213.993,-29.173,1378.988400
17 Jul 2022 19:07:30.000,204.849,-25.789,1720.838326
17 Jul 2022 19:07:46.428,203.041,-25.163,1820.989178
17 Jul 2022 20:36:55.485,51.711,-25.045,1842.360200
17 Jul 2022 20:37:55.000,64.767,-26.374,1642.536342
17 Jul 2022 20:38:55.000,80.972,-27.284,1540.741459
17 Jul 2022 20:39:55.000,98.202,-27.107,1558.981531
17 Jul 2022 20:40:55.000,113.603,-25.985,1693.193204
17 Jul 2022 20:41:33.221,121.706,-25.123,1828.126451
18 Jul 2022 07:18:17.464,3.889,-25.169,1819.958463
18 Jul 2022 07:19:17.000,4.145,-28.691,1415.493748
18 Jul 2022 07:20:17.000,4.684,-36.448,1029.109240
18 Jul 2022 07:21:17.000,6.354,-54.262,702.999583
18 Jul 2022 07:22:17.000,114.482,-87.372,558.012682
18 Jul 2022 07:23:17.000,179.849,-53.110,715.001379
18 Jul 2022 07:24:17.000,181.424,-35.958,1045.337018
18 Jul 2022 07:25:17.000,181.965,-28.473,1432.895320
18 Jul 2022 07:26:17.000,182.246,-25.054,1840.720256
18 Jul 2022 07:26:17.644,182.249,-25.030,1845.156353
18 Jul 2022 18:57:14.012,330.864,-25.036,1843.971879
18 Jul 2022 18:58:14.000,323.118,-27.802,1490.874728
18 Jul 2022 18:59:14.000,309.987,-32.387,1189.312280
18 Jul 2022 19:00:14.000,287.294,-37.726,989.821055
18 Jul 2022 19:01:14.000,255.968,-38.808,959.636708
18 Jul 2022 19:02:14.000,229.777,-34.124,1112.948018
18 Jul 2022 19:03:14.000,214.101,-29.024,1389.992979
18 Jul 2022 19:04:14.000,205.001,-25.715,1731.655774
18 Jul 2022 19:04:28.688,203.377,-25.163,1821.024442
18 Jul 2022 20:33:36.973,51.221,-25.044,1842.419475
18 Jul 2022 20:34:36.000,64.104,-26.389,1640.686576
18 Jul 2022 20:35:36.000,80.310,-27.348,1534.294673
18 Jul 2022 20:36:36.000,97.663,-27.211,1548.193276
18 Jul 2022 20:37:36.000,113.244,-26.089,1679.227078
18 Jul 2022 20:38:18.055,122.198,-25.123,1828.013035
19 Jul 2022 07:15:00.452,4.191,-25.169,1819.968087
19 Jul 2022 07:16:00.000,4.546,-28.691,1415.453111
19 Jul 2022 07:17:00.000,5.285,-36.447,1029.142284
19 Jul 2022 07:18:00.000,7.566,-54.242,703.202183
19 Jul 2022 07:19:00.000,109.574,-86.519,558.494974
19 Jul 2022 07:20:00.000,178.695,-53.056,715.582488
19 Jul 2022 07:21:00.000,180.837,-35.942,1045.894411
19 Jul 2022 07:22:00.000,181.570,-28.467,1433.433732
19 Jul 2022 07:23:00.000,181.948,-25.051,1841.254114
19 Jul 2022 07:23:00.567,181.951,-25.030,1845.160585
19 Jul 2022 18:53:57.449,330.532,-25.036,1843.946402
19 Jul 2022 18:54:57.000,322.775,-27.761,1494.585264
19 Jul 2022 18:55:57.000,309.600,-32.281,1194.459862
19 Jul 2022 18:56:57.000,286.999,-37.497,996.549264
19 Jul 2022 18:57:57.000,256.016,-38.532,967.088958
19 Jul 2022 18:58:57.000,230.053,-33.955,1119.778717
19 Jul 2022 18:59:57.000,214.400,-28.947,1395.751762
19 Jul 2022 19:00:57.000,205.268,-25.683,1736.480593
19 Jul 2022 19:01:10.938,203.714,-25.162,1821.060321
19 Jul 2022 20:30:18.490,50.736,-25.044,1842.477413
19 Jul 2022 20:31:18.000,63.686,-26.425,1636.287228
19 Jul 2022 20:32:18.000,79.931,-27.420,1527.166848
19 Jul 2022 20:33:18.000,97.399,-27.304,1538.743710
19 Jul 2022 20:34:18.000,113.115,-26.171,1668.345587
19 Jul 2022 20:35:02.859,122.685,-25.124,1827.901713
20 Jul 2022 07:11:43.447,4.493,-25.168,1819.978170
20 Jul 2022 07:12:43.000,4.946,-28.691,1415.477862
20 Jul 2022 07:13:43.000,5.886,-36.443,1029.262239
20 Jul 2022 07:14:43.000,8.775,-54.210,703.526929
20 Jul 2022 07:15:43.000,106.602,-85.653,559.123736
20 Jul 2022 07:16:43.000,177.546,-52.992,716.271916
20 Jul 2022 07:17:43.000,180.250,-35.923,1046.521635
20 Jul 2022 07:18:43.000,181.176,-28.459,1434.019741
20 Jul 2022 07:19:43.000,181.649,-25.048,1841.822246
20 Jul 2022 07:19:43.486,181.652,-25.030,1845.164740
20 Jul 2022 18:50:40.893,330.199,-25.036,1843.920580
20 Jul 2022 18:51:40.000,322.433,-27.721,1498.334478
20 Jul 2022 18:52:40.000,309.218,-32.175,1199.649039
20 Jul 2022 18:53:40.000,286.708,-37.272,1003.312843
20 Jul 2022 18:54:40.000,256.062,-38.261,974.571212
20 Jul 2022 18:55:40.000,230.324,-33.789,1126.646505
20 Jul 2022 18:56:40.000,214.697,-28.871,1401.552339
20 Jul 2022 18:57:40.000,205.534,-25.650,1741.346397
20 Jul 2022 18:57:53.177,204.052,-25.162,1821.096823
20 Jul 2022 20:27:00.033,50.257,-25.044,1842.534064
20 Jul 2022 20:28:00.000,63.266,-26.460,1631.960920
20 Jul 2022 20:29:00.000,79.549,-27.492,1520.099195
20 Jul 2022 20:30:00.000,97.131,-27.398,1529.330770
20 Jul 2022 20:31:00.000,112.984,-26.255,1657.481740
20 Jul 2022 20:31:47.633,123.165,-25.125,1827.792247
21 Jul 2022 07:08:26.450,4.795,-25.168,1819.988714
21 Jul 2022 07:09:26.000,5.347,-28.690,1415.567745
21 Jul 2022 07:10:26.000,6.487,-36.437,1029.468832
21 Jul 2022 07:11:26.000,9.980,-54.165,703.973458
21 Jul 2022 07:12:26.000,104.614,-84.782,559.898431
21 Jul 2022 07:13:26.000,176.404,-52.918,717.069475
21 Jul 2022 07:14:26.000,179.665,-35.903,1047.218757
21 Jul 2022 07:15:26.000,180.781,-28.452,1434.653509
21 Jul 2022 07:16:26.000,181.351,-25.044,1842.424851
21 Jul 2022 07:16:26.399,181.354,-25.030,1845.168812
21 Jul 2022 18:47:24.345,329.865,-25.036,1843.894410
21 Jul 2022 18:48:24.000,321.925,-27.739,1496.636501
21 Jul 2022 18:49:24.000,308.551,-32.155,1200.615156
21 Jul 2022 18:50:24.000,285.959,-37.114,1008.123039
21 Jul 2022 18:51:24.000,255.604,-37.955,983.231686
21 Jul 2022 18:52:24.000,230.256,-33.535,1137.305391
21 Jul 2022 18:53:24.000,214.796,-28.727,1412.630172
21 Jul 2022 18:54:24.000,205.679,-25.579,1752.240710
21 Jul 2022 18:54:35.406,204.390,-25.162,1821.133954
21 Jul 2022 20:23:41.603,49.783,-25.043,1842.590490
21 Jul 2022 20:24:41.000,62.597,-26.472,1630.538076
21 Jul 2022 20:25:41.000,78.871,-27.555,1514.043818
21 Jul 2022 20:26:41.000,96.572,-27.505,1518.813989
21 Jul 2022 20:27:41.000,112.612,-26.365,1643.659473
21 Jul 2022 20:28:32.378,123.641,-25.125,1827.684426
22 Jul 2022 07:05:09.461,5.097,-25.168,1819.999718
22 Jul 2022 07:06:09.000,5.748,-28.688,1415.722578
22 Jul 2022 07:07:09.000,7.088,-36.428,1029.761846
22 Jul 2022 07:08:09.000,11.181,-54.110,704.541394
22 Jul 2022 07:09:09.000,103.190,-83.909,560.818398
