data/Partner_Institute/Skyhopper_Partner-Creswick_Access_1year.csv

"Access","Start Time (UTCG)","Stop Time (UTCG)","Duration (sec)"
1,1 Jun 2022 09:52:45.671,1 Jun 2022 10:00:34.503,468.832
2,1 Jun 2022 21:31:20.125,1 Jun 2022 21:39:12.431,472.306
3,2 Jun 2022 09:49:28.294,2 Jun 2022 09:57:17.671,469.377
4,2 Jun 2022 21:28:03.261,2 Jun 2022 21:35:55.102,471.841
5,3 Jun 2022 09:46:10.925,3 Jun 2022 09:54:00.833,469.908
6,3 Jun 2022 21:24:46.402,3 Jun 2022 21:32:37.765,471.363
7,4 Jun 2022 09:42:53.564,4 Jun 2022 09:50:43.990,470.426
8,4 Jun 2022 21:21:29.548,4 Jun 2022 21:29:20.419,470.871
9,5 Jun 2022 09:39:36.212,5 Jun 2022 09:47:27.142,470.930
10,5 Jun 2022 21:18:12.700,5 Jun 2022 21:26:03.066,470.366
11,6 Jun 2022 09:36:18.868,6 Jun 2022 09:44:10.287,471.420
12,6 Jun 2022 21:14:55.858,6 Jun 2022 21:22:45.705,469.847
13,7 Jun 2022 09:33:01.531,7 Jun 2022 09:40:53.428,471.896
14,7 Jun 2022 21:11:39.021,7 Jun 2022 21:19:28.335,469.314
15,8 Jun 2022 09:29:44.203,8 Jun 2022 09:37:36.563,472.359
16,8 Jun 2022 21:08:22.191,8 Jun 2022 21:16:10.957,468.767
17,9 Jun 2022 09:26:26.883,9 Jun 2022 09:34:19.692,472.809
18,9 Jun 2022 21:05:05.365,9 Jun 2022 21:12:53.571,468.206
19,10 Jun 2022 09:23:09.571,10 Jun 2022 09:31:02.818,473.246
20,10 Jun 2022 21:01:48.546,10 Jun 2022 21:09:36.177,467.631
21,10 Jun 2022 22:40:30.790,10 Jun 2022 22:40:41.992,11.202
22,11 Jun 2022 09:19:52.267,11 Jun 2022 09:27:45.935,473.668
23,11 Jun 2022 20:58:31.732,11 Jun 2022 21:06:18.775,467.043
24,11 Jun 2022 22:36:55.082,11 Jun 2022 22:37:44.127,49.046
25,12 Jun 2022 09:16:34.971,12 Jun 2022 09:24:29.049,474.077
26,12 Jun 2022 20:55:14.924,12 Jun 2022 21:03:01.364,466.440
27,12 Jun 2022 22:33:28.631,12 Jun 2022 22:34:37.005,68.374
28,13 Jun 2022 09:13:17.683,13 Jun 2022 09:21:12.159,474.476
29,13 Jun 2022 20:51:58.121,13 Jun 2022 20:59:43.944,465.823
30,13 Jun 2022 22:30:04.396,13 Jun 2022 22:31:27.663,83.267
31,14 Jun 2022 09:10:00.402,14 Jun 2022 09:17:55.262,474.860
32,14 Jun 2022 20:48:41.324,14 Jun 2022 20:56:26.517,465.193
33,14 Jun 2022 22:26:41.330,14 Jun 2022 22:28:17.151,95.820
34,15 Jun 2022 09:06:43.129,15 Jun 2022 09:14:38.354,475.225
35,15 Jun 2022 20:45:24.533,15 Jun 2022 20:53:09.081,464.548
36,15 Jun 2022 22:23:19.020,15 Jun 2022 22:25:05.876,106.857
37,16 Jun 2022 09:03:25.864,16 Jun 2022 09:11:21.448,475.583
38,16 Jun 2022 20:42:07.748,16 Jun 2022 20:49:51.636,463.888
39,16 Jun 2022 22:19:57.249,16 Jun 2022 22:21:54.057,116.808
40,17 Jun 2022 09:00:08.607,17 Jun 2022 09:08:04.535,475.928
41,17 Jun 2022 20:38:50.969,17 Jun 2022 20:46:34.184,463.215
42,17 Jun 2022 22:16:35.893,17 Jun 2022 22:18:41.827,125.934
43,18 Jun 2022 08:56:51.358,18 Jun 2022 09:04:47.616,476.258
44,18 Jun 2022 20:35:34.196,18 Jun 2022 20:43:16.723,462.526
45,18 Jun 2022 22:13:14.862,18 Jun 2022 22:15:29.265,134.402
46,19 Jun 2022 08:53:34.117,19 Jun 2022 09:01:30.692,476.575
47,19 Jun 2022 20:32:17.430,19 Jun 2022 20:39:59.251,461.821
48,19 Jun 2022 22:09:54.104,19 Jun 2022 22:12:16.429,142.326
49,20 Jun 2022 08:50:16.884,20 Jun 2022 08:58:13.762,476.878
50,20 Jun 2022 20:29:00.669,20 Jun 2022 20:36:41.773,461.104
51,20 Jun 2022 22:06:33.569,20 Jun 2022 22:09:03.365,149.795
52,21 Jun 2022 08:46:59.659,21 Jun 2022 08:54:56.828,477.169
53,21 Jun 2022 20:25:43.915,21 Jun 2022 20:33:24.286,460.372
54,21 Jun 2022 22:03:13.230,21 Jun 2022 22:05:50.103,156.874
55,22 Jun 2022 08:43:42.441,22 Jun 2022 08:51:39.888,477.447
56,22 Jun 2022 20:22:27.166,22 Jun 2022 20:30:06.789,459.623
57,22 Jun 2022 21:59:53.059,22 Jun 2022 22:02:36.670,163.612
58,23 Jun 2022 08:40:25.231,23 Jun 2022 08:48:22.942,477.711
59,23 Jun 2022 20:19:10.424,23 Jun 2022 20:26:49.285,458.861
60,23 Jun 2022 21:56:33.036,23 Jun 2022 21:59:23.086,170.050
61,24 Jun 2022 08:37:08.029,24 Jun 2022 08:45:05.990,477.961
62,24 Jun 2022 20:15:53.688,24 Jun 2022 20:23:31.776,458.088
63,24 Jun 2022 21:53:13.146,24 Jun 2022 21:56:09.368,176.222
64,25 Jun 2022 08:33:50.834,25 Jun 2022 08:41:49.034,478.199
65,25 Jun 2022 20:12:36.958,25 Jun 2022 20:20:14.250,457.293
66,25 Jun 2022 21:49:53.373,25 Jun 2022 21:52:55.527,182.154
67,26 Jun 2022 08:30:33.648,26 Jun 2022 08:38:32.073,478.425
68,26 Jun 2022 20:09:20.234,26 Jun 2022 20:16:56.718,456.484
69,26 Jun 2022 21:46:33.708,26 Jun 2022 21:49:41.575,187.868
70,27 Jun 2022 08:27:16.468,27 Jun 2022 08:35:15.106,478.638
71,27 Jun 2022 20:06:03.516,27 Jun 2022 20:13:39.177,455.661
72,27 Jun 2022 21:43:14.139,27 Jun 2022 21:46:27.524,193.385
73,28 Jun 2022 08:23:59.297,28 Jun 2022 08:31:58.134,478.838
74,28 Jun 2022 20:02:46.805,28 Jun 2022 20:10:21.628,454.823
75,28 Jun 2022 21:39:54.660,28 Jun 2022 21:43:13.382,198.722
76,29 Jun 2022 08:20:42.133,29 Jun 2022 08:28:41.157,479.025
77,29 Jun 2022 19:59:30.101,29 Jun 2022 20:07:04.070,453.969
78,29 Jun 2022 21:36:35.263,29 Jun 2022 21:39:59.155,203.892
79,30 Jun 2022 08:17:24.976,30 Jun 2022 08:25:24.175,479.199
80,30 Jun 2022 19:56:13.403,30 Jun 2022 20:03:46.503,453.100
81,30 Jun 2022 21:33:15.941,30 Jun 2022 21:36:44.849,208.908
82,1 Jul 2022 08:14:07.828,1 Jul 2022 08:22:07.191,479.363
83,1 Jul 2022 19:52:56.711,1 Jul 2022 20:00:28.927,452.215
84,1 Jul 2022 21:29:56.690,1 Jul 2022 21:33:30.476,213.786
85,2 Jul 2022 08:10:50.687,2 Jul 2022 08:18:50.199,479.512
86,2 Jul 2022 19:49:40.026,2 Jul 2022 19:57:11.341,451.315
87,2 Jul 2022 21:26:37.504,2 Jul 2022 21:30:16.025,218.521
88,3 Jul 2022 08:07:33.554,3 Jul 2022 08:15:33.202,479.649
89,3 Jul 2022 19:46:23.348,3 Jul 2022 19:53:53.747,450.398
90,3 Jul 2022 21:23:18.381,3 Jul 2022 21:27:01.518,223.137
91,4 Jul 2022 08:04:16.428,4 Jul 2022 08:12:16.200,479.772
92,4 Jul 2022 19:43:06.677,4 Jul 2022 19:50:36.143,449.466
93,4 Jul 2022 21:19:59.314,4 Jul 2022 21:23:46.946,227.632
94,5 Jul 2022 08:00:59.310,5 Jul 2022 08:08:59.193,479.883
95,5 Jul 2022 19:39:50.012,5 Jul 2022 19:47:18.531,448.518
96,5 Jul 2022 21:16:40.301,5 Jul 2022 21:20:32.317,232.016
97,6 Jul 2022 07:57:42.200,6 Jul 2022 08:05:42.181,479.982
98,6 Jul 2022 19:36:33.355,6 Jul 2022 19:44:00.909,447.554
99,6 Jul 2022 21:13:21.340,6 Jul 2022 21:17:17.635,236.295
100,7 Jul 2022 07:54:25.097,7 Jul 2022 08:02:25.164,480.067
101,7 Jul 2022 19:33:16.704,7 Jul 2022 19:40:43.278,446.574
102,7 Jul 2022 21:10:02.427,7 Jul 2022 21:14:02.898,240.471
103,8 Jul 2022 07:51:08.002,8 Jul 2022 07:59:08.142,480.140
104,8 Jul 2022 19:30:00.060,8 Jul 2022 19:37:25.637,445.577
105,8 Jul 2022 21:06:43.560,8 Jul 2022 21:10:48.116,244.556
106,9 Jul 2022 07:47:50.914,9 Jul 2022 07:55:51.115,480.201
107,9 Jul 2022 19:26:43.422,9 Jul 2022 19:34:07.984,444.561
108,9 Jul 2022 21:03:24.736,9 Jul 2022 21:07:33.287,248.551
109,10 Jul 2022 07:44:33.834,10 Jul 2022 07:52:34.083,480.249
110,10 Jul 2022 19:23:26.792,10 Jul 2022 19:30:50.323,443.531
111,10 Jul 2022 21:00:05.953,10 Jul 2022 21:04:18.415,252.461
112,11 Jul 2022 07:41:16.761,11 Jul 2022 07:49:17.046,480.284
113,11 Jul 2022 19:20:10.169,11 Jul 2022 19:27:32.654,442.485
114,11 Jul 2022 20:56:47.214,11 Jul 2022 21:01:03.500,256.286
115,12 Jul 2022 07:37:59.696,12 Jul 2022 07:46:00.003,480.307
116,12 Jul 2022 19:16:53.553,12 Jul 2022 19:24:14.974,441.421
117,12 Jul 2022 20:53:28.508,12 Jul 2022 20:57:48.545,260.037
118,13 Jul 2022 07:34:42.638,13 Jul 2022 07:42:42.956,480.317
119,13 Jul 2022 19:13:36.944,13 Jul 2022 19:20:57.284,440.341
120,13 Jul 2022 20:50:09.837,13 Jul 2022 20:54:33.553,263.716
121,14 Jul 2022 07:31:25.588,14 Jul 2022 07:39:25.903,480.315
122,14 Jul 2022 19:10:20.342,14 Jul 2022 19:17:39.583,439.240
123,14 Jul 2022 20:46:51.201,14 Jul 2022 20:51:18.521,267.321
124,15 Jul 2022 07:28:08.546,15 Jul 2022 07:36:08.846,480.300
125,15 Jul 2022 19:07:03.748,15 Jul 2022 19:14:21.874,438.125
126,15 Jul 2022 20:43:32.598,15 Jul 2022 20:48:03.459,270.861
127,16 Jul 2022 07:24:51.511,16 Jul 2022 07:32:51.783,480.273
128,16 Jul 2022 19:03:47.162,16 Jul 2022 19:11:04.157,436.995
129,16 Jul 2022 20:40:14.026,16 Jul 2022 20:44:48.354,274.328
130,17 Jul 2022 07:21:34.483,17 Jul 2022 07:29:34.716,480.233
131,17 Jul 2022 19:00:30.583,17 Jul 2022 19:07:46.428,435.844
132,17 Jul 2022 20:36:55.485,17 Jul 2022 20:41:33.221,277.736
133,18 Jul 2022 07:18:17.464,18 Jul 2022 07:26:17.644,480.181
134,18 Jul 2022 18:57:14.012,18 Jul 2022 19:04:28.688,434.676
135,18 Jul 2022 20:33:36.973,18 Jul 2022 20:38:18.055,281.082
136,19 Jul 2022 07:15:00.452,19 Jul 2022 07:23:00.567,480.116
137,19 Jul 2022 18:53:57.449,19 Jul 2022 19:01:10.938,433.489
138,19 Jul 2022 20:30:18.490,19 Jul 2022 20:35:02.859,284.370
139,20 Jul 2022 07:11:43.447,20 Jul 2022 07:19:43.486,480.038
140,20 Jul 2022 18:50:40.893,20 Jul 2022 18:57:53.177,432.284
141,20 Jul 2022 20:27:00.033,20 Jul 2022 20:31:47.633,287.600
142,21 Jul 2022 07:08:26.450,21 Jul 2022 07:16:26.399,479.948
143,21 Jul 2022 18:47:24.345,21 Jul 2022 18:54:35.406,431.061
144,21 Jul 2022 20:23:41.603,21 Jul 2022 20:28:32.378,290.775
145,22 Jul 2022 07:05:09.461,22 Jul 2022 07:13:09.307,479.846
146,22 Jul 2022 18:44:07.805,22 Jul 2022 18:51:17.623,429.818
147,22 Jul 2022 20:20:23.197,22 Jul 2022 20:25:17.095,293.898
148,23 Jul 2022 07:01:52.479,23 Jul 2022 07:09:52.210,479.731
149,23 Jul 2022 18:40:51.273,23 Jul 2022 18:47:59.828,428.556
150,23 Jul 2022 20:17:04.816,23 Jul 2022 20:22:01.784,296.969
151,24 Jul 2022 06:58:35.504,24 Jul 2022 07:06:35.108,479.603
152,24 Jul 2022 18:37:34.749,24 Jul 2022 18:44:42.030,427.281
153,24 Jul 2022 20:13:46.460,24 Jul 2022 20:18:46.447,299.987
154,25 Jul 2022 06:55:18.537,25 Jul 2022 07:03:18.000,479.463
155,25 Jul 2022 18:34:18.233,25 Jul 2022 18:41:24.215,425.983
156,25 Jul 2022 20:10:28.127,25 Jul 2022 20:15:31.084,302.957
157,26 Jul 2022 06:52:01.578,26 Jul 2022 07:00:00.888,479.311
158,26 Jul 2022 18:31:01.725,26 Jul 2022 18:38:06.389,424.664
159,26 Jul 2022 20:07:09.813,26 Jul 2022 20:12:15.696,305.883
160,27 Jul 2022 06:48:44.625,27 Jul 2022 06:56:43.771,479.146
161,27 Jul 2022 18:27:45.226,27 Jul 2022 18:34:48.552,423.326
162,27 Jul 2022 20:03:51.520,27 Jul 2022 20:09:00.283,308.763
163,28 Jul 2022 06:45:27.681,28 Jul 2022 06:53:26.647,478.966
164,28 Jul 2022 18:24:28.735,28 Jul 2022 18:31:30.706,421.970
165,28 Jul 2022 20:00:33.254,28 Jul 2022 20:05:44.843,311.589
166,29 Jul 2022 06:42:10.744,29 Jul 2022 06:50:09.520,478.776
167,29 Jul 2022 18:21:12.253,29 Jul 2022 18:28:12.847,420.593
168,29 Jul 2022 19:57:15.004,29 Jul 2022 20:02:29.384,314.381
169,30 Jul 2022 06:38:53.815,30 Jul 2022 06:46:52.388,478.573
170,30 Jul 2022 18:17:55.780,30 Jul 2022 18:24:54.979,419.199
171,30 Jul 2022 19:53:56.774,30 Jul 2022 19:59:13.903,317.129
172,31 Jul 2022 06:35:36.893,31 Jul 2022 06:43:35.251,478.358
173,31 Jul 2022 18:14:39.316,31 Jul 2022 18:21:37.098,417.782
174,31 Jul 2022 19:50:38.563,31 Jul 2022 19:55:58.399,319.836
175,1 Aug 2022 06:32:19.979,1 Aug 2022 06:40:18.110,478.131
176,1 Aug 2022 18:11:22.860,1 Aug 2022 18:18:19.206,416.345
177,1 Aug 2022 19:47:20.372,1 Aug 2022 19:52:42.874,322.503
178,2 Aug 2022 06:29:03.073,2 Aug 2022 06:37:00.963,477.890
179,2 Aug 2022 18:08:06.414,2 Aug 2022 18:15:01.303,414.889
180,2 Aug 2022 19:44:02.199,2 Aug 2022 19:49:27.328,325.129
181,3 Aug 2022 06:25:46.174,3 Aug 2022 06:33:43.811,477.638
182,3 Aug 2022 18:04:49.977,3 Aug 2022 18:11:43.388,413.411
183,3 Aug 2022 19:40:44.044,3 Aug 2022 19:46:11.761,327.717
184,4 Aug 2022 06:22:29.283,4 Aug 2022 06:30:26.655,477.372
185,4 Aug 2022 18:01:33.548,4 Aug 2022 18:08:25.461,411.913
186,4 Aug 2022 19:37:25.907,4 Aug 2022 19:42:56.174,330.267
187,5 Aug 2022 06:19:12.399,5 Aug 2022 06:27:09.494,477.096
188,5 Aug 2022 17:58:17.130,5 Aug 2022 18:05:07.523,410.393
189,5 Aug 2022 19:34:07.787,5 Aug 2022 19:39:40.567,332.781
190,6 Aug 2022 06:15:55.523,6 Aug 2022 06:23:52.327,476.804
191,6 Aug 2022 17:55:00.720,6 Aug 2022 18:01:49.569,408.849
192,6 Aug 2022 19:30:49.678,6 Aug 2022 19:36:24.941,335.263
193,7 Aug 2022 06:12:38.654,7 Aug 2022 06:20:35.155,476.501
194,7 Aug 2022 17:51:44.320,7 Aug 2022 17:58:31.606,407.286
195,7 Aug 2022 19:27:31.591,7 Aug 2022 19:33:09.296,337.705
196,8 Aug 2022 06:09:21.793,8 Aug 2022 06:17:17.977,476.184
197,8 Aug 2022 17:48:27.930,8 Aug 2022 17:55:13.631,405.701
198,8 Aug 2022 19:24:13.519,8 Aug 2022 19:29:53.633,340.114
199,9 Aug 2022 06:06:04.939,9 Aug 2022 06:14:00.794,475.855
200,9 Aug 2022 17:45:11.549,9 Aug 2022 17:51:55.643,404.093
201,9 Aug 2022 19:20:55.462,9 Aug 2022 19:26:37.955,342.493
202,10 Aug 2022 06:02:48.093,10 Aug 2022 06:10:43.606,475.513
203,10 Aug 2022 17:41:55.179,10 Aug 2022 17:48:37.642,402.463
204,10 Aug 2022 19:17:37.420,10 Aug 2022 19:23:22.252,344.833
205,11 Aug 2022 05:59:31.255,11 Aug 2022 06:07:26.412,475.157
206,11 Aug 2022 17:38:38.819,11 Aug 2022 17:45:19.626,400.807
207,11 Aug 2022 19:14:19.390,11 Aug 2022 19:20:06.536,347.147
208,12 Aug 2022 05:56:14.424,12 Aug 2022 06:04:09.211,474.787
209,12 Aug 2022 17:35:22.469,12 Aug 2022 17:42:01.600,399.131
210,12 Aug 2022 19:11:01.376,12 Aug 2022 19:16:50.803,349.427
211,13 Aug 2022 05:52:57.601,13 Aug 2022 06:00:52.007,474.406
212,13 Aug 2022 17:32:06.130,13 Aug 2022 17:38:43.563,397.433
213,13 Aug 2022 19:07:43.377,13 Aug 2022 19:13:35.054,351.677
214,14 Aug 2022 05:49:40.786,14 Aug 2022 05:57:34.803,474.017
215,14 Aug 2022 17:28:49.802,14 Aug 2022 17:35:25.510,395.708
216,14 Aug 2022 19:04:25.392,14 Aug 2022 19:10:19.289,353.897
217,15 Aug 2022 05:46:23.979,15 Aug 2022 05:54:17.588,473.609
218,15 Aug 2022 17:25:33.484,15 Aug 2022 17:32:07.444,393.959
219,15 Aug 2022 19:01:07.420,15 Aug 2022 19:07:03.508,356.088
220,16 Aug 2022 05:43:07.180,16 Aug 2022 05:51:00.370,473.190
221,16 Aug 2022 17:22:17.178,16 Aug 2022 17:28:49.364,392.186
222,16 Aug 2022 18:57:49.462,16 Aug 2022 19:03:47.710,358.248
223,17 Aug 2022 05:39:50.388,17 Aug 2022 05:47:43.147,472.759
224,17 Aug 2022 17:19:00.882,17 Aug 2022 17:25:31.270,390.387
225,17 Aug 2022 18:54:31.516,17 Aug 2022 19:00:31.895,360.379
226,18 Aug 2022 05:36:33.604,18 Aug 2022 05:44:25.917,472.313
227,18 Aug 2022 17:15:44.598,18 Aug 2022 17:22:13.162,388.563
228,18 Aug 2022 18:51:13.581,18 Aug 2022 18:57:16.065,362.484
229,19 Aug 2022 05:33:16.827,19 Aug 2022 05:41:08.682,471.855
230,19 Aug 2022 17:12:28.325,19 Aug 2022 17:18:55.037,386.712
231,19 Aug 2022 18:47:55.660,19 Aug 2022 18:54:00.220,364.560
232,20 Aug 2022 05:30:00.059,20 Aug 2022 05:37:51.443,471.385
233,20 Aug 2022 17:09:12.064,20 Aug 2022 17:15:36.899,384.835
234,20 Aug 2022 18:44:37.752,20 Aug 2022 18:50:44.356,366.604
235,21 Aug 2022 05:26:43.298,21 Aug 2022 05:34:34.199,470.901
236,21 Aug 2022 17:05:55.815,21 Aug 2022 17:12:18.747,382.932
237,21 Aug 2022 18:41:19.856,21 Aug 2022 18:47:28.480,368.625
238,22 Aug 2022 05:23:26.545,22 Aug 2022 05:31:16.949,470.405
239,22 Aug 2022 17:02:39.578,22 Aug 2022 17:09:00.586,381.008
240,22 Aug 2022 18:38:01.971,22 Aug 2022 18:44:12.593,370.622
241,23 Aug 2022 05:20:09.799,23 Aug 2022 05:27:59.694,469.895
242,23 Aug 2022 16:59:23.353,23 Aug 2022 17:05:42.405,379.051
243,23 Aug 2022 18:34:44.098,23 Aug 2022 18:40:56.688,372.590
244,24 Aug 2022 05:16:53.062,24 Aug 2022 05:24:42.434,469.372
245,24 Aug 2022 16:56:07.141,24 Aug 2022 17:02:24.205,377.064
246,24 Aug 2022 18:31:26.236,24 Aug 2022 18:37:40.770,374.534
247,25 Aug 2022 05:13:36.332,25 Aug 2022 05:21:25.168,468.837
248,25 Aug 2022 16:52:50.942,25 Aug 2022 16:59:05.994,375.052
249,25 Aug 2022 18:28:08.386,25 Aug 2022 18:34:24.839,376.454
250,26 Aug 2022 05:10:19.610,26 Aug 2022 05:18:07.898,468.288
251,26 Aug 2022 16:49:34.755,26 Aug 2022 16:55:47.767,373.012
252,26 Aug 2022 18:24:50.546,26 Aug 2022 18:31:08.895,378.349
253,27 Aug 2022 05:07:02.896,27 Aug 2022 05:14:50.622,467.725
254,27 Aug 2022 16:46:18.583,27 Aug 2022 16:52:29.524,370.942
255,27 Aug 2022 18:21:32.718,27 Aug 2022 18:27:52.937,380.219
256,28 Aug 2022 05:03:46.190,28 Aug 2022 05:11:33.340,467.150
257,28 Aug 2022 16:43:02.423,28 Aug 2022 16:49:11.263,368.840
258,28 Aug 2022 18:18:14.900,28 Aug 2022 18:24:36.965,382.065
259,29 Aug 2022 05:00:29.493,29 Aug 2022 05:08:16.054,466.561
260,29 Aug 2022 16:39:46.278,29 Aug 2022 16:45:52.989,366.711
261,29 Aug 2022 18:14:57.093,29 Aug 2022 18:21:20.975,383.882
262,30 Aug 2022 04:57:12.803,30 Aug 2022 05:04:58.762,465.959
263,30 Aug 2022 16:36:30.149,30 Aug 2022 16:42:34.700,364.551
264,30 Aug 2022 18:11:39.296,30 Aug 2022 18:18:04.977,385.681
265,31 Aug 2022 04:53:56.121,31 Aug 2022 05:01:41.465,465.344
266,31 Aug 2022 16:33:14.031,31 Aug 2022 16:39:16.391,362.359
267,31 Aug 2022 18:08:21.510,31 Aug 2022 18:14:48.968,387.458
268,1 Sep 2022 04:50:39.447,1 Sep 2022 04:58:24.162,464.715
269,1 Sep 2022 16:29:57.928,1 Sep 2022 16:35:58.064,360.136
270,1 Sep 2022 18:05:03.733,1 Sep 2022 18:11:32.946,389.213
271,2 Sep 2022 04:47:22.781,2 Sep 2022 04:55:06.854,464.073
272,2 Sep 2022 16:26:41.840,2 Sep 2022 16:32:39.720,357.880
273,2 Sep 2022 18:01:45.966,2 Sep 2022 18:08:16.909,390.942
274,3 Sep 2022 04:44:06.123,3 Sep 2022 04:51:49.541,463.417
275,3 Sep 2022 16:23:25.767,3 Sep 2022 16:29:21.357,355.589
276,3 Sep 2022 17:58:28.209,3 Sep 2022 18:05:00.860,392.650
277,4 Sep 2022 04:40:49.474,4 Sep 2022 04:48:32.221,462.748
278,4 Sep 2022 06:20:10.184,4 Sep 2022 06:20:32.054,21.870
279,4 Sep 2022 16:20:09.710,4 Sep 2022 16:26:02.975,353.265
280,4 Sep 2022 17:55:10.462,4 Sep 2022 18:01:44.798,394.336
281,5 Sep 2022 04:37:32.832,5 Sep 2022 04:45:14.894,462.062
282,5 Sep 2022 06:16:36.598,5 Sep 2022 06:17:31.026,54.427
283,5 Sep 2022 16:16:53.668,5 Sep 2022 16:22:44.575,350.906
284,5 Sep 2022 17:51:52.724,5 Sep 2022 17:58:28.724,396.000
285,6 Sep 2022 04:34:16.198,6 Sep 2022 04:41:57.564,461.366
286,6 Sep 2022 06:13:09.663,6 Sep 2022 06:14:23.361,73.699
287,6 Sep 2022 16:13:37.645,6 Sep 2022 16:19:26.156,348.510
288,6 Sep 2022 17:48:34.995,6 Sep 2022 17:55:12.638,397.644
289,7 Sep 2022 04:30:59.572,7 Sep 2022 04:38:40.228,460.655
290,7 Sep 2022 06:09:44.811,7 Sep 2022 06:11:13.617,88.806
291,7 Sep 2022 16:10:21.636,7 Sep 2022 16:16:07.717,346.081
292,7 Sep 2022 17:45:17.275,7 Sep 2022 17:51:56.537,399.262
293,8 Sep 2022 04:27:42.955,8 Sep 2022 04:35:22.886,459.931
294,8 Sep 2022 06:06:21.105,8 Sep 2022 06:08:02.730,101.625
295,8 Sep 2022 16:07:05.644,8 Sep 2022 16:12:49.260,343.615
296,8 Sep 2022 17:41:59.564,8 Sep 2022 17:48:40.427,400.863
297,9 Sep 2022 04:24:26.346,9 Sep 2022 04:32:05.537,459.191
298,9 Sep 2022 06:02:58.154,9 Sep 2022 06:04:51.087,112.933
299,9 Sep 2022 16:03:49.670,9 Sep 2022 16:09:30.782,341.112
300,9 Sep 2022 17:38:41.862,9 Sep 2022 17:45:24.308,402.446
301,10 Sep 2022 04:21:09.745,10 Sep 2022 04:28:48.185,458.439
302,10 Sep 2022 05:59:35.750,10 Sep 2022 06:01:38.900,123.150
303,10 Sep 2022 16:00:33.714,10 Sep 2022 16:06:12.284,338.570
304,10 Sep 2022 17:35:24.169,10 Sep 2022 17:42:08.175,404.006
305,11 Sep 2022 04:17:53.153,11 Sep 2022 04:25:30.827,457.674
306,11 Sep 2022 05:56:13.767,11 Sep 2022 05:58:26.296,132.529
307,11 Sep 2022 15:57:17.781,11 Sep 2022 16:02:53.765,335.985
308,11 Sep 2022 17:32:06.486,11 Sep 2022 17:38:52.031,405.545
309,12 Sep 2022 04:14:36.569,12 Sep 2022 04:22:13.463,456.894
310,12 Sep 2022 05:52:52.121,12 Sep 2022 05:55:13.357,141.235
311,12 Sep 2022 15:54:01.862,12 Sep 2022 15:59:35.225,333.364
312,12 Sep 2022 17:28:48.810,12 Sep 2022 17:35:35.876,407.065
313,13 Sep 2022 04:11:19.994,13 Sep 2022 04:18:56.094,456.100
314,13 Sep 2022 05:49:30.754,13 Sep 2022 05:52:00.142,149.388
315,13 Sep 2022 15:50:45.962,13 Sep 2022 15:56:16.663,330.701
316,13 Sep 2022 17:25:31.144,13 Sep 2022 17:32:19.709,408.565
317,14 Sep 2022 04:08:03.427,14 Sep 2022 04:15:38.716,455.289
318,14 Sep 2022 05:46:09.623,14 Sep 2022 05:48:46.696,157.073
319,14 Sep 2022 15:47:30.082,14 Sep 2022 15:52:58.079,327.996
320,14 Sep 2022 17:22:13.485,14 Sep 2022 17:29:03.534,410.048
321,15 Sep 2022 04:04:46.868,15 Sep 2022 04:12:21.333,454.465
322,15 Sep 2022 05:42:48.693,15 Sep 2022 05:45:33.050,164.356
323,15 Sep 2022 15:44:14.223,15 Sep 2022 15:49:39.471,325.248
324,15 Sep 2022 17:18:55.835,15 Sep 2022 17:25:47.345,411.510
325,16 Sep 2022 04:01:30.318,16 Sep 2022 04:09:03.945,453.628
326,16 Sep 2022 05:39:27.941,16 Sep 2022 05:42:19.230,171.289
327,16 Sep 2022 15:40:58.385,16 Sep 2022 15:46:20.839,322.454
328,16 Sep 2022 17:15:38.194,16 Sep 2022 17:22:31.146,412.952
329,17 Sep 2022 03:58:13.776,17 Sep 2022 04:05:46.551,452.775
330,17 Sep 2022 05:36:07.345,17 Sep 2022 05:39:05.255,177.910
331,17 Sep 2022 15:37:42.569,17 Sep 2022 15:43:02.183,319.614
332,17 Sep 2022 17:12:20.560,17 Sep 2022 17:19:14.936,414.376
333,18 Sep 2022 03:54:57.242,18 Sep 2022 04:02:29.151,451.909
334,18 Sep 2022 05:32:46.888,18 Sep 2022 05:35:51.142,184.254
335,18 Sep 2022 15:34:26.775,18 Sep 2022 15:39:43.502,316.726
336,18 Sep 2022 17:09:02.934,18 Sep 2022 17:15:58.715,415.781
337,19 Sep 2022 03:51:40.717,19 Sep 2022 03:59:11.745,451.028
338,19 Sep 2022 05:29:26.557,19 Sep 2022 05:32:36.907,190.350
339,19 Sep 2022 15:31:11.000,19 Sep 2022 15:36:24.800,313.799
340,19 Sep 2022 17:05:45.316,19 Sep 2022 17:12:42.483,417.168
341,20 Sep 2022 03:48:24.201,20 Sep 2022 03:55:54.334,450.132
342,20 Sep 2022 05:26:06.341,20 Sep 2022 05:29:22.562,196.221
343,20 Sep 2022 15:27:55.253,20 Sep 2022 15:33:06.066,310.812
344,20 Sep 2022 17:02:27.706,20 Sep 2022 17:09:26.243,418.537
345,21 Sep 2022 03:45:07.694,21 Sep 2022 03:52:36.916,449.222
346,21 Sep 2022 05:22:46.228,21 Sep 2022 05:26:08.115,201.886
347,21 Sep 2022 15:24:39.531,21 Sep 2022 15:29:47.305,307.773
348,21 Sep 2022 16:59:10.103,21 Sep 2022 17:06:09.991,419.888
349,22 Sep 2022 03:41:51.195,22 Sep 2022 03:49:19.492,448.298
350,22 Sep 2022 05:19:26.212,22 Sep 2022 05:22:53.575,207.363
351,22 Sep 2022 15:21:23.832,22 Sep 2022 15:26:28.520,304.688
352,22 Sep 2022 16:55:52.508,22 Sep 2022 17:02:53.727,421.219
353,23 Sep 2022 03:38:34.705,23 Sep 2022 03:46:02.063,447.358
354,23 Sep 2022 05:16:06.284,23 Sep 2022 05:19:38.952,212.668
355,23 Sep 2022 15:18:08.161,23 Sep 2022 15:23:09.705,301.544
356,23 Sep 2022 16:52:34.921,23 Sep 2022 16:59:37.456,422.535
357,24 Sep 2022 03:35:18.224,24 Sep 2022 03:42:44.627,446.403
358,24 Sep 2022 05:12:46.439,24 Sep 2022 05:16:24.250,217.811
359,24 Sep 2022 15:14:52.513,24 Sep 2022 15:19:50.859,298.347
360,24 Sep 2022 16:49:17.342,24 Sep 2022 16:56:21.173,423.832
361,25 Sep 2022 03:32:01.751,25 Sep 2022 03:39:27.185,445.433
362,25 Sep 2022 05:09:26.670,25 Sep 2022 05:13:09.472,222.802
363,25 Sep 2022 15:11:36.895,25 Sep 2022 15:16:31.984,295.089
364,25 Sep 2022 16:45:59.769,25 Sep 2022 16:53:04.883,425.113
365,26 Sep 2022 03:28:45.288,26 Sep 2022 03:36:09.734,444.446
366,26 Sep 2022 05:06:06.973,26 Sep 2022 05:09:54.625,227.652
367,26 Sep 2022 15:08:21.306,26 Sep 2022 15:13:13.077,291.771
368,26 Sep 2022 16:42:42.205,26 Sep 2022 16:49:48.582,426.377
369,27 Sep 2022 03:25:28.834,27 Sep 2022 03:32:52.280,443.446
370,27 Sep 2022 05:02:47.342,27 Sep 2022 05:06:39.714,232.372
371,27 Sep 2022 15:05:05.746,27 Sep 2022 15:09:54.137,288.392
372,27 Sep 2022 16:39:24.648,27 Sep 2022 16:46:32.269,427.622
373,28 Sep 2022 03:22:12.388,28 Sep 2022 03:29:34.819,442.431
374,28 Sep 2022 04:59:27.775,28 Sep 2022 05:03:24.743,236.968
375,28 Sep 2022 15:01:50.216,28 Sep 2022 15:06:35.164,284.948
376,28 Sep 2022 16:36:07.098,28 Sep 2022 16:43:15.944,428.846
377,29 Sep 2022 03:18:55.952,29 Sep 2022 03:26:17.352,441.399
378,29 Sep 2022 04:56:08.268,29 Sep 2022 05:00:09.710,241.442
379,29 Sep 2022 14:58:34.718,29 Sep 2022 15:03:16.156,281.438
380,29 Sep 2022 16:32:49.555,29 Sep 2022 16:39:59.615,430.060
381,30 Sep 2022 03:15:39.525,30 Sep 2022 03:22:59.875,440.350
382,30 Sep 2022 04:52:48.816,30 Sep 2022 04:56:54.629,245.812
383,30 Sep 2022 14:55:19.253,30 Sep 2022 14:59:57.112,277.859
384,30 Sep 2022 16:29:32.019,30 Sep 2022 16:36:43.273,431.255
385,1 Oct 2022 03:12:23.107,1 Oct 2022 03:19:42.394,439.288
386,1 Oct 2022 04:49:29.418,1 Oct 2022 04:53:39.496,250.078
387,1 Oct 2022 14:52:03.823,1 Oct 2022 14:56:38.031,274.208
388,1 Oct 2022 16:26:14.490,1 Oct 2022 16:33:26.922,432.432
389,2 Oct 2022 03:09:06.698,2 Oct 2022 03:16:24.907,438.210
390,2 Oct 2022 04:46:10.071,2 Oct 2022 04:50:24.316,254.245
391,2 Oct 2022 14:48:48.428,2 Oct 2022 14:53:18.911,270.483
392,2 Oct 2022 16:22:56.967,2 Oct 2022 16:30:10.561,433.593
393,3 Oct 2022 03:05:50.298,3 Oct 2022 03:13:07.413,437.116
394,3 Oct 2022 04:42:50.772,3 Oct 2022 04:47:09.090,258.318
395,3 Oct 2022 14:45:33.067,3 Oct 2022 14:49:59.754,266.687
396,3 Oct 2022 16:19:39.452,3 Oct 2022 16:26:54.190,434.738
397,4 Oct 2022 03:02:33.907,4 Oct 2022 03:09:49.913,436.006
398,4 Oct 2022 04:39:31.520,4 Oct 2022 04:43:53.821,262.301
399,4 Oct 2022 14:42:17.750,4 Oct 2022 14:46:40.551,262.801
400,4 Oct 2022 16:16:21.943,4 Oct 2022 16:23:37.810,435.866
401,5 Oct 2022 02:59:17.526,5 Oct 2022 03:06:32.406,434.880
402,5 Oct 2022 04:36:12.312,5 Oct 2022 04:40:38.508,266.196
403,5 Oct 2022 14:39:02.474,5 Oct 2022 14:43:21.302,258.828
404,5 Oct 2022 16:13:04.441,5 Oct 2022 16:20:21.420,436.979
405,6 Oct 2022 02:56:01.154,6 Oct 2022 03:03:14.893,433.739
406,6 Oct 2022 04:32:53.146,6 Oct 2022 04:37:23.156,270.010
407,6 Oct 2022 14:35:47.241,6 Oct 2022 14:40:02.010,254.768
408,6 Oct 2022 16:09:46.946,6 Oct 2022 16:17:05.017,438.071
409,7 Oct 2022 02:52:44.792,7 Oct 2022 02:59:57.372,432.580
410,7 Oct 2022 04:29:34.022,7 Oct 2022 04:34:07.768,273.746
411,7 Oct 2022 14:32:32.054,7 Oct 2022 14:36:42.670,250.615
412,7 Oct 2022 16:06:29.458,7 Oct 2022 16:13:48.608,439.150
413,8 Oct 2022 02:49:28.439,8 Oct 2022 02:56:39.843,431.404
414,8 Oct 2022 04:26:14.936,8 Oct 2022 04:30:52.343,277.407
415,8 Oct 2022 14:29:16.915,8 Oct 2022 14:33:23.279,246.364
416,8 Oct 2022 16:03:11.976,8 Oct 2022 16:10:32.193,440.217
417,9 Oct 2022 02:46:12.096,9 Oct 2022 02:53:22.308,430.212
418,9 Oct 2022 04:22:55.888,9 Oct 2022 04:27:36.884,280.997
419,9 Oct 2022 14:26:01.827,9 Oct 2022 14:30:03.835,242.009
420,9 Oct 2022 15:59:54.501,9 Oct 2022 16:07:15.767,441.266
421,10 Oct 2022 02:42:55.763,10 Oct 2022 02:50:04.766,429.003
422,10 Oct 2022 04:19:36.876,10 Oct 2022 04:24:21.392,284.516
423,10 Oct 2022 14:22:46.793,10 Oct 2022 14:26:44.340,237.547
424,10 Oct 2022 15:56:37.033,10 Oct 2022 16:03:59.331,442.298
425,11 Oct 2022 02:39:39.440,11 Oct 2022 02:46:47.214,427.774
426,11 Oct 2022 04:16:17.904,11 Oct 2022 04:21:05.868,287.965
427,11 Oct 2022 14:19:31.813,11 Oct 2022 14:23:24.781,232.968
428,11 Oct 2022 15:53:19.571,11 Oct 2022 16:00:42.886,443.315
429,12 Oct 2022 02:36:23.126,12 Oct 2022 02:43:29.656,426.529
430,12 Oct 2022 04:12:58.960,12 Oct 2022 04:17:50.313,291.353
431,12 Oct 2022 14:16:16.893,12 Oct 2022 14:20:05.160,228.268
432,12 Oct 2022 15:50:02.115,12 Oct 2022 15:57:26.435,444.320
433,13 Oct 2022 02:33:06.823,13 Oct 2022 02:40:12.096,425.273
434,13 Oct 2022 04:09:40.049,13 Oct 2022 04:14:34.727,294.678
435,13 Oct 2022 14:13:02.036,13 Oct 2022 14:16:45.472,223.437
436,13 Oct 2022 15:46:44.666,13 Oct 2022 15:54:09.972,445.306
437,14 Oct 2022 02:29:50.529,14 Oct 2022 02:36:54.524,423.994
438,14 Oct 2022 04:06:21.168,14 Oct 2022 04:11:19.112,297.944
439,14 Oct 2022 14:09:47.247,14 Oct 2022 14:13:25.713,218.466
440,14 Oct 2022 15:43:27.223,14 Oct 2022 15:50:53.500,446.278
441,15 Oct 2022 02:26:34.246,15 Oct 2022 02:33:36.943,422.697
442,15 Oct 2022 04:03:02.318,15 Oct 2022 04:08:03.467,301.149
443,15 Oct 2022 14:06:32.531,15 Oct 2022 14:10:05.874,213.343
444,15 Oct 2022 15:40:09.786,15 Oct 2022 15:47:37.020,447.234
445,16 Oct 2022 02:23:17.972,16 Oct 2022 02:30:19.357,421.385
446,16 Oct 2022 03:59:43.499,16 Oct 2022 04:04:47.797,304.297
447,16 Oct 2022 14:03:17.895,16 Oct 2022 14:06:45.959,208.064
448,16 Oct 2022 15:36:52.355,16 Oct 2022 15:44:20.530,448.175
449,17 Oct 2022 02:20:01.709,17 Oct 2022 02:27:01.762,420.053
450,17 Oct 2022 03:56:24.709,17 Oct 2022 04:01:32.103,307.393
451,17 Oct 2022 14:00:03.343,17 Oct 2022 14:03:25.953,202.611
452,17 Oct 2022 15:33:34.930,17 Oct 2022 15:41:04.032,449.102
453,18 Oct 2022 02:16:45.455,18 Oct 2022 02:23:44.161,418.706
454,18 Oct 2022 03:53:05.944,18 Oct 2022 03:58:16.383,310.440
455,18 Oct 2022 13:56:48.883,18 Oct 2022 14:00:05.855,196.972
456,18 Oct 2022 15:30:17.512,18 Oct 2022 15:37:47.526,450.014
457,19 Oct 2022 02:13:29.213,19 Oct 2022 02:20:26.551,417.339
458,19 Oct 2022 03:49:47.206,19 Oct 2022 03:55:00.640,313.434
459,19 Oct 2022 13:53:34.524,19 Oct 2022 13:56:45.654,191.130
460,19 Oct 2022 15:27:00.099,19 Oct 2022 15:34:31.011,450.912
461,20 Oct 2022 02:10:12.980,20 Oct 2022 02:17:08.934,415.954
462,20 Oct 2022 03:46:28.500,20 Oct 2022 03:51:44.867,316.367
463,20 Oct 2022 13:50:20.274,20 Oct 2022 13:53:25.341,185.066
464,20 Oct 2022 15:23:42.692,20 Oct 2022 15:31:14.487,451.795
465,21 Oct 2022 02:06:56.759,21 Oct 2022 02:13:51.309,414.551
466,21 Oct 2022 03:43:09.815,21 Oct 2022 03:48:29.076,319.261
467,21 Oct 2022 13:47:06.146,21 Oct 2022 13:50:04.904,178.758
468,21 Oct 2022 15:20:25.292,21 Oct 2022 15:27:57.955,452.663
469,22 Oct 2022 02:03:40.548,22 Oct 2022 02:10:33.677,413.129
470,22 Oct 2022 03:39:51.155,22 Oct 2022 03:45:13.263,322.108
471,22 Oct 2022 13:43:52.153,22 Oct 2022 13:46:44.328,172.175
472,22 Oct 2022 15:17:07.898,22 Oct 2022 15:24:41.414,453.517
473,23 Oct 2022 02:00:24.348,23 Oct 2022 02:07:16.036,411.688
474,23 Oct 2022 03:36:32.520,23 Oct 2022 03:41:57.428,324.908
475,23 Oct 2022 13:40:38.311,23 Oct 2022 13:43:23.599,165.288
476,23 Oct 2022 15:13:50.509,23 Oct 2022 15:21:24.865,454.356
477,24 Oct 2022 01:57:08.158,24 Oct 2022 02:03:58.385,410.226
478,24 Oct 2022 03:33:13.910,24 Oct 2022 03:38:41.572,327.662
479,24 Oct 2022 13:37:24.640,24 Oct 2022 13:40:02.695,158.056
480,24 Oct 2022 15:10:33.127,24 Oct 2022 15:18:08.307,455.181
481,25 Oct 2022 01:53:51.980,25 Oct 2022 02:00:40.728,408.748
482,25 Oct 2022 03:29:55.322,25 Oct 2022 03:35:25.696,330.373
483,25 Oct 2022 13:34:11.164,25 Oct 2022 13:36:41.594,150.429
484,25 Oct 2022 15:07:15.750,25 Oct 2022 15:14:51.742,455.991
485,26 Oct 2022 01:50:35.813,26 Oct 2022 01:57:23.063,407.249
486,26 Oct 2022 03:26:36.758,26 Oct 2022 03:32:09.800,333.042
487,26 Oct 2022 13:30:57.916,26 Oct 2022 13:33:20.262,142.346
488,26 Oct 2022 15:03:58.380,26 Oct 2022 15:11:35.171,456.792
489,27 Oct 2022 01:47:19.657,27 Oct 2022 01:54:05.389,405.731
490,27 Oct 2022 03:23:18.216,27 Oct 2022 03:28:53.884,335.669
491,27 Oct 2022 13:27:44.937,27 Oct 2022 13:29:58.658,133.721
492,27 Oct 2022 15:00:41.014,27 Oct 2022 15:08:18.589,457.574
493,28 Oct 2022 01:44:03.513,28 Oct 2022 01:50:47.706,404.193
494,28 Oct 2022 03:19:59.690,28 Oct 2022 03:25:37.952,338.262
495,28 Oct 2022 13:24:32.283,28 Oct 2022 13:26:36.723,124.440
496,28 Oct 2022 14:57:23.655,28 Oct 2022 15:05:01.993,458.338
497,29 Oct 2022 01:40:47.379,29 Oct 2022 01:47:30.012,402.633
498,29 Oct 2022 03:16:41.190,29 Oct 2022 03:22:21.997,340.807
499,29 Oct 2022 13:21:20.032,29 Oct 2022 13:23:14.386,114.354
500,29 Oct 2022 14:54:06.301,29 Oct 2022 15:01:45.395,459.094
501,30 Oct 2022 01:37:31.257,30 Oct 2022 01:44:12.312,401.055
502,30 Oct 2022 03:13:22.711,30 Oct 2022 03:19:06.027,343.315
503,30 Oct 2022 13:18:08.307,30 Oct 2022 13:19:51.519,103.212
504,30 Oct 2022 14:50:48.953,30 Oct 2022 14:58:28.786,459.833
505,31 Oct 2022 01:34:15.146,31 Oct 2022 01:40:54.602,399.456
506,31 Oct 2022 03:10:04.252,31 Oct 2022 03:15:50.038,345.786
507,31 Oct 2022 13:14:57.296,31 Oct 2022 13:16:27.932,90.636
508,31 Oct 2022 14:47:31.610,31 Oct 2022 14:55:12.169,460.559
509,1 Nov 2022 01:30:59.047,1 Nov 2022 01:37:36.884,397.837
510,1 Nov 2022 03:06:45.811,1 Nov 2022 03:12:34.033,348.223
511,1 Nov 2022 13:11:47.361,1 Nov 2022 13:13:03.264,75.904
512,1 Nov 2022 14:44:14.273,1 Nov 2022 14:51:55.544,461.271
513,2 Nov 2022 01:27:42.960,2 Nov 2022 01:34:19.157,396.196
514,2 Nov 2022 03:03:27.390,2 Nov 2022 03:09:18.011,350.621
515,2 Nov 2022 13:08:39.313,2 Nov 2022 13:09:36.714,57.401
516,2 Nov 2022 14:40:56.942,2 Nov 2022 14:48:38.913,461.972
517,3 Nov 2022 01:24:26.885,3 Nov 2022 01:31:01.420,394.535
518,3 Nov 2022 03:00:08.989,3 Nov 2022 03:06:01.974,352.984
519,3 Nov 2022 13:05:36.456,3 Nov 2022 13:06:04.970,28.514
520,3 Nov 2022 14:37:39.616,3 Nov 2022 14:45:22.272,462.656
521,4 Nov 2022 01:21:10.823,4 Nov 2022 01:27:43.675,392.853
522,4 Nov 2022 02:56:50.607,4 Nov 2022 03:02:45.920,355.313
523,4 Nov 2022 14:34:22.296,4 Nov 2022 14:42:05.623,463.327
524,5 Nov 2022 01:17:54.772,5 Nov 2022 01:24:25.919,391.147
525,5 Nov 2022 02:53:32.243,5 Nov 2022 02:59:29.851,357.608
526,5 Nov 2022 14:31:04.982,5 Nov 2022 14:38:48.966,463.985
527,6 Nov 2022 01:14:38.735,6 Nov 2022 01:21:08.154,389.419
528,6 Nov 2022 02:50:13.897,6 Nov 2022 02:56:13.766,359.868
529,6 Nov 2022 14:27:47.673,6 Nov 2022 14:35:32.301,464.628
530,7 Nov 2022 01:11:22.709,7 Nov 2022 01:17:50.378,387.669
531,7 Nov 2022 02:46:55.566,7 Nov 2022 02:52:57.663,362.097
532,7 Nov 2022 14:24:30.369,7 Nov 2022 14:32:15.628,465.259
533,8 Nov 2022 01:08:06.697,8 Nov 2022 01:14:32.591,385.894
534,8 Nov 2022 02:43:37.255,8 Nov 2022 02:49:41.548,364.293
535,8 Nov 2022 14:21:13.072,8 Nov 2022 14:28:58.948,465.876
536,9 Nov 2022 01:04:50.697,9 Nov 2022 01:11:14.793,384.096
537,9 Nov 2022 02:40:18.961,9 Nov 2022 02:46:25.418,366.457
538,9 Nov 2022 14:17:55.779,9 Nov 2022 14:25:42.259,466.480
539,10 Nov 2022 01:01:34.710,10 Nov 2022 01:07:56.986,382.275
540,10 Nov 2022 02:37:00.684,10 Nov 2022 02:43:09.274,368.591
541,10 Nov 2022 14:14:38.492,10 Nov 2022 14:22:25.562,467.070
542,11 Nov 2022 00:58:18.737,11 Nov 2022 01:04:39.173,380.437
543,11 Nov 2022 02:33:42.422,11 Nov 2022 02:39:53.116,370.694
544,11 Nov 2022 14:11:21.210,11 Nov 2022 14:19:08.857,467.648
545,12 Nov 2022 00:55:02.776,12 Nov 2022 01:01:21.345,378.569
546,12 Nov 2022 02:30:24.177,12 Nov 2022 02:36:36.948,372.770
547,12 Nov 2022 14:08:03.933,12 Nov 2022 14:15:52.145,468.212
548,13 Nov 2022 00:51:46.829,13 Nov 2022 00:58:03.506,376.677
549,13 Nov 2022 02:27:05.948,13 Nov 2022 02:33:20.763,374.815
550,13 Nov 2022 14:04:46.662,13 Nov 2022 14:12:35.424,468.762
551,14 Nov 2022 00:48:30.896,14 Nov 2022 00:54:45.656,374.760
552,14 Nov 2022 02:23:47.735,14 Nov 2022 02:30:04.565,376.830
553,14 Nov 2022 14:01:29.395,14 Nov 2022 14:09:18.695,469.300
554,15 Nov 2022 00:45:14.976,15 Nov 2022 00:51:27.794,372.818
555,15 Nov 2022 02:20:29.537,15 Nov 2022 02:26:48.358,378.821
556,15 Nov 2022 13:58:12.135,15 Nov 2022 14:06:01.959,469.824
557,16 Nov 2022 00:41:59.071,16 Nov 2022 00:48:09.920,370.849
558,16 Nov 2022 02:17:11.355,16 Nov 2022 02:23:32.131,380.776
559,16 Nov 2022 13:54:54.879,16 Nov 2022 14:02:45.215,470.336
560,17 Nov 2022 00:38:43.180,17 Nov 2022 00:44:52.038,368.858
561,17 Nov 2022 02:13:53.187,17 Nov 2022 02:20:15.896,382.709
562,17 Nov 2022 13:51:37.629,17 Nov 2022 13:59:28.463,470.834
563,18 Nov 2022 00:35:27.303,18 Nov 2022 00:41:34.143,366.840
564,18 Nov 2022 02:10:35.034,18 Nov 2022 02:16:59.650,384.616
565,18 Nov 2022 13:48:20.384,18 Nov 2022 13:56:11.703,471.319
566,19 Nov 2022 00:32:11.442,19 Nov 2022 00:38:16.236,364.795
567,19 Nov 2022 02:07:16.896,19 Nov 2022 02:13:43.393,386.496
568,19 Nov 2022 13:45:03.144,19 Nov 2022 13:52:54.935,471.791
569,20 Nov 2022 00:28:55.595,20 Nov 2022 00:34:58.318,362.723
570,20 Nov 2022 02:03:58.773,20 Nov 2022 02:10:27.123,388.350
571,20 Nov 2022 13:41:45.910,20 Nov 2022 13:49:38.160,472.250
572,21 Nov 2022 00:25:39.764,21 Nov 2022 00:31:40.386,360.623
573,21 Nov 2022 02:00:40.664,21 Nov 2022 02:07:10.841,390.177
574,21 Nov 2022 13:38:28.681,21 Nov 2022 13:46:21.377,472.696
575,22 Nov 2022 00:22:23.948,22 Nov 2022 00:28:22.444,358.496
576,22 Nov 2022 01:57:22.568,22 Nov 2022 02:03:54.547,391.979
577,22 Nov 2022 13:35:11.457,22 Nov 2022 13:43:04.587,473.130
578,23 Nov 2022 00:19:08.147,23 Nov 2022 00:25:04.486,356.339
579,23 Nov 2022 01:54:04.487,23 Nov 2022 02:00:38.243,393.756
580,23 Nov 2022 13:31:54.238,23 Nov 2022 13:39:47.788,473.550
581,24 Nov 2022 00:15:52.366,24 Nov 2022 00:21:46.514,354.149
582,24 Nov 2022 01:50:46.418,24 Nov 2022 01:57:21.925,395.507
583,24 Nov 2022 13:28:37.025,24 Nov 2022 13:36:30.984,473.959
584,25 Nov 2022 00:12:36.597,25 Nov 2022 00:18:28.528,351.931
585,25 Nov 2022 01:47:28.363,25 Nov 2022 01:54:05.598,397.235
586,25 Nov 2022 13:25:19.816,25 Nov 2022 13:33:14.171,474.355
587,26 Nov 2022 00:09:20.845,26 Nov 2022 00:15:10.529,349.684
588,26 Nov 2022 01:44:10.322,26 Nov 2022 01:50:49.260,398.938
589,26 Nov 2022 13:22:02.612,26 Nov 2022 13:29:57.350,474.738
590,27 Nov 2022 00:06:05.109,27 Nov 2022 00:11:52.516,347.406
591,27 Nov 2022 01:40:52.293,27 Nov 2022 01:47:32.911,400.618
592,27 Nov 2022 13:18:45.414,27 Nov 2022 13:26:40.517,475.103
593,28 Nov 2022 00:02:49.391,28 Nov 2022 00:08:34.489,345.098
594,28 Nov 2022 01:37:34.278,28 Nov 2022 01:44:16.552,402.274
595,28 Nov 2022 13:15:28.220,28 Nov 2022 13:23:23.681,475.461
596,28 Nov 2022 23:59:33.692,29 Nov 2022 00:05:16.447,342.755
597,29 Nov 2022 01:34:16.275,29 Nov 2022 01:41:00.185,403.910
598,29 Nov 2022 13:12:11.032,29 Nov 2022 13:20:06.839,475.808
599,29 Nov 2022 23:56:18.008,30 Nov 2022 00:01:58.391,340.383
600,30 Nov 2022 01:30:58.285,30 Nov 2022 01:37:43.806,405.521
601,30 Nov 2022 13:08:53.848,30 Nov 2022 13:16:49.987,476.139
602,30 Nov 2022 23:53:02.342,30 Nov 2022 23:58:40.320,337.977
603,1 Dec 2022 01:27:40.308,1 Dec 2022 01:34:27.417,407.109
604,1 Dec 2022 13:05:36.670,1 Dec 2022 13:13:33.127,476.457
605,1 Dec 2022 23:49:46.695,1 Dec 2022 23:55:22.233,335.538
606,2 Dec 2022 01:24:22.343,2 Dec 2022 01:31:11.018,408.675
607,2 Dec 2022 13:02:19.497,2 Dec 2022 13:10:16.260,476.762
608,2 Dec 2022 23:46:31.066,2 Dec 2022 23:52:04.130,333.064
609,3 Dec 2022 01:21:04.391,3 Dec 2022 01:27:54.610,410.219
610,3 Dec 2022 12:59:02.330,3 Dec 2022 13:06:59.385,477.055
611,3 Dec 2022 23:43:15.462,3 Dec 2022 23:48:46.011,330.549
612,4 Dec 2022 01:17:46.450,4 Dec 2022 01:24:38.194,411.744
613,4 Dec 2022 12:55:45.167,4 Dec 2022 13:03:42.503,477.336
614,4 Dec 2022 23:39:59.873,4 Dec 2022 23:45:27.875,328.002
615,5 Dec 2022 01:14:28.522,5 Dec 2022 01:21:21.768,413.246
616,5 Dec 2022 12:52:28.009,5 Dec 2022 13:00:25.613,477.603
617,5 Dec 2022 23:36:44.303,5 Dec 2022 23:42:09.722,325.418
618,6 Dec 2022 01:11:10.606,6 Dec 2022 01:18:05.331,414.726
619,6 Dec 2022 12:49:10.857,6 Dec 2022 12:57:08.715,477.858
620,6 Dec 2022 23:33:28.755,6 Dec 2022 23:38:51.550,322.795
621,7 Dec 2022 01:07:52.701,7 Dec 2022 01:14:48.886,416.185
622,7 Dec 2022 12:45:53.709,7 Dec 2022 12:53:51.810,478.101
623,7 Dec 2022 23:30:13.228,7 Dec 2022 23:35:33.361,320.133
624,8 Dec 2022 01:04:34.808,8 Dec 2022 01:11:32.433,417.625
625,8 Dec 2022 12:42:36.566,8 Dec 2022 12:50:34.897,478.330
626,8 Dec 2022 23:26:57.723,8 Dec 2022 23:32:15.153,317.430
627,9 Dec 2022 01:01:16.926,9 Dec 2022 01:08:15.968,419.042
628,9 Dec 2022 12:39:19.428,9 Dec 2022 12:47:17.972,478.543
629,9 Dec 2022 23:23:42.239,9 Dec 2022 23:28:56.925,314.685
630,10 Dec 2022 00:57:59.056,10 Dec 2022 01:04:59.497,420.442
631,10 Dec 2022 12:36:02.296,10 Dec 2022 12:44:01.043,478.748
632,10 Dec 2022 23:20:26.779,10 Dec 2022 23:25:38.677,311.898
633,11 Dec 2022 00:54:41.196,11 Dec 2022 01:01:43.015,421.819
634,11 Dec 2022 12:32:45.168,11 Dec 2022 12:40:44.110,478.942
635,11 Dec 2022 23:17:11.337,11 Dec 2022 23:22:20.413,309.076
636,12 Dec 2022 00:51:23.349,12 Dec 2022 00:58:26.528,423.179
637,12 Dec 2022 12:29:28.045,12 Dec 2022 12:37:27.166,479.121
638,12 Dec 2022 23:13:55.924,12 Dec 2022 23:19:02.124,306.200
639,13 Dec 2022 00:48:05.512,13 Dec 2022 00:55:10.031,424.520
640,13 Dec 2022 12:26:10.927,13 Dec 2022 12:34:10.215,479.288
641,13 Dec 2022 23:10:40.536,13 Dec 2022 23:15:43.813,303.278
642,14 Dec 2022 00:44:47.686,14 Dec 2022 00:51:53.526,425.840
643,14 Dec 2022 12:22:53.814,14 Dec 2022 12:30:53.256,479.442
644,14 Dec 2022 23:07:25.169,14 Dec 2022 23:12:25.483,300.314
645,15 Dec 2022 00:41:29.871,15 Dec 2022 00:48:37.007,427.136
646,15 Dec 2022 12:19:36.706,15 Dec 2022 12:27:36.290,479.584
647,15 Dec 2022 23:04:09.828,15 Dec 2022 23:09:07.129,297.300
648,16 Dec 2022 00:38:12.067,16 Dec 2022 00:45:20.486,428.419
649,16 Dec 2022 12:16:19.604,16 Dec 2022 12:24:19.317,479.713
650,16 Dec 2022 23:00:54.516,16 Dec 2022 23:05:48.750,294.234
651,17 Dec 2022 00:34:54.274,17 Dec 2022 00:42:03.958,429.684
652,17 Dec 2022 12:13:02.506,17 Dec 2022 12:21:02.336,479.830
653,17 Dec 2022 22:57:39.231,17 Dec 2022 23:02:30.347,291.117
654,18 Dec 2022 00:31:36.492,18 Dec 2022 00:38:47.419,430.927
655,18 Dec 2022 12:09:45.414,18 Dec 2022 12:17:45.348,479.934
656,18 Dec 2022 22:54:23.973,18 Dec 2022 22:59:11.919,287.946
657,19 Dec 2022 00:28:18.720,19 Dec 2022 00:35:30.872,432.153
658,19 Dec 2022 12:06:28.326,19 Dec 2022 12:14:28.352,480.026
659,19 Dec 2022 22:51:08.744,19 Dec 2022 22:55:53.464,284.721
660,20 Dec 2022 00:25:00.958,20 Dec 2022 00:32:14.318,433.360
661,20 Dec 2022 12:03:11.244,20 Dec 2022 12:11:11.349,480.105
662,20 Dec 2022 22:47:53.544,20 Dec 2022 22:52:34.983,281.439
663,21 Dec 2022 00:21:43.207,21 Dec 2022 00:28:57.756,434.549
664,21 Dec 2022 11:59:54.166,21 Dec 2022 12:07:54.338,480.172
665,21 Dec 2022 22:44:38.376,21 Dec 2022 22:49:16.473,278.097
666,22 Dec 2022 00:18:25.466,22 Dec 2022 00:25:41.184,435.718
667,22 Dec 2022 11:56:37.093,22 Dec 2022 12:04:37.319,480.226
668,22 Dec 2022 22:41:23.239,22 Dec 2022 22:45:57.934,274.695
669,23 Dec 2022 00:15:07.735,23 Dec 2022 00:22:24.606,436.870
670,23 Dec 2022 11:53:20.025,23 Dec 2022 12:01:20.293,480.268
671,23 Dec 2022 22:38:08.131,23 Dec 2022 22:42:39.365,271.234
672,24 Dec 2022 00:11:50.014,24 Dec 2022 00:19:08.020,438.005
673,24 Dec 2022 11:50:02.962,24 Dec 2022 11:58:03.259,480.297
674,24 Dec 2022 22:34:53.061,24 Dec 2022 22:39:20.769,267.708
675,25 Dec 2022 00:08:32.303,25 Dec 2022 00:15:51.426,439.123
676,25 Dec 2022 11:46:45.904,25 Dec 2022 11:54:46.218,480.314
677,25 Dec 2022 22:31:38.027,25 Dec 2022 22:36:02.133,264.105
678,26 Dec 2022 00:05:14.602,26 Dec 2022 00:12:34.825,440.222
679,26 Dec 2022 11:43:28.851,26 Dec 2022 11:51:29.169,480.318
680,26 Dec 2022 22:28:23.030,26 Dec 2022 22:32:43.466,260.436
681,27 Dec 2022 00:01:56.911,27 Dec 2022 00:09:18.219,441.308
682,27 Dec 2022 11:40:11.803,27 Dec 2022 11:48:12.113,480.309
683,27 Dec 2022 22:25:08.072,27 Dec 2022 22:29:24.762,256.690
684,27 Dec 2022 23:58:39.230,28 Dec 2022 00:06:01.604,442.373
685,28 Dec 2022 11:36:54.760,28 Dec 2022 11:44:55.049,480.289
686,28 Dec 2022 22:21:53.153,28 Dec 2022 22:26:06.022,252.869
687,28 Dec 2022 23:55:21.559,29 Dec 2022 00:02:44.981,443.422
688,29 Dec 2022 11:33:37.723,29 Dec 2022 11:41:37.978,480.255
689,29 Dec 2022 22:18:38.277,29 Dec 2022 22:22:47.244,248.967
690,29 Dec 2022 23:52:03.898,29 Dec 2022 23:59:28.352,444.454
691,30 Dec 2022 11:30:20.690,30 Dec 2022 11:38:20.899,480.209
692,30 Dec 2022 22:15:23.445,30 Dec 2022 22:19:28.424,244.979
693,30 Dec 2022 23:48:46.246,30 Dec 2022 23:56:11.716,445.469
694,31 Dec 2022 11:27:03.663,31 Dec 2022 11:35:03.813,480.151
695,31 Dec 2022 22:12:08.659,31 Dec 2022 22:16:09.561,240.902
696,31 Dec 2022 23:45:28.604,31 Dec 2022 23:52:55.075,446.471
697,1 Jan 2023 11:23:46.640,1 Jan 2023 11:31:46.720,480.079
698,1 Jan 2023 22:08:53.921,1 Jan 2023 22:12:50.653,236.732
699,1 Jan 2023 23:42:10.972,1 Jan 2023 23:49:38.425,447.453
700,2 Jan 2023 11:20:29.623,2 Jan 2023 11:28:29.619,479.996
701,2 Jan 2023 22:05:39.234,2 Jan 2023 22:09:31.700,232.465
702,2 Jan 2023 23:38:53.348,2 Jan 2023 23:46:21.768,448.419
703,3 Jan 2023 11:17:12.611,3 Jan 2023 11:25:12.510,479.899
704,3 Jan 2023 22:02:24.601,3 Jan 2023 22:06:12.692,228.091
705,3 Jan 2023 23:35:35.734,3 Jan 2023 23:43:05.104,449.369
706,4 Jan 2023 11:13:55.603,4 Jan 2023 11:21:55.393,479.790
707,4 Jan 2023 21:59:10.023,4 Jan 2023 22:02:53.632,223.608
708,4 Jan 2023 23:32:18.130,4 Jan 2023 23:39:48.433,450.303
709,5 Jan 2023 11:10:38.601,5 Jan 2023 11:18:38.269,479.669
710,5 Jan 2023 21:55:55.507,5 Jan 2023 21:59:34.513,219.006
711,5 Jan 2023 23:29:00.534,5 Jan 2023 23:36:31.755,451.221
712,6 Jan 2023 11:07:21.603,6 Jan 2023 11:15:21.137,479.534
713,6 Jan 2023 21:52:41.054,6 Jan 2023 21:56:15.330,214.277
714,6 Jan 2023 23:25:42.948,6 Jan 2023 23:33:15.071,452.123
715,7 Jan 2023 11:04:04.611,7 Jan 2023 11:12:03.998,479.387
716,7 Jan 2023 21:49:26.668,7 Jan 2023 21:52:56.089,209.420
717,7 Jan 2023 23:22:25.371,7 Jan 2023 23:29:58.381,453.010
718,8 Jan 2023 11:00:47.624,8 Jan 2023 11:08:46.851,479.227
719,8 Jan 2023 21:46:12.356,8 Jan 2023 21:49:36.770,204.414
720,8 Jan 2023 23:19:07.803,8 Jan 2023 23:26:41.684,453.881
721,9 Jan 2023 10:57:30.641,9 Jan 2023 11:05:29.694,479.053
722,9 Jan 2023 21:42:58.122,9 Jan 2023 21:46:17.380,199.258
723,9 Jan 2023 23:15:50.244,9 Jan 2023 23:23:24.980,454.736
724,10 Jan 2023 10:54:13.664,10 Jan 2023 11:02:12.532,478.868
725,10 Jan 2023 21:39:43.971,10 Jan 2023 21:42:57.910,193.938
726,10 Jan 2023 23:12:32.694,10 Jan 2023 23:20:08.270,455.576
727,11 Jan 2023 10:50:56.692,11 Jan 2023 10:58:55.366,478.673
728,11 Jan 2023 21:36:29.913,11 Jan 2023 21:39:38.351,188.439
729,11 Jan 2023 23:09:15.153,11 Jan 2023 23:16:51.555,456.402
730,12 Jan 2023 10:47:39.726,12 Jan 2023 10:55:38.188,478.462
731,12 Jan 2023 21:33:15.953,12 Jan 2023 21:36:18.697,182.744
732,12 Jan 2023 23:05:57.621,12 Jan 2023 23:13:34.832,457.210
733,13 Jan 2023 10:44:22.764,13 Jan 2023 10:52:21.003,478.238
734,13 Jan 2023 21:30:02.103,13 Jan 2023 21:32:58.938,176.835
735,13 Jan 2023 23:02:40.098,13 Jan 2023 23:10:18.104,458.005
736,14 Jan 2023 10:41:05.808,14 Jan 2023 10:49:03.810,478.001
737,14 Jan 2023 21:26:48.372,14 Jan 2023 21:29:39.059,170.687
738,14 Jan 2023 22:59:22.584,14 Jan 2023 23:07:01.368,458.784
739,15 Jan 2023 10:37:48.857,15 Jan 2023 10:45:46.609,477.752
740,15 Jan 2023 21:23:34.775,15 Jan 2023 21:26:19.050,164.275
741,15 Jan 2023 22:56:05.079,15 Jan 2023 23:03:44.626,459.547
742,16 Jan 2023 10:34:31.912,16 Jan 2023 10:42:29.401,477.489
743,16 Jan 2023 21:20:21.328,16 Jan 2023 21:22:58.895,157.567
744,16 Jan 2023 22:52:47.583,16 Jan 2023 23:00:27.880,460.298
745,17 Jan 2023 10:31:14.971,17 Jan 2023 10:39:12.185,477.214
746,17 Jan 2023 21:17:08.050,17 Jan 2023 21:19:38.573,150.523
747,17 Jan 2023 22:49:30.095,17 Jan 2023 22:57:11.126,461.032
748,18 Jan 2023 10:27:58.036,18 Jan 2023 10:35:54.961,476.925
749,18 Jan 2023 21:13:54.966,18 Jan 2023 21:16:18.059,143.093
750,18 Jan 2023 22:46:12.615,18 Jan 2023 22:53:54.366,461.751
751,19 Jan 2023 10:24:41.105,19 Jan 2023 10:32:37.729,476.623
752,19 Jan 2023 21:10:42.108,19 Jan 2023 21:12:57.323,135.215
753,19 Jan 2023 22:42:55.144,19 Jan 2023 22:50:37.600,462.455
754,20 Jan 2023 10:21:24.180,20 Jan 2023 10:29:20.489,476.309
755,20 Jan 2023 21:07:29.518,20 Jan 2023 21:09:36.318,126.800
756,20 Jan 2023 22:39:37.682,20 Jan 2023 22:47:20.827,463.145
757,21 Jan 2023 10:18:07.260,21 Jan 2023 10:26:03.239,475.979
758,21 Jan 2023 21:04:17.249,21 Jan 2023 21:06:15.000,117.750
759,21 Jan 2023 22:36:20.228,21 Jan 2023 22:44:04.051,463.823
760,22 Jan 2023 10:14:50.345,22 Jan 2023 10:22:45.981,475.636
761,22 Jan 2023 21:01:05.388,22 Jan 2023 21:02:53.272,107.884
762,22 Jan 2023 22:33:02.783,22 Jan 2023 22:40:47.266,464.484
763,23 Jan 2023 10:11:33.436,23 Jan 2023 10:19:28.722,475.286
764,23 Jan 2023 20:57:54.052,23 Jan 2023 20:59:31.026,96.974
765,23 Jan 2023 22:29:45.346,23 Jan 2023 22:37:30.476,465.130
766,24 Jan 2023 10:08:16.532,24 Jan 2023 10:16:11.450,474.918
767,24 Jan 2023 20:54:43.450,24 Jan 2023 20:56:08.047,84.597
768,24 Jan 2023 22:26:27.917,24 Jan 2023 22:34:13.680,465.763
769,25 Jan 2023 10:04:59.634,25 Jan 2023 10:12:54.168,474.534
770,25 Jan 2023 20:51:33.966,25 Jan 2023 20:52:43.952,69.986
771,25 Jan 2023 22:23:10.497,25 Jan 2023 22:30:56.878,466.380
772,26 Jan 2023 10:01:42.741,26 Jan 2023 10:09:36.881,474.141
773,26 Jan 2023 20:48:26.532,26 Jan 2023 20:49:17.814,51.282
774,26 Jan 2023 22:19:53.086,26 Jan 2023 22:27:40.070,466.984
775,27 Jan 2023 09:58:25.853,27 Jan 2023 10:06:19.588,473.735
776,27 Jan 2023 20:45:26.040,27 Jan 2023 20:45:44.735,18.695
777,27 Jan 2023 22:16:35.683,27 Jan 2023 22:24:23.257,467.575
778,28 Jan 2023 09:55:08.971,28 Jan 2023 10:03:02.284,473.313
779,28 Jan 2023 22:13:18.288,28 Jan 2023 22:21:06.439,468.151
780,29 Jan 2023 09:51:52.094,29 Jan 2023 09:59:44.974,472.879
781,29 Jan 2023 22:10:00.902,29 Jan 2023 22:17:49.615,468.713
782,30 Jan 2023 09:48:35.223,30 Jan 2023 09:56:27.655,472.432
783,30 Jan 2023 22:06:43.523,30 Jan 2023 22:14:32.785,469.261
784,31 Jan 2023 09:45:18.357,31 Jan 2023 09:53:10.329,471.971
785,31 Jan 2023 22:03:26.153,31 Jan 2023 22:11:15.949,469.796
786,1 Feb 2023 09:42:01.497,1 Feb 2023 09:49:52.994,471.497
787,1 Feb 2023 22:00:08.791,1 Feb 2023 22:07:59.108,470.317
788,2 Feb 2023 09:38:44.642,2 Feb 2023 09:46:35.651,471.009
789,2 Feb 2023 21:56:51.437,2 Feb 2023 22:04:42.261,470.824
790,3 Feb 2023 09:35:27.793,3 Feb 2023 09:43:18.300,470.508
791,3 Feb 2023 21:53:34.091,3 Feb 2023 22:01:25.408,471.317
792,4 Feb 2023 09:32:10.949,4 Feb 2023 09:40:00.941,469.992
793,4 Feb 2023 21:50:16.753,4 Feb 2023 21:58:08.549,471.796
794,5 Feb 2023 09:28:54.111,5 Feb 2023 09:36:43.574,469.463
795,5 Feb 2023 21:46:59.423,5 Feb 2023 21:54:51.686,472.262
796,6 Feb 2023 09:25:37.278,6 Feb 2023 09:33:26.198,468.920
797,6 Feb 2023 21:43:42.101,6 Feb 2023 21:51:34.816,472.714
798,7 Feb 2023 09:22:20.451,7 Feb 2023 09:30:08.815,468.363
799,7 Feb 2023 21:40:24.788,7 Feb 2023 21:48:17.943,473.155
800,8 Feb 2023 09:19:03.630,8 Feb 2023 09:26:51.423,467.793
801,8 Feb 2023 21:37:07.482,8 Feb 2023 21:45:01.062,473.580
802,9 Feb 2023 09:15:46.815,9 Feb 2023 09:23:34.023,467.208
803,9 Feb 2023 10:54:13.656,9 Feb 2023 10:54:55.755,42.099
804,9 Feb 2023 21:33:50.184,9 Feb 2023 21:41:44.176,473.992
805,10 Feb 2023 09:12:30.006,10 Feb 2023 09:20:16.615,466.609
806,10 Feb 2023 10:50:46.120,10 Feb 2023 10:51:49.722,63.601
807,10 Feb 2023 21:30:32.895,10 Feb 2023 21:38:27.288,474.393
808,11 Feb 2023 09:09:13.202,11 Feb 2023 09:16:59.198,465.996
809,11 Feb 2023 10:47:21.427,11 Feb 2023 10:48:40.839,79.412
810,11 Feb 2023 21:27:15.613,11 Feb 2023 21:35:10.393,474.780
811,12 Feb 2023 09:05:56.404,12 Feb 2023 09:13:41.774,465.369
812,12 Feb 2023 10:43:58.092,12 Feb 2023 10:45:30.598,92.506
813,12 Feb 2023 21:23:58.340,12 Feb 2023 21:31:53.488,475.148
814,13 Feb 2023 09:02:39.612,13 Feb 2023 09:10:24.341,464.728
815,13 Feb 2023 10:40:35.601,13 Feb 2023 10:42:19.508,103.906
816,13 Feb 2023 21:20:41.074,13 Feb 2023 21:28:36.583,475.509
817,14 Feb 2023 08:59:22.826,14 Feb 2023 09:07:06.900,464.073
818,14 Feb 2023 10:37:13.698,14 Feb 2023 10:39:07.824,114.127
819,14 Feb 2023 21:17:23.816,14 Feb 2023 21:25:19.673,475.857
820,15 Feb 2023 08:56:06.046,15 Feb 2023 09:03:49.450,463.404
821,15 Feb 2023 10:33:52.239,15 Feb 2023 10:35:55.698,123.458
822,15 Feb 2023 21:14:06.565,15 Feb 2023 21:22:02.756,476.190
823,16 Feb 2023 08:52:49.272,16 Feb 2023 09:00:31.992,462.720
824,16 Feb 2023 10:30:31.126,16 Feb 2023 10:32:43.216,132.089
825,16 Feb 2023 21:10:49.323,16 Feb 2023 21:18:45.833,476.510
826,17 Feb 2023 08:49:32.503,17 Feb 2023 08:57:14.522,462.019
827,17 Feb 2023 10:27:10.299,17 Feb 2023 10:29:30.454,140.155
828,17 Feb 2023 21:07:32.088,17 Feb 2023 21:15:28.904,476.816
829,18 Feb 2023 08:46:15.741,18 Feb 2023 08:53:57.047,461.306
830,18 Feb 2023 10:23:49.706,18 Feb 2023 10:26:17.449,147.743
831,18 Feb 2023 21:04:14.861,18 Feb 2023 21:12:11.971,477.110
832,19 Feb 2023 08:42:58.984,19 Feb 2023 08:50:39.562,460.578
833,19 Feb 2023 10:20:29.315,19 Feb 2023 10:23:04.239,154.924
834,19 Feb 2023 21:00:57.641,19 Feb 2023 21:08:55.032,477.390
835,20 Feb 2023 08:39:42.234,20 Feb 2023 08:47:22.070,459.836
836,20 Feb 2023 10:17:09.099,20 Feb 2023 10:19:50.852,161.753
837,20 Feb 2023 20:57:40.430,20 Feb 2023 21:05:38.088,477.658
838,21 Feb 2023 08:36:25.490,21 Feb 2023 08:44:04.566,459.076
839,21 Feb 2023 10:13:49.036,21 Feb 2023 10:16:37.309,168.273
840,21 Feb 2023 20:54:23.226,21 Feb 2023 21:02:21.136,477.910
841,22 Feb 2023 08:33:08.752,22 Feb 2023 08:40:47.059,458.307
842,22 Feb 2023 10:10:29.110,22 Feb 2023 10:13:23.627,174.517
843,22 Feb 2023 20:51:06.030,22 Feb 2023 20:59:04.182,478.152
844,23 Feb 2023 08:29:52.021,23 Feb 2023 08:37:29.537,457.516
845,23 Feb 2023 10:07:09.306,23 Feb 2023 10:10:09.820,180.514
846,23 Feb 2023 20:47:48.842,23 Feb 2023 20:55:47.222,478.380
847,24 Feb 2023 08:26:35.296,24 Feb 2023 08:34:12.008,456.712
848,24 Feb 2023 10:03:49.612,24 Feb 2023 10:06:55.898,186.286
849,24 Feb 2023 20:44:31.662,24 Feb 2023 20:52:30.257,478.596
850,25 Feb 2023 08:23:18.578,25 Feb 2023 08:30:54.470,455.893
851,25 Feb 2023 10:00:30.019,25 Feb 2023 10:03:41.875,191.856
852,25 Feb 2023 20:41:14.489,25 Feb 2023 20:49:13.288,478.798
853,26 Feb 2023 08:20:01.865,26 Feb 2023 08:27:36.924,455.059
854,26 Feb 2023 09:57:10.516,26 Feb 2023 10:00:27.757,197.241
855,26 Feb 2023 20:37:57.324,26 Feb 2023 20:45:56.312,478.988
856,27 Feb 2023 08:16:45.159,27 Feb 2023 08:24:19.370,454.210
857,27 Feb 2023 09:53:51.098,27 Feb 2023 09:57:13.553,202.456
858,27 Feb 2023 20:34:40.167,27 Feb 2023 20:42:39.332,479.165
859,28 Feb 2023 08:13:28.460,28 Feb 2023 08:21:01.806,453.346
860,28 Feb 2023 09:50:31.757,28 Feb 2023 09:53:59.270,207.513
861,28 Feb 2023 20:31:23.017,28 Feb 2023 20:39:22.347,479.330
862,1 Mar 2023 08:10:11.767,1 Mar 2023 08:17:44.232,452.465
863,1 Mar 2023 09:47:12.488,1 Mar 2023 09:50:44.914,212.426
864,1 Mar 2023 20:28:05.875,1 Mar 2023 20:36:05.359,479.484
865,2 Mar 2023 08:06:55.080,2 Mar 2023 08:14:26.650,451.570
866,2 Mar 2023 09:43:53.285,2 Mar 2023 09:47:30.483,217.198
867,2 Mar 2023 20:24:48.740,2 Mar 2023 20:32:48.363,479.623
868,3 Mar 2023 08:03:38.400,3 Mar 2023 08:11:09.058,450.658
869,3 Mar 2023 09:40:34.145,3 Mar 2023 09:44:15.993,221.847
870,3 Mar 2023 20:21:31.613,3 Mar 2023 20:29:31.363,479.749
871,4 Mar 2023 08:00:21.727,4 Mar 2023 08:07:51.457,449.730
872,4 Mar 2023 09:37:15.064,4 Mar 2023 09:41:01.438,226.374
873,4 Mar 2023 20:18:14.494,4 Mar 2023 20:26:14.357,479.863
874,5 Mar 2023 07:57:05.060,5 Mar 2023 08:04:33.847,448.787
875,5 Mar 2023 09:33:56.037,5 Mar 2023 09:37:46.825,230.788
876,5 Mar 2023 20:14:57.382,5 Mar 2023 20:22:57.346,479.964
877,6 Mar 2023 07:53:48.401,6 Mar 2023 08:01:16.228,447.827
878,6 Mar 2023 09:30:37.062,6 Mar 2023 09:34:32.158,235.096
879,6 Mar 2023 20:11:40.278,6 Mar 2023 20:19:40.330,480.052
880,7 Mar 2023 07:50:31.748,7 Mar 2023 07:57:58.600,446.852
881,7 Mar 2023 09:27:18.135,7 Mar 2023 09:31:17.435,239.300
882,7 Mar 2023 20:08:23.181,7 Mar 2023 20:16:23.310,480.128
883,8 Mar 2023 07:47:15.102,8 Mar 2023 07:54:40.962,445.860
884,8 Mar 2023 09:23:59.255,8 Mar 2023 09:28:02.667,243.411
885,8 Mar 2023 20:05:06.092,8 Mar 2023 20:13:06.284,480.191
886,9 Mar 2023 07:43:58.464,9 Mar 2023 07:51:23.314,444.851
887,9 Mar 2023 09:20:40.420,9 Mar 2023 09:24:47.852,247.432
888,9 Mar 2023 20:01:49.011,9 Mar 2023 20:09:49.253,480.242
889,10 Mar 2023 07:40:41.832,10 Mar 2023 07:48:05.655,443.823
890,10 Mar 2023 09:17:21.626,10 Mar 2023 09:21:32.992,251.366
891,10 Mar 2023 19:58:31.938,10 Mar 2023 20:06:32.218,480.280
892,11 Mar 2023 07:37:25.207,11 Mar 2023 07:44:47.989,442.781
893,11 Mar 2023 09:14:02.872,11 Mar 2023 09:18:18.090,255.217
894,11 Mar 2023 19:55:14.872,11 Mar 2023 20:03:15.177,480.306
895,12 Mar 2023 07:34:08.590,12 Mar 2023 07:41:30.313,441.723
896,12 Mar 2023 09:10:44.161,12 Mar 2023 09:15:03.146,258.985
897,12 Mar 2023 19:51:57.813,12 Mar 2023 19:59:58.132,480.319
898,13 Mar 2023 07:30:51.980,13 Mar 2023 07:38:12.627,440.647
899,13 Mar 2023 09:07:25.482,13 Mar 2023 09:11:48.165,262.683
900,13 Mar 2023 19:48:40.762,13 Mar 2023 19:56:41.081,480.319
901,14 Mar 2023 07:27:35.377,14 Mar 2023 07:34:54.929,439.552
902,14 Mar 2023 09:04:06.838,14 Mar 2023 09:08:33.146,266.308
903,14 Mar 2023 19:45:23.719,14 Mar 2023 19:53:24.026,480.307
904,15 Mar 2023 07:24:18.781,15 Mar 2023 07:31:37.223,438.442
905,15 Mar 2023 09:00:48.227,15 Mar 2023 09:05:18.092,269.865
906,15 Mar 2023 19:42:06.683,15 Mar 2023 19:50:06.965,480.282
907,16 Mar 2023 07:21:02.193,16 Mar 2023 07:28:19.511,437.318
908,16 Mar 2023 08:57:29.647,16 Mar 2023 09:02:02.997,273.349
909,16 Mar 2023 19:38:49.654,16 Mar 2023 19:46:49.899,480.245
910,17 Mar 2023 07:17:45.612,17 Mar 2023 07:25:01.784,436.172
911,17 Mar 2023 08:54:11.099,17 Mar 2023 08:58:47.872,276.774
912,17 Mar 2023 19:35:32.633,17 Mar 2023 19:43:32.828,480.195
913,18 Mar 2023 07:14:29.038,18 Mar 2023 07:21:44.047,435.009
914,18 Mar 2023 08:50:52.579,18 Mar 2023 08:55:32.716,280.137
915,18 Mar 2023 19:32:15.619,18 Mar 2023 19:40:15.752,480.133
916,19 Mar 2023 07:11:12.473,19 Mar 2023 07:18:26.300,433.827
917,19 Mar 2023 08:47:34.088,19 Mar 2023 08:52:17.528,283.440
918,19 Mar 2023 19:28:58.613,19 Mar 2023 19:36:58.671,480.058
919,20 Mar 2023 07:07:55.915,20 Mar 2023 07:15:08.543,432.628
920,20 Mar 2023 08:44:15.624,20 Mar 2023 08:49:02.310,286.687
921,20 Mar 2023 19:25:41.615,20 Mar 2023 19:33:41.586,479.971
922,21 Mar 2023 07:04:39.365,21 Mar 2023 07:11:50.775,431.410
923,21 Mar 2023 08:40:57.187,21 Mar 2023 08:45:47.064,289.877
924,21 Mar 2023 19:22:24.624,21 Mar 2023 19:30:24.495,479.871
925,22 Mar 2023 07:01:22.823,22 Mar 2023 07:08:32.996,430.173
926,22 Mar 2023 08:37:38.774,22 Mar 2023 08:42:31.789,293.015
927,22 Mar 2023 19:19:07.641,22 Mar 2023 19:27:07.400,479.759
928,23 Mar 2023 06:58:06.289,23 Mar 2023 07:05:15.204,428.915
929,23 Mar 2023 08:34:20.386,23 Mar 2023 08:39:16.487,296.101
930,23 Mar 2023 19:15:50.665,23 Mar 2023 19:23:50.299,479.634
931,24 Mar 2023 06:54:49.763,24 Mar 2023 07:01:57.409,427.646
932,24 Mar 2023 08:31:02.025,24 Mar 2023 08:36:01.158,299.133
933,24 Mar 2023 19:12:33.698,24 Mar 2023 19:20:33.194,479.497
934,25 Mar 2023 06:51:33.246,25 Mar 2023 06:58:39.599,426.353
935,25 Mar 2023 08:27:43.684,25 Mar 2023 08:32:45.803,302.119
936,25 Mar 2023 19:09:16.737,25 Mar 2023 19:17:16.084,479.347
937,26 Mar 2023 06:48:16.737,26 Mar 2023 06:55:21.777,425.040
938,26 Mar 2023 08:24:25.367,26 Mar 2023 08:29:30.422,305.055
939,26 Mar 2023 19:05:59.784,26 Mar 2023 19:13:58.969,479.184
940,27 Mar 2023 06:45:00.235,27 Mar 2023 06:52:03.943,423.708
941,27 Mar 2023 08:21:07.070,27 Mar 2023 08:26:15.016,307.947
942,27 Mar 2023 19:02:42.839,27 Mar 2023 19:10:41.846,479.007
943,28 Mar 2023 06:41:43.743,28 Mar 2023 06:48:46.101,422.358
944,28 Mar 2023 08:17:48.798,28 Mar 2023 08:22:59.583,310.785
945,28 Mar 2023 18:59:25.901,28 Mar 2023 19:07:24.720,478.820
946,29 Mar 2023 06:38:27.258,29 Mar 2023 06:45:28.246,420.987
947,29 Mar 2023 08:14:30.543,29 Mar 2023 08:19:44.131,313.588
948,29 Mar 2023 18:56:08.971,29 Mar 2023 19:04:07.590,478.620
949,30 Mar 2023 06:35:10.783,30 Mar 2023 06:42:10.382,419.599
950,30 Mar 2023 08:11:12.308,30 Mar 2023 08:16:28.656,316.348
951,30 Mar 2023 18:52:52.048,30 Mar 2023 19:00:50.455,478.407
952,31 Mar 2023 06:31:54.316,31 Mar 2023 06:38:52.504,418.189
953,31 Mar 2023 08:07:54.093,31 Mar 2023 08:13:13.159,319.066
954,31 Mar 2023 18:49:35.132,31 Mar 2023 18:57:33.314,478.182
955,1 Apr 2023 06:28:37.858,1 Apr 2023 06:35:34.615,416.758
956,1 Apr 2023 08:04:35.896,1 Apr 2023 08:09:57.640,321.744
957,1 Apr 2023 18:46:18.224,1 Apr 2023 18:54:16.169,477.945
958,2 Apr 2023 06:25:21.409,2 Apr 2023 06:32:16.716,415.307
959,2 Apr 2023 08:01:17.718,2 Apr 2023 08:06:42.100,324.381
960,2 Apr 2023 18:43:01.324,2 Apr 2023 18:50:59.018,477.694
961,3 Apr 2023 06:22:04.969,3 Apr 2023 06:28:58.804,413.835
962,3 Apr 2023 07:57:59.559,3 Apr 2023 08:03:26.539,326.980
963,3 Apr 2023 18:39:44.431,3 Apr 2023 18:47:41.863,477.431
964,4 Apr 2023 06:18:48.538,4 Apr 2023 06:25:40.881,412.343
965,4 Apr 2023 07:54:41.417,4 Apr 2023 08:00:10.958,329.541
966,4 Apr 2023 18:36:27.546,4 Apr 2023 18:44:24.704,477.158
967,5 Apr 2023 06:15:32.117,5 Apr 2023 06:22:22.946,410.829
968,5 Apr 2023 07:51:23.292,5 Apr 2023 07:56:55.357,332.065
969,5 Apr 2023 18:33:10.669,5 Apr 2023 18:41:07.538,476.869
970,6 Apr 2023 06:12:15.706,6 Apr 2023 06:19:04.997,409.291
971,6 Apr 2023 07:48:05.179,6 Apr 2023 07:53:39.737,334.558
972,6 Apr 2023 18:29:53.799,6 Apr 2023 18:37:50.367,476.568
973,7 Apr 2023 06:08:59.304,7 Apr 2023 06:15:47.038,407.734
974,7 Apr 2023 07:44:47.088,7 Apr 2023 07:50:24.098,337.010
975,7 Apr 2023 18:26:36.938,7 Apr 2023 18:34:33.192,476.254
976,8 Apr 2023 06:05:42.912,8 Apr 2023 06:12:29.067,406.156
977,8 Apr 2023 07:41:29.013,8 Apr 2023 07:47:08.441,339.428
978,8 Apr 2023 18:23:20.083,8 Apr 2023 18:31:16.011,475.928
