data/Partner_Institute/Skyhopper_Partner-Boulder_AER_1year.csv

"Time (UTCG)","Azimuth (deg)","Elevation (deg)","Range (km)"
1 Jun 2022 01:34:18.033,44.842,-25.032,1841.554200
1 Jun 2022 01:35:18.000,55.967,-27.025,1565.519382
1 Jun 2022 01:36:18.000,71.768,-29.278,1369.730425
1 Jun 2022 01:37:18.000,91.803,-30.448,1292.649503
1 Jun 2022 01:38:18.000,112.125,-29.484,1355.243892
1 Jun 2022 01:39:18.000,128.488,-27.265,1540.546299
1 Jun 2022 01:40:18.000,140.104,-25.204,1810.807129
1 Jun 2022 01:40:20.226,140.458,-25.140,1822.002865
1 Jun 2022 03:09:21.100,329.753,-25.022,1843.430803
1 Jun 2022 03:10:21.000,320.166,-27.497,1517.630251
1 Jun 2022 03:11:21.000,305.049,-31.023,1258.977697
1 Jun 2022 03:12:21.000,282.655,-33.981,1117.507809
1 Jun 2022 03:13:21.000,256.968,-33.481,1138.372544
1 Jun 2022 03:14:21.000,236.338,-30.109,1313.707001
1 Jun 2022 03:15:21.000,222.836,-26.777,1592.647482
1 Jun 2022 03:16:02.622,216.496,-25.139,1822.266298
1 Jun 2022 13:53:06.130,343.592,-25.155,1819.328842
1 Jun 2022 13:54:06.000,339.248,-28.532,1426.338136
1 Jun 2022 13:55:06.000,330.844,-35.380,1064.283900
1 Jun 2022 13:56:06.000,310.287,-47.708,782.213625
1 Jun 2022 13:57:06.000,258.308,-55.674,688.618689
1 Jun 2022 13:58:06.000,215.814,-43.709,848.709544
1 Jun 2022 13:59:06.000,200.274,-32.955,1161.508396
1 Jun 2022 14:00:06.000,193.411,-27.315,1535.513564
1 Jun 2022 14:00:52.619,190.337,-25.018,1844.189654
1 Jun 2022 15:32:04.794,78.726,-25.091,1830.890275
1 Jun 2022 15:33:04.000,92.459,-25.150,1820.301550
1 Jun 2022 15:33:20.963,96.345,-25.068,1835.002680
2 Jun 2022 01:31:01.874,45.226,-25.033,1841.511207
2 Jun 2022 01:32:01.000,56.230,-26.974,1571.027381
2 Jun 2022 01:33:01.000,71.986,-29.183,1376.611208
2 Jun 2022 01:34:01.000,91.892,-30.320,1300.513416
2 Jun 2022 01:35:01.000,112.060,-29.369,1363.247993
2 Jun 2022 01:36:01.000,128.332,-27.193,1547.991396
2 Jun 2022 01:37:01.000,139.921,-25.166,1817.448535
2 Jun 2022 01:37:01.924,140.068,-25.140,1822.073691
2 Jun 2022 03:06:03.435,330.087,-25.022,1843.451370
2 Jun 2022 03:07:03.000,320.641,-27.495,1517.758363
2 Jun 2022 03:08:03.000,305.625,-31.070,1256.360757
2 Jun 2022 03:09:03.000,283.210,-34.132,1111.419443
2 Jun 2022 03:10:03.000,257.276,-33.695,1129.314267
2 Jun 2022 03:11:03.000,236.397,-30.276,1303.213405
2 Jun 2022 03:12:03.000,222.775,-26.874,1581.844093
2 Jun 2022 03:12:46.467,216.160,-25.139,1822.200492
2 Jun 2022 13:49:49.424,343.295,-25.155,1819.358274
2 Jun 2022 13:50:49.000,338.888,-28.501,1428.868020
2 Jun 2022 13:51:49.000,330.355,-35.286,1067.637737
2 Jun 2022 13:52:49.000,309.679,-47.403,786.727736
2 Jun 2022 13:53:49.000,258.501,-55.137,693.699950
2 Jun 2022 13:54:49.000,216.419,-43.492,852.810793
2 Jun 2022 13:55:49.000,200.724,-32.889,1164.495944
2 Jun 2022 13:56:49.000,193.747,-27.293,1537.771439
2 Jun 2022 13:57:35.338,190.631,-25.018,1844.184947
2 Jun 2022 15:28:40.382,77.062,-25.093,1830.481819
2 Jun 2022 15:29:40.000,90.933,-25.217,1808.452903
2 Jun 2022 15:30:10.740,98.004,-25.066,1835.367748
3 Jun 2022 01:27:45.730,45.613,-25.033,1841.467625
3 Jun 2022 01:28:45.000,56.713,-26.959,1572.580032
3 Jun 2022 01:29:45.000,72.504,-29.120,1381.195722
3 Jun 2022 01:30:45.000,92.326,-30.195,1308.301322
3 Jun 2022 01:31:45.000,112.305,-29.227,1373.432972
3 Jun 2022 01:32:45.000,128.407,-27.083,1559.345631
3 Jun 2022 01:33:43.605,139.676,-25.139,1822.145117
3 Jun 2022 03:02:45.779,330.421,-25.022,1843.471594
3 Jun 2022 03:03:45.000,321.117,-27.493,1517.967681
3 Jun 2022 03:04:45.000,306.203,-31.115,1253.840573
3 Jun 2022 03:05:45.000,283.772,-34.283,1105.417347
3 Jun 2022 03:06:45.000,257.591,-33.912,1120.304205
3 Jun 2022 03:07:45.000,236.457,-30.446,1292.742199
3 Jun 2022 03:08:45.000,222.712,-26.973,1571.056410
3 Jun 2022 03:09:30.301,215.824,-25.139,1822.135076
3 Jun 2022 13:46:32.727,342.998,-25.155,1819.388182
3 Jun 2022 13:47:32.000,338.529,-28.469,1431.453118
3 Jun 2022 13:48:32.000,329.870,-35.191,1071.057620
3 Jun 2022 13:49:32.000,309.085,-47.098,791.314908
3 Jun 2022 13:50:32.000,258.687,-54.609,698.850244
3 Jun 2022 13:51:32.000,217.015,-43.276,856.973653
3 Jun 2022 13:52:32.000,201.172,-32.822,1167.531414
3 Jun 2022 13:53:32.000,194.082,-27.270,1540.064870
3 Jun 2022 13:54:18.052,190.925,-25.018,1844.180985
3 Jun 2022 15:25:16.974,75.625,-25.095,1830.129061
3 Jun 2022 15:26:16.000,89.384,-25.280,1797.807282
3 Jun 2022 15:26:59.510,99.436,-25.064,1835.673664
4 Jun 2022 01:24:29.600,46.002,-25.033,1841.424036
4 Jun 2022 01:25:29.000,57.195,-26.944,1574.225935
4 Jun 2022 01:26:29.000,73.018,-29.056,1385.874563
4 Jun 2022 01:27:29.000,92.754,-30.071,1316.159917
4 Jun 2022 01:28:29.000,112.545,-29.086,1383.655030
4 Jun 2022 01:29:29.000,128.481,-26.977,1570.716977
4 Jun 2022 01:30:25.268,139.282,-25.139,1822.213001
4 Jun 2022 02:59:28.131,330.753,-25.022,1843.491480
4 Jun 2022 03:00:28.000,321.398,-27.543,1513.167236
4 Jun 2022 03:01:28.000,306.476,-31.224,1247.781305
4 Jun 2022 03:02:28.000,283.910,-34.465,1098.271523
4 Jun 2022 03:03:28.000,257.493,-34.092,1112.999891
4 Jun 2022 03:04:28.000,236.230,-30.555,1286.208883
4 Jun 2022 03:05:28.000,222.468,-27.025,1565.524745
4 Jun 2022 03:06:14.125,215.490,-25.140,1822.070036
4 Jun 2022 13:43:16.036,342.700,-25.155,1819.418565
4 Jun 2022 13:44:16.000,338.070,-28.514,1427.756374
4 Jun 2022 13:45:16.000,329.179,-35.247,1069.031410
4 Jun 2022 13:46:16.000,307.951,-47.018,792.548168
4 Jun 2022 13:47:16.000,257.909,-54.022,704.745670
4 Jun 2022 13:48:16.000,217.192,-42.845,865.452212
4 Jun 2022 13:49:16.000,201.450,-32.630,1176.454386
4 Jun 2022 13:50:16.000,194.331,-27.184,1548.865618
4 Jun 2022 13:51:00.762,191.220,-25.018,1844.178797
4 Jun 2022 15:21:54.247,74.340,-25.097,1829.814088
4 Jun 2022 15:22:54.000,88.288,-25.334,1788.617930
4 Jun 2022 15:23:47.600,100.714,-25.063,1835.941775
5 Jun 2022 01:21:13.484,46.393,-25.033,1841.379086
5 Jun 2022 01:22:13.000,57.676,-26.928,1575.964899
5 Jun 2022 01:23:13.000,73.528,-28.992,1390.646844
5 Jun 2022 01:24:13.000,93.176,-29.948,1324.087955
5 Jun 2022 01:25:13.000,112.781,-28.949,1393.913315
5 Jun 2022 01:26:13.000,128.554,-26.872,1582.104987
5 Jun 2022 01:27:06.914,138.885,-25.139,1822.280637
5 Jun 2022 02:56:10.490,331.084,-25.022,1843.511031
5 Jun 2022 02:57:10.000,321.875,-27.540,1513.502132
5 Jun 2022 02:58:10.000,307.061,-31.267,1245.403066
5 Jun 2022 02:59:10.000,284.485,-34.618,1092.386458
5 Jun 2022 03:00:10.000,257.815,-34.317,1104.050645
5 Jun 2022 03:01:10.000,236.288,-30.731,1275.770952
5 Jun 2022 03:02:10.000,222.402,-27.127,1554.769088
5 Jun 2022 03:02:57.938,215.156,-25.140,1822.005374
5 Jun 2022 13:39:59.354,342.402,-25.154,1819.449425
5 Jun 2022 13:40:59.000,337.714,-28.481,1430.462697
5 Jun 2022 13:41:59.000,328.701,-35.149,1072.599261
5 Jun 2022 13:42:59.000,307.387,-46.710,797.297203
5 Jun 2022 13:43:59.000,258.101,-53.513,710.023420
5 Jun 2022 13:44:59.000,217.768,-42.633,869.713717
5 Jun 2022 13:45:59.000,201.889,-32.563,1179.568350
5 Jun 2022 13:46:59.000,194.663,-27.161,1551.219251
5 Jun 2022 13:47:43.467,191.514,-25.018,1844.176285
5 Jun 2022 15:18:32.021,73.166,-25.098,1829.526702
5 Jun 2022 15:19:32.000,87.178,-25.386,1780.039141
5 Jun 2022 15:20:32.000,101.170,-25.091,1830.765648
5 Jun 2022 15:20:35.194,101.881,-25.061,1836.185616
6 Jun 2022 01:17:57.383,46.787,-25.034,1841.333476
6 Jun 2022 01:18:57.000,58.156,-26.911,1577.796652
6 Jun 2022 01:19:57.000,74.034,-28.928,1395.511617
6 Jun 2022 01:20:57.000,93.592,-29.826,1332.084177
6 Jun 2022 01:21:57.000,113.013,-28.813,1404.206985
6 Jun 2022 01:22:57.000,128.626,-26.770,1593.509235
6 Jun 2022 01:23:48.543,138.485,-25.138,1822.350957
6 Jun 2022 02:52:52.858,331.414,-25.022,1843.530251
6 Jun 2022 02:53:52.000,322.351,-27.535,1513.918562
6 Jun 2022 02:54:52.000,307.648,-31.309,1243.123491
6 Jun 2022 02:55:52.000,285.069,-34.771,1086.591416
6 Jun 2022 02:56:52.000,258.143,-34.546,1095.152422
6 Jun 2022 02:57:52.000,236.348,-30.911,1265.356637
6 Jun 2022 02:58:52.000,222.334,-27.231,1544.029854
6 Jun 2022 02:59:41.744,214.824,-25.140,1821.956377
6 Jun 2022 13:36:42.679,342.104,-25.154,1819.480762
6 Jun 2022 13:37:42.000,337.358,-28.447,1433.223721
6 Jun 2022 13:38:42.000,328.229,-35.049,1076.231610
6 Jun 2022 13:39:42.000,306.838,-46.403,802.115628
6 Jun 2022 13:40:42.000,258.288,-53.011,715.365599
6 Jun 2022 13:41:42.000,218.335,-42.421,874.033805
6 Jun 2022 13:42:42.000,202.326,-32.497,1182.728636
6 Jun 2022 13:43:42.000,194.993,-27.138,1553.607506
6 Jun 2022 13:44:26.167,191.809,-25.018,1844.173449
6 Jun 2022 15:15:10.185,72.079,-25.100,1829.260564
6 Jun 2022 15:16:10.000,86.056,-25.435,1772.081325
6 Jun 2022 15:17:10.000,100.187,-25.178,1815.296011
6 Jun 2022 15:17:22.400,102.962,-25.060,1836.407286
7 Jun 2022 01:14:41.300,47.183,-25.034,1841.276161
7 Jun 2022 01:15:41.000,58.635,-26.894,1579.720853
7 Jun 2022 01:16:41.000,74.537,-28.862,1400.467889
7 Jun 2022 01:17:41.000,94.002,-29.705,1340.147324
7 Jun 2022 01:18:41.000,113.242,-28.681,1414.535222
7 Jun 2022 01:19:41.000,128.697,-26.669,1604.929329
7 Jun 2022 01:20:30.155,138.083,-25.138,1822.423731
7 Jun 2022 02:49:35.232,331.743,-25.022,1843.549146
7 Jun 2022 02:50:35.000,322.637,-27.584,1509.232888
7 Jun 2022 02:51:35.000,307.931,-31.419,1237.178359
7 Jun 2022 02:52:35.000,285.220,-34.960,1079.523554
7 Jun 2022 02:53:35.000,258.045,-34.736,1087.890867
7 Jun 2022 02:54:35.000,236.112,-31.025,1258.872428
7 Jun 2022 02:55:35.000,222.083,-27.285,1538.563602
7 Jun 2022 02:56:25.537,214.492,-25.141,1821.894408
7 Jun 2022 13:33:26.012,341.806,-25.154,1819.512580
7 Jun 2022 13:34:26.000,336.898,-28.490,1429.745739
7 Jun 2022 13:35:26.000,327.539,-35.097,1074.490746
7 Jun 2022 13:36:26.000,305.744,-46.304,803.686751
7 Jun 2022 13:37:26.000,257.568,-52.452,721.503682
7 Jun 2022 13:38:26.000,218.486,-42.008,882.641893
7 Jun 2022 13:39:26.000,202.589,-32.309,1191.742989
7 Jun 2022 13:40:26.000,195.234,-27.054,1562.478591
7 Jun 2022 13:41:08.861,192.105,-25.018,1844.170275
7 Jun 2022 15:11:48.665,71.061,-25.101,1829.011465
7 Jun 2022 15:12:48.000,84.922,-25.481,1764.754396
7 Jun 2022 15:13:48.000,99.184,-25.265,1800.334372
7 Jun 2022 15:14:09.295,103.974,-25.059,1836.612171
8 Jun 2022 01:11:25.228,47.582,-25.034,1841.231271
8 Jun 2022 01:12:25.000,59.113,-26.875,1581.737092
8 Jun 2022 01:13:25.000,75.035,-28.796,1405.514633
8 Jun 2022 01:14:25.000,94.406,-29.585,1348.276154
8 Jun 2022 01:15:25.000,113.467,-28.550,1424.897254
8 Jun 2022 01:16:25.000,128.766,-26.571,1616.364930
8 Jun 2022 01:17:11.748,137.679,-25.137,1822.498718
8 Jun 2022 02:46:17.615,332.071,-25.021,1843.567717
8 Jun 2022 02:47:17.000,323.114,-27.579,1509.776014
8 Jun 2022 02:48:17.000,308.525,-31.459,1235.044540
8 Jun 2022 02:49:17.000,285.817,-35.114,1073.851934
8 Jun 2022 02:50:17.000,258.382,-34.973,1079.058087
8 Jun 2022 02:51:17.000,236.170,-31.211,1248.493952
8 Jun 2022 02:52:17.000,222.011,-27.392,1527.858386
8 Jun 2022 02:53:09.320,214.162,-25.141,1821.832917
8 Jun 2022 13:30:09.352,341.507,-25.154,1819.544878
8 Jun 2022 13:31:09.000,336.545,-28.454,1432.627037
8 Jun 2022 13:32:09.000,327.074,-34.994,1078.268125
8 Jun 2022 13:33:09.000,305.223,-45.996,808.659406
8 Jun 2022 13:34:09.000,257.759,-51.968,726.963871
8 Jun 2022 13:35:09.000,219.034,-41.800,887.054734
8 Jun 2022 13:36:09.000,203.018,-32.242,1194.978671
8 Jun 2022 13:37:09.000,195.561,-27.031,1564.925377
8 Jun 2022 13:37:51.551,192.400,-25.018,1844.166769
8 Jun 2022 15:08:27.405,70.100,-25.102,1828.776468
8 Jun 2022 15:09:27.000,84.019,-25.526,1757.690521
8 Jun 2022 15:10:27.000,98.394,-25.343,1787.213621
8 Jun 2022 15:10:55.931,104.929,-25.058,1836.803202
9 Jun 2022 01:08:09.173,47.984,-25.034,1841.185771
9 Jun 2022 01:09:09.000,59.590,-26.856,1583.844918
9 Jun 2022 01:10:09.000,75.529,-28.730,1410.650809
9 Jun 2022 01:11:09.000,94.805,-29.466,1356.469463
9 Jun 2022 01:12:09.000,113.688,-28.422,1435.292375
9 Jun 2022 01:13:09.000,128.835,-26.475,1627.815777
9 Jun 2022 01:13:53.324,137.272,-25.137,1822.575709
9 Jun 2022 02:43:00.005,332.397,-25.021,1843.585970
9 Jun 2022 02:44:00.000,323.404,-27.627,1505.161855
9 Jun 2022 02:45:00.000,308.815,-31.569,1229.171147
9 Jun 2022 02:46:00.000,285.977,-35.308,1066.835355
9 Jun 2022 02:47:00.000,258.284,-35.170,1071.829903
9 Jun 2022 02:48:00.000,235.929,-31.329,1242.050398
9 Jun 2022 02:49:00.000,221.755,-27.447,1522.443317
9 Jun 2022 02:49:53.093,213.833,-25.141,1821.771906
9 Jun 2022 13:26:52.700,341.208,-25.154,1819.577660
9 Jun 2022 13:27:52.000,336.193,-28.419,1435.561954
9 Jun 2022 13:28:52.000,326.613,-34.890,1082.107966
9 Jun 2022 13:29:52.000,304.716,-45.689,813.697643
9 Jun 2022 13:30:52.000,257.945,-51.492,732.484368
9 Jun 2022 13:31:52.000,219.574,-41.593,891.523764
9 Jun 2022 13:32:52.000,203.444,-32.175,1198.259732
9 Jun 2022 13:33:52.000,195.887,-27.007,1567.406525
9 Jun 2022 13:34:34.234,192.697,-25.018,1844.147497
9 Jun 2022 15:05:06.368,69.187,-25.104,1828.553423
9 Jun 2022 15:06:06.000,83.106,-25.569,1751.031650
9 Jun 2022 15:07:06.000,97.591,-25.421,1774.413739
9 Jun 2022 15:07:42.348,105.836,-25.057,1836.982577
10 Jun 2022 01:04:53.133,48.388,-25.035,1841.139638
10 Jun 2022 01:05:53.000,60.065,-26.836,1586.043865
10 Jun 2022 01:06:53.000,76.019,-28.663,1415.875404
10 Jun 2022 01:07:53.000,95.199,-29.349,1364.726123
10 Jun 2022 01:08:53.000,113.905,-28.296,1445.719971
10 Jun 2022 01:09:53.000,128.903,-26.381,1639.281697
10 Jun 2022 01:10:34.881,136.862,-25.136,1822.654509
10 Jun 2022 02:39:42.402,332.723,-25.021,1843.603908
10 Jun 2022 02:40:42.000,323.882,-27.620,1505.831831
10 Jun 2022 02:41:42.000,309.414,-31.607,1227.185074
10 Jun 2022 02:42:42.000,286.588,-35.464,1061.291016
10 Jun 2022 02:43:42.000,258.628,-35.414,1063.065644
10 Jun 2022 02:44:42.000,235.985,-31.521,1231.709892
10 Jun 2022 02:45:42.000,221.679,-27.558,1511.774075
10 Jun 2022 02:46:36.855,213.505,-25.142,1821.711359
10 Jun 2022 13:23:36.056,340.908,-25.154,1819.610925
10 Jun 2022 13:24:36.000,335.731,-28.458,1432.302019
10 Jun 2022 13:25:36.000,325.927,-34.930,1080.649082
10 Jun 2022 13:26:36.000,303.662,-45.575,815.594244
10 Jun 2022 13:27:36.000,257.274,-50.959,738.847924
10 Jun 2022 13:28:36.000,219.702,-41.197,900.251896
10 Jun 2022 13:29:36.000,203.693,-31.992,1207.360704
10 Jun 2022 13:30:36.000,196.120,-26.925,1576.345594
10 Jun 2022 13:31:16.914,192.993,-25.018,1844.145385
10 Jun 2022 15:01:45.523,68.315,-25.105,1828.340709
10 Jun 2022 15:02:45.000,82.185,-25.610,1744.783435
10 Jun 2022 15:03:45.000,96.773,-25.499,1761.942936
10 Jun 2022 15:04:28.576,106.702,-25.056,1837.151908
11 Jun 2022 01:01:37.109,48.795,-25.035,1841.092879
11 Jun 2022 01:02:37.000,60.539,-26.816,1588.333507
11 Jun 2022 01:03:37.000,76.505,-28.596,1421.187474
11 Jun 2022 01:04:37.000,95.587,-29.232,1373.045111
11 Jun 2022 01:05:37.000,114.119,-28.172,1456.179541
11 Jun 2022 01:06:37.000,128.970,-26.289,1650.762623
11 Jun 2022 01:07:16.419,136.449,-25.136,1822.734983
11 Jun 2022 02:36:24.807,333.048,-25.021,1843.621535
11 Jun 2022 02:37:24.000,324.359,-27.612,1506.582702
11 Jun 2022 02:38:24.000,310.016,-31.643,1225.299851
11 Jun 2022 02:39:24.000,287.207,-35.619,1055.842674
11 Jun 2022 02:40:24.000,258.981,-35.662,1054.357568
11 Jun 2022 02:41:24.000,236.042,-31.718,1221.395932
11 Jun 2022 02:42:24.000,221.602,-27.670,1501.123589
11 Jun 2022 02:43:20.608,213.177,-25.142,1821.651280
11 Jun 2022 13:20:19.420,340.608,-25.153,1819.644678
11 Jun 2022 13:21:19.000,335.382,-28.421,1435.354806
11 Jun 2022 13:22:19.000,325.474,-34.823,1084.629659
11 Jun 2022 13:23:19.000,303.182,-45.268,820.778370
11 Jun 2022 13:24:19.000,257.464,-50.501,744.477664
11 Jun 2022 13:25:19.000,220.225,-40.995,904.808910
11 Jun 2022 13:26:19.000,204.112,-31.926,1210.715311
11 Jun 2022 13:27:19.000,196.442,-26.901,1578.884935
11 Jun 2022 13:27:59.589,193.290,-25.018,1844.142773
11 Jun 2022 14:58:24.846,67.479,-25.106,1828.137040
11 Jun 2022 14:59:24.000,81.257,-25.649,1738.951385
11 Jun 2022 15:00:24.000,95.942,-25.577,1749.809561
11 Jun 2022 15:01:14.639,107.532,-25.055,1837.312613
12 Jun 2022 00:58:21.106,49.205,-25.035,1841.030096
12 Jun 2022 00:59:21.000,61.012,-26.795,1590.713527
12 Jun 2022 01:00:21.000,76.987,-28.529,1426.586202
12 Jun 2022 01:01:21.000,95.969,-29.117,1381.425542
12 Jun 2022 01:02:21.000,114.330,-28.051,1466.670700
12 Jun 2022 01:03:21.000,129.036,-26.199,1662.258571
12 Jun 2022 01:03:57.938,136.034,-25.136,1822.817107
12 Jun 2022 02:33:07.219,333.372,-25.021,1843.638855
12 Jun 2022 02:34:07.000,324.652,-27.660,1502.085602
12 Jun 2022 02:35:07.000,310.316,-31.753,1219.547774
12 Jun 2022 02:36:07.000,287.382,-35.820,1048.914274
12 Jun 2022 02:37:07.000,258.883,-35.871,1047.179983
12 Jun 2022 02:38:07.000,235.792,-31.842,1215.008784
12 Jun 2022 02:39:07.000,221.338,-27.727,1495.781308
12 Jun 2022 02:40:04.351,212.851,-25.142,1821.595508
12 Jun 2022 13:17:02.791,340.308,-25.153,1819.678913
12 Jun 2022 13:18:02.000,335.035,-28.383,1438.459455
12 Jun 2022 13:19:02.000,325.026,-34.716,1088.669995
12 Jun 2022 13:20:02.000,302.715,-44.963,826.023829
12 Jun 2022 13:21:02.000,257.648,-50.050,750.163585
12 Jun 2022 13:22:02.000,220.739,-40.793,909.419866
12 Jun 2022 13:23:02.000,204.528,-31.859,1214.114604
12 Jun 2022 13:24:02.000,196.763,-26.878,1581.458714
12 Jun 2022 13:24:42.258,193.587,-25.018,1844.139670
12 Jun 2022 14:55:04.317,66.675,-25.107,1827.941440
12 Jun 2022 14:56:04.000,80.564,-25.690,1732.756911
12 Jun 2022 14:57:04.000,95.340,-25.648,1738.981120
12 Jun 2022 14:58:00.557,108.330,-25.055,1837.464862
13 Jun 2022 00:55:05.117,49.619,-25.035,1840.974476
13 Jun 2022 00:56:05.000,61.483,-26.773,1593.183775
13 Jun 2022 00:57:05.000,77.466,-28.461,1432.070921
13 Jun 2022 00:58:05.000,96.347,-29.003,1389.866662
13 Jun 2022 00:59:05.000,114.538,-27.932,1477.193139
13 Jun 2022 01:00:05.000,129.101,-26.111,1673.769577
13 Jun 2022 01:00:39.436,135.615,-25.135,1822.900722
13 Jun 2022 02:29:49.638,333.695,-25.021,1843.655874
13 Jun 2022 02:30:49.000,325.130,-27.650,1502.961764
13 Jun 2022 02:31:49.000,310.924,-31.787,1217.811643
13 Jun 2022 02:32:49.000,288.016,-35.977,1043.598230
13 Jun 2022 02:33:49.000,259.245,-36.127,1038.544817
13 Jun 2022 02:34:49.000,235.847,-32.045,1204.735786
13 Jun 2022 02:35:49.000,221.257,-27.843,1485.169720
13 Jun 2022 02:36:48.085,212.525,-25.143,1821.542915
13 Jun 2022 13:13:46.170,340.007,-25.153,1819.713638
13 Jun 2022 13:14:46.000,334.571,-28.420,1435.414957
13 Jun 2022 13:15:46.000,324.343,-34.747,1087.487606
13 Jun 2022 13:16:46.000,301.701,-44.836,828.231833
13 Jun 2022 13:17:46.000,257.021,-49.543,756.735716
13 Jun 2022 13:18:46.000,220.847,-40.415,918.259232
13 Jun 2022 13:19:46.000,204.763,-31.681,1223.298177
13 Jun 2022 13:20:46.000,196.988,-26.797,1590.464283
13 Jun 2022 13:21:24.920,193.885,-25.019,1844.120037
13 Jun 2022 14:51:43.921,65.899,-25.108,1827.753068
13 Jun 2022 14:52:43.000,79.621,-25.724,1727.662644
13 Jun 2022 14:53:43.000,94.483,-25.726,1727.447207
13 Jun 2022 14:54:43.000,108.385,-25.100,1829.211566
13 Jun 2022 14:54:46.341,109.100,-25.054,1837.604263
14 Jun 2022 00:51:49.145,50.035,-25.036,1840.923937
14 Jun 2022 00:52:49.000,61.953,-26.750,1595.744272
14 Jun 2022 00:53:49.000,77.940,-28.393,1437.641091
14 Jun 2022 00:54:49.000,96.719,-28.890,1398.367780
14 Jun 2022 00:55:49.000,114.742,-27.815,1487.746534
14 Jun 2022 00:56:49.000,129.165,-26.025,1685.295593
14 Jun 2022 00:57:20.914,135.193,-25.135,1822.985627
14 Jun 2022 02:26:32.063,334.017,-25.021,1843.672595
14 Jun 2022 02:27:32.000,325.427,-27.698,1498.535917
14 Jun 2022 02:28:32.000,311.231,-31.898,1212.134053
14 Jun 2022 02:29:32.000,288.199,-36.182,1036.725991
14 Jun 2022 02:30:32.000,259.146,-36.344,1031.404671
14 Jun 2022 02:31:32.000,235.589,-32.173,1198.393757
14 Jun 2022 02:32:32.000,220.988,-27.902,1479.883460
14 Jun 2022 02:33:31.809,212.200,-25.143,1821.491042
14 Jun 2022 13:10:29.556,339.706,-25.153,1819.748852
14 Jun 2022 13:11:29.000,334.227,-28.381,1438.634825
14 Jun 2022 13:12:29.000,323.903,-34.637,1091.663817
14 Jun 2022 13:13:29.000,301.260,-44.532,833.614116
14 Jun 2022 13:14:29.000,257.207,-49.108,762.521447
14 Jun 2022 13:15:29.000,221.345,-40.218,922.952364
14 Jun 2022 13:16:29.000,205.171,-31.615,1226.768050
14 Jun 2022 13:17:29.000,197.306,-26.773,1593.094881
14 Jun 2022 13:18:07.579,194.183,-25.019,1844.118871
14 Jun 2022 14:48:23.646,65.147,-25.109,1827.571242
14 Jun 2022 14:49:23.000,78.916,-25.763,1722.022806
14 Jun 2022 14:50:23.000,93.861,-25.797,1717.059191
14 Jun 2022 14:51:23.000,107.911,-25.180,1814.976955
14 Jun 2022 14:51:32.009,109.844,-25.053,1837.740021
15 Jun 2022 00:48:33.191,50.454,-25.036,1840.871384
15 Jun 2022 00:49:33.000,62.421,-26.727,1598.395124
15 Jun 2022 00:50:33.000,78.410,-28.325,1443.296195
15 Jun 2022 00:51:33.000,97.086,-28.778,1406.928160
15 Jun 2022 00:52:33.000,114.943,-27.700,1498.330435
15 Jun 2022 00:53:33.000,129.229,-25.941,1696.836381
15 Jun 2022 00:54:02.371,134.768,-25.134,1823.071627
15 Jun 2022 02:23:14.496,334.339,-25.021,1843.689024
15 Jun 2022 02:24:14.000,325.905,-27.687,1499.536854
15 Jun 2022 02:25:14.000,311.844,-31.929,1210.547948
15 Jun 2022 02:26:14.000,288.848,-36.339,1031.544948
15 Jun 2022 02:27:14.000,259.517,-36.609,1022.844227
15 Jun 2022 02:28:14.000,235.642,-32.383,1188.162475
15 Jun 2022 02:29:14.000,220.902,-28.021,1469.311425
15 Jun 2022 02:30:14.000,212.051,-25.196,1812.233961
15 Jun 2022 02:30:15.521,211.877,-25.143,1821.426669
15 Jun 2022 13:07:12.950,339.405,-25.153,1819.784553
15 Jun 2022 13:08:12.000,333.885,-28.342,1441.905669
15 Jun 2022 13:09:12.000,323.468,-34.527,1095.897679
15 Jun 2022 13:10:12.000,300.829,-44.230,839.053678
15 Jun 2022 13:11:12.000,257.389,-48.681,768.358762
15 Jun 2022 13:12:12.000,221.836,-40.021,927.696002
15 Jun 2022 13:13:12.000,205.577,-31.548,1230.280445
15 Jun 2022 13:14:12.000,197.623,-26.750,1595.758464
15 Jun 2022 13:14:50.233,194.481,-25.019,1844.116900
15 Jun 2022 14:45:03.480,64.419,-25.110,1827.395386
15 Jun 2022 14:46:03.000,78.205,-25.800,1716.624660
15 Jun 2022 14:47:03.000,93.228,-25.869,1706.862385
15 Jun 2022 14:48:03.000,107.428,-25.262,1800.862977
15 Jun 2022 14:48:17.571,110.567,-25.052,1837.871996
16 Jun 2022 00:45:17.257,50.877,-25.036,1840.816745
16 Jun 2022 00:46:17.000,62.887,-26.702,1601.136368
16 Jun 2022 00:47:17.000,78.876,-28.256,1449.035592
16 Jun 2022 00:48:17.000,97.448,-28.668,1415.546905
16 Jun 2022 00:49:17.000,115.141,-27.587,1508.944195
16 Jun 2022 00:50:17.000,129.291,-25.858,1708.391484
16 Jun 2022 00:50:43.807,134.340,-25.134,1823.158546
16 Jun 2022 02:19:56.935,334.659,-25.021,1843.705164
16 Jun 2022 02:20:56.000,326.382,-27.675,1500.617561
16 Jun 2022 02:21:56.000,312.459,-31.959,1209.063881
16 Jun 2022 02:22:56.000,289.506,-36.496,1026.464854
16 Jun 2022 02:23:56.000,259.897,-36.878,1014.344059
16 Jun 2022 02:24:56.000,235.696,-32.598,1177.959262
16 Jun 2022 02:25:56.000,220.814,-28.142,1458.759024
16 Jun 2022 02:26:56.000,211.922,-25.256,1801.843633
16 Jun 2022 02:26:59.227,211.554,-25.144,1821.379637
16 Jun 2022 13:03:56.352,339.103,-25.152,1819.820744
16 Jun 2022 13:04:56.000,333.420,-28.376,1439.076333
16 Jun 2022 13:05:56.000,322.791,-34.550,1094.987691
16 Jun 2022 13:06:56.000,299.857,-44.093,841.559250
16 Jun 2022 13:07:56.000,256.801,-48.199,775.121773
16 Jun 2022 13:08:56.000,221.926,-39.659,936.634986
16 Jun 2022 13:09:56.000,205.799,-31.375,1239.538831
16 Jun 2022 13:10:56.000,197.840,-26.670,1604.824981
16 Jun 2022 13:11:32.882,194.780,-25.019,1844.114106
16 Jun 2022 14:41:43.415,63.711,-25.111,1827.225006
16 Jun 2022 14:42:43.000,77.489,-25.836,1711.471290
16 Jun 2022 14:43:43.000,92.587,-25.940,1696.860980
16 Jun 2022 14:44:43.000,106.936,-25.345,1786.873132
16 Jun 2022 14:45:03.036,111.268,-25.052,1837.999859
17 Jun 2022 00:42:01.341,51.303,-25.037,1840.759941
17 Jun 2022 00:43:01.000,63.352,-26.678,1603.967820
17 Jun 2022 00:44:01.000,79.337,-28.188,1454.858425
17 Jun 2022 00:45:01.000,97.806,-28.558,1424.222922
17 Jun 2022 00:46:01.000,115.336,-27.477,1519.586991
17 Jun 2022 00:47:01.000,129.353,-25.777,1719.960296
17 Jun 2022 00:47:25.220,133.908,-25.133,1823.246223
17 Jun 2022 02:16:39.381,334.979,-25.021,1843.721018
17 Jun 2022 02:17:39.000,326.683,-27.722,1496.310342
17 Jun 2022 02:18:39.000,312.777,-32.069,1203.513108
17 Jun 2022 02:19:39.000,289.706,-36.708,1019.688759
17 Jun 2022 02:20:39.000,259.799,-37.107,1007.259008
17 Jun 2022 02:21:39.000,235.429,-32.732,1171.676937
17 Jun 2022 02:22:39.000,220.536,-28.203,1453.548821
17 Jun 2022 02:23:39.000,211.676,-25.281,1797.521912
17 Jun 2022 02:23:42.921,211.231,-25.144,1821.321022
17 Jun 2022 13:00:39.762,338.801,-25.152,1819.857428
17 Jun 2022 13:01:39.000,333.081,-28.335,1442.462668
17 Jun 2022 13:02:39.000,322.365,-34.437,1099.355016
17 Jun 2022 13:03:39.000,299.451,-43.793,847.128285
17 Jun 2022 13:04:39.000,256.985,-47.788,781.049766
17 Jun 2022 13:05:39.000,222.402,-39.468,941.453363
17 Jun 2022 13:06:39.000,206.198,-31.309,1243.116187
17 Jun 2022 13:07:39.000,198.154,-26.647,1607.540938
17 Jun 2022 13:08:15.528,195.079,-25.018,1844.122480
17 Jun 2022 14:38:23.441,63.023,-25.112,1827.059674
17 Jun 2022 14:39:23.000,76.767,-25.871,1706.565527
17 Jun 2022 14:40:23.000,91.936,-26.012,1687.059011
17 Jun 2022 14:41:23.000,106.434,-25.430,1773.010835
17 Jun 2022 14:41:48.416,111.952,-25.051,1838.133434
18 Jun 2022 00:38:45.446,51.733,-25.037,1840.700897
18 Jun 2022 00:39:45.000,63.816,-26.652,1606.889031
18 Jun 2022 00:40:45.000,79.795,-28.119,1460.763618
18 Jun 2022 00:41:45.000,98.158,-28.450,1432.954984
18 Jun 2022 00:42:45.000,115.528,-27.368,1530.257941
18 Jun 2022 00:43:45.000,129.414,-25.698,1731.542207
18 Jun 2022 00:44:06.611,133.473,-25.133,1823.334528
18 Jun 2022 02:13:21.834,335.298,-25.021,1843.736589
18 Jun 2022 02:14:21.000,327.160,-27.709,1497.517852
18 Jun 2022 02:15:21.000,313.397,-32.096,1202.183203
18 Jun 2022 02:16:21.000,290.380,-36.865,1014.750555
18 Jun 2022 02:17:21.000,260.189,-37.385,998.838142
18 Jun 2022 02:18:21.000,235.480,-32.954,1161.516738
18 Jun 2022 02:19:21.000,220.444,-28.328,1443.036122
18 Jun 2022 02:20:21.000,211.543,-25.343,1787.173641
18 Jun 2022 02:20:26.608,210.910,-25.144,1821.278804
18 Jun 2022 12:57:23.180,338.498,-25.152,1819.894604
18 Jun 2022 12:58:23.000,332.615,-28.367,1439.786148
18 Jun 2022 12:59:23.000,321.691,-34.456,1098.640243
18 Jun 2022 13:00:23.000,298.504,-43.648,849.849365
18 Jun 2022 13:01:23.000,256.425,-47.321,787.950857
18 Jun 2022 13:02:23.000,222.483,-39.118,950.457735
18 Jun 2022 13:03:23.000,206.411,-31.140,1252.419340
18 Jun 2022 13:04:23.000,198.366,-26.569,1616.642822
18 Jun 2022 13:04:58.162,195.379,-25.019,1844.089095
18 Jun 2022 14:35:03.553,62.351,-25.113,1826.899014
18 Jun 2022 14:36:03.000,76.040,-25.904,1701.909985
18 Jun 2022 14:37:03.000,91.276,-26.083,1677.460443
18 Jun 2022 14:38:03.000,105.923,-25.516,1759.279532
18 Jun 2022 14:38:33.708,112.617,-25.050,1838.246151
19 Jun 2022 00:35:29.571,52.166,-25.037,1840.639528
19 Jun 2022 00:36:29.000,64.277,-26.627,1609.899351
19 Jun 2022 00:37:29.000,80.249,-28.050,1466.749978
19 Jun 2022 00:38:29.000,98.505,-28.344,1441.741847
19 Jun 2022 00:39:29.000,115.718,-27.261,1540.956227
19 Jun 2022 00:40:29.000,129.474,-25.621,1743.136733
19 Jun 2022 00:40:47.979,133.034,-25.132,1823.423365
19 Jun 2022 02:10:04.294,335.616,-25.020,1843.751878
19 Jun 2022 02:11:04.000,327.464,-27.754,1493.286570
19 Jun 2022 02:12:04.000,313.723,-32.207,1196.713800
19 Jun 2022 02:13:04.000,290.591,-37.082,1008.038348
19 Jun 2022 02:14:04.000,260.092,-37.623,991.794916
19 Jun 2022 02:15:04.000,235.206,-33.093,1155.281963
19 Jun 2022 02:16:04.000,220.161,-28.390,1437.883289
19 Jun 2022 02:17:04.000,211.293,-25.369,1782.911630
19 Jun 2022 02:17:10.285,210.589,-25.144,1821.233651
19 Jun 2022 12:54:06.606,338.195,-25.152,1819.932275
19 Jun 2022 12:55:06.000,332.279,-28.325,1443.288049
19 Jun 2022 12:56:06.000,321.273,-34.340,1103.139554
19 Jun 2022 12:57:06.000,298.123,-43.350,855.543553
19 Jun 2022 12:58:06.000,256.611,-46.925,793.964811
19 Jun 2022 12:59:06.000,222.945,-38.932,955.347467
19 Jun 2022 13:00:06.000,206.803,-31.075,1256.059282
19 Jun 2022 13:01:06.000,198.676,-26.546,1619.409413
19 Jun 2022 13:01:40.794,195.679,-25.019,1844.076489
19 Jun 2022 14:31:43.744,61.695,-25.114,1826.742698
19 Jun 2022 14:32:43.000,75.308,-25.936,1697.507133
19 Jun 2022 14:33:43.000,90.607,-26.155,1668.069262
19 Jun 2022 14:34:43.000,105.402,-25.604,1745.682820
19 Jun 2022 14:35:18.929,113.267,-25.050,1838.372045
20 Jun 2022 00:32:13.717,52.604,-25.038,1840.575750
20 Jun 2022 00:33:13.000,64.737,-26.600,1612.998056
20 Jun 2022 00:34:13.000,80.698,-27.981,1472.816313
20 Jun 2022 00:35:13.000,98.848,-28.238,1450.582356
20 Jun 2022 00:36:13.000,115.904,-27.157,1551.681179
20 Jun 2022 00:37:13.000,129.533,-25.545,1754.743568
20 Jun 2022 00:37:29.329,132.592,-25.132,1823.533388
20 Jun 2022 02:06:46.760,335.933,-25.020,1843.766888
20 Jun 2022 02:07:46.000,327.941,-27.740,1494.622029
20 Jun 2022 02:08:46.000,314.348,-32.231,1195.540934
20 Jun 2022 02:09:46.000,291.281,-37.239,1003.247191
20 Jun 2022 02:10:46.000,260.493,-37.911,983.457561
20 Jun 2022 02:11:46.000,235.255,-33.323,1145.167234
20 Jun 2022 02:12:46.000,220.063,-28.519,1427.412080
20 Jun 2022 02:13:46.000,211.156,-25.432,1772.606756
20 Jun 2022 02:13:53.953,210.269,-25.145,1821.184479
20 Jun 2022 12:50:50.040,337.892,-25.152,1819.970445
20 Jun 2022 12:51:50.000,331.812,-28.355,1440.764589
20 Jun 2022 12:52:50.000,320.602,-34.354,1102.618764
20 Jun 2022 12:53:50.000,297.201,-43.199,858.474688
20 Jun 2022 12:54:50.000,256.078,-46.474,800.997402
20 Jun 2022 12:55:50.000,223.018,-38.593,964.413877
20 Jun 2022 12:56:50.000,207.009,-30.910,1265.405334
20 Jun 2022 12:57:50.000,198.884,-26.469,1628.545527
20 Jun 2022 12:58:23.421,195.979,-25.019,1844.068631
20 Jun 2022 14:28:24.009,61.054,-25.114,1826.590439
20 Jun 2022 14:29:24.000,74.818,-25.976,1691.907754
20 Jun 2022 14:30:24.000,90.186,-26.223,1659.240035
20 Jun 2022 14:31:24.000,105.105,-25.680,1734.308012
20 Jun 2022 14:32:04.077,113.902,-25.049,1838.483780
21 Jun 2022 00:28:57.880,53.044,-25.038,1840.530237
21 Jun 2022 00:29:57.000,65.195,-26.573,1616.184453
21 Jun 2022 00:30:57.000,81.143,-27.912,1478.961518
21 Jun 2022 00:31:57.000,99.186,-28.134,1459.475495
21 Jun 2022 00:32:57.000,116.087,-27.054,1562.432285
21 Jun 2022 00:33:57.000,129.591,-25.471,1766.362569
21 Jun 2022 00:34:10.649,132.145,-25.131,1823.622974
21 Jun 2022 02:03:29.234,336.249,-25.020,1843.781622
21 Jun 2022 02:04:29.000,328.248,-27.785,1490.467760
21 Jun 2022 02:05:29.000,314.681,-32.342,1190.155323
21 Jun 2022 02:06:29.000,291.503,-37.460,996.602458
21 Jun 2022 02:07:29.000,260.395,-38.157,976.459273
21 Jun 2022 02:08:29.000,234.973,-33.466,1138.982802
21 Jun 2022 02:09:29.000,219.774,-28.582,1422.319094
21 Jun 2022 02:10:29.000,210.903,-25.458,1768.406470
21 Jun 2022 02:10:37.607,209.951,-25.145,1821.108071
21 Jun 2022 12:47:33.482,337.588,-25.151,1820.009116
21 Jun 2022 12:48:33.000,331.479,-28.312,1444.380652
21 Jun 2022 12:49:33.000,320.193,-34.236,1107.247326
21 Jun 2022 12:50:33.000,296.843,-42.903,864.289124
21 Jun 2022 12:51:33.000,256.264,-46.092,807.093103
21 Jun 2022 12:52:33.000,223.467,-38.412,969.372726
21 Jun 2022 12:53:33.000,207.394,-30.846,1269.106911
21 Jun 2022 12:54:33.000,199.191,-26.446,1631.362558
21 Jun 2022 12:55:06.043,196.280,-25.019,1844.059953
21 Jun 2022 14:25:04.342,60.427,-25.115,1826.441982
21 Jun 2022 14:26:04.000,74.076,-26.005,1687.932292
21 Jun 2022 14:27:04.000,89.500,-26.294,1650.195031
21 Jun 2022 14:28:04.000,104.566,-25.770,1720.929979
21 Jun 2022 14:28:49.159,114.524,-25.048,1838.591997
22 Jun 2022 00:25:42.069,53.489,-25.038,1840.461164
22 Jun 2022 00:26:42.000,65.888,-26.571,1616.383957
22 Jun 2022 00:27:42.000,81.875,-27.857,1483.891216
22 Jun 2022 00:28:42.000,99.817,-28.022,1469.201403
22 Jun 2022 00:29:42.000,116.521,-26.929,1575.886190
22 Jun 2022 00:30:42.000,129.841,-25.374,1782.078181
22 Jun 2022 00:30:51.945,131.694,-25.130,1823.712398
22 Jun 2022 02:00:11.713,336.565,-25.020,1843.796083
22 Jun 2022 02:01:11.000,328.726,-27.769,1491.930753
22 Jun 2022 02:02:11.000,315.311,-32.363,1189.140971
22 Jun 2022 02:03:11.000,292.210,-37.617,991.962660
22 Jun 2022 02:04:11.000,260.809,-38.454,968.209549
22 Jun 2022 02:05:11.000,235.019,-33.704,1128.916445
22 Jun 2022 02:06:11.000,219.672,-28.714,1411.891956
22 Jun 2022 02:07:11.000,210.762,-25.523,1758.147321
22 Jun 2022 02:07:21.258,209.632,-25.145,1821.073456
22 Jun 2022 12:44:16.932,337.283,-25.151,1820.048288
22 Jun 2022 12:45:16.000,331.147,-28.268,1448.045943
22 Jun 2022 12:46:16.000,319.790,-34.119,1111.929420
22 Jun 2022 12:47:16.000,296.494,-42.611,870.153409
22 Jun 2022 12:48:16.000,256.447,-45.717,813.232990
22 Jun 2022 12:49:16.000,223.909,-38.232,974.376826
22 Jun 2022 12:50:16.000,207.777,-30.781,1272.847984
22 Jun 2022 12:51:16.000,199.496,-26.423,1634.210832
22 Jun 2022 12:51:48.660,196.582,-25.019,1844.051069
22 Jun 2022 14:21:44.741,59.813,-25.116,1826.297101
22 Jun 2022 14:22:44.000,73.329,-26.033,1684.216420
22 Jun 2022 14:23:44.000,88.805,-26.364,1641.368938
22 Jun 2022 14:24:44.000,104.018,-25.863,1707.697304
22 Jun 2022 14:25:34.179,115.132,-25.048,1838.696932
23 Jun 2022 00:22:26.282,53.939,-25.039,1840.389383
23 Jun 2022 00:23:26.000,66.343,-26.542,1619.791083
23 Jun 2022 00:24:26.000,82.311,-27.788,1490.240434
23 Jun 2022 00:25:26.000,100.144,-27.920,1478.235804
23 Jun 2022 00:26:26.000,116.697,-26.830,1586.709798
23 Jun 2022 00:27:26.000,129.896,-25.304,1793.729014
23 Jun 2022 00:27:33.218,131.240,-25.130,1823.816932
23 Jun 2022 01:56:54.199,336.880,-25.020,1843.810274
23 Jun 2022 01:57:54.000,329.035,-27.814,1487.853411
23 Jun 2022 01:58:54.000,315.650,-32.473,1183.840449
23 Jun 2022 01:59:54.000,292.444,-37.843,985.388117
23 Jun 2022 02:00:54.000,260.711,-38.710,961.258838
23 Jun 2022 02:01:54.000,234.729,-33.852,1122.785055
23 Jun 2022 02:02:54.000,219.376,-28.779,1406.861454
23 Jun 2022 02:03:54.000,210.504,-25.550,1754.011093
23 Jun 2022 02:04:04.899,209.315,-25.146,1821.030355
23 Jun 2022 12:41:00.390,336.978,-25.151,1820.087964
23 Jun 2022 12:42:00.000,330.681,-28.296,1445.737474
23 Jun 2022 12:43:00.000,319.126,-34.125,1111.672502
23 Jun 2022 12:44:00.000,295.611,-42.454,873.353334
23 Jun 2022 12:45:00.000,255.942,-45.289,820.423748
23 Jun 2022 12:46:00.000,223.968,-37.908,983.523981
23 Jun 2022 12:47:00.000,207.972,-30.621,1282.256990
23 Jun 2022 12:48:00.000,199.697,-26.348,1643.399979
23 Jun 2022 12:48:31.271,196.884,-25.019,1844.041975
23 Jun 2022 14:18:25.200,59.210,-25.117,1826.155595
23 Jun 2022 14:19:25.000,72.826,-26.071,1679.083067
23 Jun 2022 14:20:25.000,88.364,-26.433,1632.901680
23 Jun 2022 14:21:25.000,103.701,-25.943,1696.535132
23 Jun 2022 14:22:19.141,115.729,-25.047,1838.798794
24 Jun 2022 00:19:10.515,54.392,-25.039,1840.329350
24 Jun 2022 00:20:10.000,66.795,-26.513,1623.284384
24 Jun 2022 00:21:10.000,82.743,-27.718,1496.665533
24 Jun 2022 00:22:10.000,100.466,-27.820,1487.319991
24 Jun 2022 00:23:10.000,116.870,-26.734,1597.558258
24 Jun 2022 00:24:10.000,129.951,-25.235,1805.391862
24 Jun 2022 00:24:14.463,130.781,-25.129,1823.914168
24 Jun 2022 01:53:36.692,337.194,-25.020,1843.824197
24 Jun 2022 01:54:36.000,329.512,-27.796,1489.442874
24 Jun 2022 01:55:36.000,316.285,-32.491,1182.985315
24 Jun 2022 01:56:36.000,293.167,-38.000,980.903290
24 Jun 2022 01:57:36.000,261.137,-39.017,953.100349
24 Jun 2022 01:58:36.000,234.772,-34.098,1112.769576
24 Jun 2022 01:59:36.000,219.269,-28.915,1396.480692
24 Jun 2022 02:00:36.000,210.359,-25.616,1743.799808
24 Jun 2022 02:00:48.529,208.998,-25.146,1820.980064
24 Jun 2022 12:37:43.856,336.673,-25.151,1820.128145
24 Jun 2022 12:38:43.000,330.353,-28.251,1449.513750
24 Jun 2022 12:39:43.000,318.731,-34.006,1116.478640
24 Jun 2022 12:40:43.000,295.283,-42.165,879.329937
24 Jun 2022 12:41:43.000,256.126,-44.928,826.638823
24 Jun 2022 12:42:43.000,224.399,-37.733,988.593506
24 Jun 2022 12:43:43.000,208.348,-30.557,1286.058116
24 Jun 2022 12:44:43.000,199.999,-26.325,1646.298396
24 Jun 2022 12:45:13.876,197.186,-25.019,1844.032417
24 Jun 2022 14:15:05.716,58.619,-25.118,1826.017283
24 Jun 2022 14:16:05.000,72.071,-26.096,1675.807518
24 Jun 2022 14:17:05.000,87.652,-26.503,1624.442725
24 Jun 2022 14:18:05.000,103.134,-26.038,1683.540637
24 Jun 2022 14:19:04.048,116.314,-25.047,1838.897777
25 Jun 2022 00:15:54.774,54.850,-25.039,1840.257827
25 Jun 2022 00:16:54.000,67.246,-26.483,1626.863510
25 Jun 2022 00:17:54.000,83.171,-27.648,1503.165768
25 Jun 2022 00:18:54.000,100.784,-27.720,1496.453293
25 Jun 2022 00:19:54.000,117.041,-26.639,1608.431295
25 Jun 2022 00:20:54.000,130.005,-25.168,1817.066702
25 Jun 2022 00:20:55.681,130.317,-25.129,1824.012943
25 Jun 2022 01:50:19.191,337.507,-25.020,1843.837856
25 Jun 2022 01:51:19.000,329.824,-27.840,1485.442252
25 Jun 2022 01:52:19.000,316.632,-32.602,1177.770919
25 Jun 2022 01:53:19.000,293.413,-38.231,974.401308
25 Jun 2022 01:54:19.000,261.039,-39.282,946.199413
25 Jun 2022 01:55:19.000,234.474,-34.250,1106.693427
25 Jun 2022 01:56:19.000,218.967,-28.981,1391.514806
25 Jun 2022 01:57:19.000,210.098,-25.643,1739.729479
25 Jun 2022 01:57:32.150,208.682,-25.146,1820.930314
25 Jun 2022 12:34:27.331,336.367,-25.150,1820.168833
25 Jun 2022 12:35:27.000,329.887,-28.276,1447.355494
25 Jun 2022 12:36:27.000,318.072,-34.008,1116.408921
25 Jun 2022 12:37:27.000,294.424,-42.004,882.724083
25 Jun 2022 12:38:27.000,255.643,-44.513,833.945414
25 Jun 2022 12:39:27.000,224.450,-37.420,997.795176
25 Jun 2022 12:40:27.000,208.535,-30.401,1295.506384
25 Jun 2022 12:41:27.000,200.196,-26.252,1655.520231
25 Jun 2022 12:41:56.477,197.489,-25.019,1844.025720
25 Jun 2022 14:11:46.288,58.038,-25.118,1825.880559
25 Jun 2022 14:12:46.000,71.559,-26.132,1670.975220
25 Jun 2022 14:13:46.000,87.198,-26.573,1616.213148
25 Jun 2022 14:14:46.000,102.804,-26.121,1672.519924
25 Jun 2022 14:15:46.000,116.308,-25.100,1829.251692
25 Jun 2022 14:15:48.899,116.889,-25.046,1838.979342
26 Jun 2022 00:12:39.055,55.312,-25.040,1840.197883
26 Jun 2022 00:13:39.000,67.934,-26.477,1627.668237
26 Jun 2022 00:14:39.000,83.881,-27.590,1508.674525
26 Jun 2022 00:15:39.000,101.385,-27.612,1506.600713
26 Jun 2022 00:16:39.000,117.453,-26.523,1622.115600
26 Jun 2022 00:17:36.872,129.849,-25.128,1824.113300
26 Jun 2022 01:47:01.696,337.820,-25.020,1843.851256
26 Jun 2022 01:48:01.000,330.301,-27.821,1487.157321
26 Jun 2022 01:49:01.000,317.271,-32.616,1177.075722
26 Jun 2022 01:50:01.000,294.154,-38.387,970.074967
26 Jun 2022 01:51:01.000,261.478,-39.599,938.135530
26 Jun 2022 01:52:01.000,234.514,-34.505,1096.730882
26 Jun 2022 01:53:01.000,218.854,-29.120,1381.182177
26 Jun 2022 01:54:01.000,209.949,-25.711,1729.567606
26 Jun 2022 01:54:15.763,208.366,-25.146,1820.881101
26 Jun 2022 12:31:10.813,336.061,-25.150,1820.210028
26 Jun 2022 12:32:10.000,329.562,-28.230,1451.241096
26 Jun 2022 12:33:10.000,317.687,-33.887,1121.335869
26 Jun 2022 12:34:10.000,294.117,-41.719,888.807617
26 Jun 2022 12:35:10.000,255.826,-44.166,840.230946
26 Jun 2022 12:36:10.000,224.869,-37.250,1002.927017
26 Jun 2022 12:37:10.000,208.905,-30.338,1299.365644
26 Jun 2022 12:38:10.000,200.494,-26.229,1658.467672
26 Jun 2022 12:38:39.072,197.792,-25.019,1844.018660
26 Jun 2022 14:08:26.911,57.467,-25.119,1825.748356
26 Jun 2022 14:09:26.000,70.796,-26.154,1668.148356
26 Jun 2022 14:10:26.000,86.469,-26.642,1608.135206
26 Jun 2022 14:11:26.000,102.219,-26.219,1659.776770
26 Jun 2022 14:12:26.000,115.905,-25.190,1813.158108
26 Jun 2022 14:12:33.706,117.454,-25.046,1839.072728
27 Jun 2022 00:09:23.364,55.780,-25.040,1840.125877
27 Jun 2022 00:10:23.000,68.380,-26.445,1631.465119
27 Jun 2022 00:11:23.000,84.300,-27.520,1515.370564
27 Jun 2022 00:12:23.000,101.692,-27.515,1515.866646
27 Jun 2022 00:13:23.000,117.616,-26.432,1633.056640
27 Jun 2022 00:14:18.034,129.376,-25.128,1824.215286
27 Jun 2022 01:43:44.207,338.132,-25.020,1843.864397
27 Jun 2022 01:44:44.000,330.616,-27.865,1483.233649
27 Jun 2022 01:45:44.000,317.625,-32.726,1171.948803
27 Jun 2022 01:46:44.000,294.413,-38.622,963.648095
27 Jun 2022 01:47:44.000,261.380,-39.875,931.286484
27 Jun 2022 01:48:44.000,234.206,-34.662,1090.711828
27 Jun 2022 01:49:44.000,218.546,-29.187,1376.282537
27 Jun 2022 01:50:44.000,209.684,-25.739,1725.564437
27 Jun 2022 01:50:59.366,208.052,-25.147,1820.832420
27 Jun 2022 12:27:54.304,335.754,-25.150,1820.251733
27 Jun 2022 12:28:54.000,329.096,-28.254,1449.232465
27 Jun 2022 12:29:54.000,317.032,-33.884,1121.450888
27 Jun 2022 12:30:54.000,293.283,-41.554,892.389556
27 Jun 2022 12:31:54.000,255.364,-43.765,847.646746
27 Jun 2022 12:32:54.000,224.915,-36.948,1012.179445
27 Jun 2022 12:33:54.000,209.086,-30.186,1308.850744
27 Jun 2022 12:34:54.000,200.687,-26.157,1667.720511
27 Jun 2022 12:35:21.661,198.096,-25.019,1844.011235
27 Jun 2022 14:05:07.582,56.905,-25.120,1825.618883
27 Jun 2022 14:06:07.000,70.277,-26.189,1663.624397
27 Jun 2022 14:07:07.000,86.001,-26.711,1600.153962
27 Jun 2022 14:08:07.000,101.875,-26.304,1648.906940
27 Jun 2022 14:09:07.000,115.699,-25.264,1800.400213
27 Jun 2022 14:09:18.466,118.009,-25.045,1839.163795
28 Jun 2022 00:06:07.699,56.252,-25.040,1840.054761
28 Jun 2022 00:07:07.000,68.824,-26.413,1635.346833
28 Jun 2022 00:08:07.000,84.714,-27.450,1522.139213
28 Jun 2022 00:09:07.000,101.995,-27.419,1525.179206
28 Jun 2022 00:10:07.000,117.778,-26.343,1644.020960
28 Jun 2022 00:10:59.166,128.898,-25.127,1824.318950
28 Jun 2022 01:40:26.724,338.443,-25.020,1843.877284
28 Jun 2022 01:41:26.000,331.092,-27.844,1485.073969
28 Jun 2022 01:42:26.000,318.268,-32.738,1171.414644
28 Jun 2022 01:43:26.000,295.172,-38.776,959.484051
28 Jun 2022 01:44:26.000,261.833,-40.202,923.320703
28 Jun 2022 01:45:26.000,234.243,-34.925,1080.804075
28 Jun 2022 01:46:26.000,218.427,-29.331,1365.999414
28 Jun 2022 01:47:26.000,209.530,-25.808,1715.453036
28 Jun 2022 01:47:42.961,207.738,-25.147,1820.784266
28 Jun 2022 12:24:37.802,335.447,-25.150,1820.293947
28 Jun 2022 12:25:37.000,328.774,-28.207,1453.226186
28 Jun 2022 12:26:37.000,316.656,-33.762,1126.495778
28 Jun 2022 12:27:37.000,292.995,-41.273,898.574967
28 Jun 2022 12:28:37.000,255.547,-43.430,853.998143
28 Jun 2022 12:29:37.000,225.323,-36.781,1017.370258
28 Jun 2022 12:30:37.000,209.449,-30.124,1312.765772
28 Jun 2022 12:31:37.000,200.982,-26.134,1670.715317
28 Jun 2022 12:32:04.245,198.401,-25.019,1844.003444
28 Jun 2022 14:01:48.301,56.352,-25.121,1825.492017
28 Jun 2022 14:02:48.000,69.754,-26.223,1659.227997
28 Jun 2022 14:03:48.000,85.527,-26.781,1592.273136
28 Jun 2022 14:04:48.000,101.526,-26.391,1638.095633
28 Jun 2022 14:05:48.000,115.490,-25.340,1787.665075
28 Jun 2022 14:06:03.182,118.556,-25.045,1839.252637
29 Jun 2022 00:02:52.061,56.730,-25.041,1839.984134
29 Jun 2022 00:03:52.000,69.508,-26.403,1636.620519
29 Jun 2022 00:04:52.000,85.408,-27.390,1528.088590
29 Jun 2022 00:05:52.000,102.575,-27.314,1535.643599
29 Jun 2022 00:06:52.000,118.172,-26.233,1657.879368
29 Jun 2022 00:07:40.268,128.414,-25.127,1824.420679
29 Jun 2022 01:37:09.247,338.754,-25.020,1843.889917
29 Jun 2022 01:38:09.000,331.409,-27.887,1481.228036
29 Jun 2022 01:39:09.000,318.629,-32.847,1166.377056
29 Jun 2022 01:40:09.000,295.443,-39.016,953.135285
29 Jun 2022 01:41:09.000,261.735,-40.488,916.525883
29 Jun 2022 01:42:09.000,233.926,-35.087,1074.843899
29 Jun 2022 01:43:09.000,218.112,-29.399,1361.167384
29 Jun 2022 01:44:09.000,209.261,-25.836,1711.517903
29 Jun 2022 01:44:26.543,207.425,-25.147,1820.713587
29 Jun 2022 12:21:21.309,335.139,-25.149,1820.336676
29 Jun 2022 12:22:21.000,328.308,-28.229,1451.366968
29 Jun 2022 12:23:21.000,316.007,-33.755,1126.793352
29 Jun 2022 12:24:21.000,292.184,-41.104,902.338580
29 Jun 2022 12:25:21.000,255.104,-43.044,861.516856
29 Jun 2022 12:26:21.000,225.362,-36.490,1026.669657
29 Jun 2022 12:27:21.000,209.623,-29.975,1322.285019
29 Jun 2022 12:28:21.000,201.170,-26.064,1679.997112
29 Jun 2022 12:28:46.822,198.706,-25.019,1843.995288
29 Jun 2022 13:58:29.065,55.808,-25.121,1825.367646
29 Jun 2022 13:59:29.000,69.227,-26.256,1654.960626
29 Jun 2022 14:00:29.000,85.048,-26.850,1584.494689
29 Jun 2022 14:01:29.000,101.170,-26.479,1627.344453
29 Jun 2022 14:02:29.000,115.277,-25.418,1774.953574
29 Jun 2022 14:02:47.858,119.095,-25.044,1839.346057
29 Jun 2022 23:59:36.452,57.213,-25.041,1839.912050
30 Jun 2022 00:00:36.000,69.948,-26.370,1640.717709
30 Jun 2022 00:01:36.000,85.813,-27.320,1535.046606
30 Jun 2022 00:02:36.000,102.867,-27.221,1545.081951
30 Jun 2022 00:03:36.000,118.327,-26.148,1668.907608
30 Jun 2022 00:04:21.338,127.925,-25.126,1824.524000
30 Jun 2022 01:33:51.777,339.063,-25.020,1843.902302
30 Jun 2022 01:34:51.000,331.884,-27.865,1483.193746
30 Jun 2022 01:35:51.000,319.276,-32.856,1166.005476
30 Jun 2022 01:36:51.000,296.220,-39.169,949.137817
30 Jun 2022 01:37:51.000,262.204,-40.826,908.662092
30 Jun 2022 01:38:51.000,233.959,-35.360,1064.992886
30 Jun 2022 01:39:51.000,217.987,-29.546,1350.935025
30 Jun 2022 01:40:51.000,209.103,-25.907,1701.457807
30 Jun 2022 01:41:10.119,207.112,-25.148,1820.660858
30 Jun 2022 12:18:04.825,334.830,-25.149,1820.379918
30 Jun 2022 12:19:04.000,327.990,-28.181,1455.467939
30 Jun 2022 12:20:04.000,315.640,-33.632,1131.953642
30 Jun 2022 12:21:04.000,291.916,-40.828,908.621229
30 Jun 2022 12:22:04.000,255.287,-42.721,867.929889
30 Jun 2022 12:23:04.000,225.760,-36.328,1031.916187
30 Jun 2022 12:24:04.000,209.981,-29.914,1326.253350
30 Jun 2022 12:25:04.000,201.462,-26.042,1683.037426
30 Jun 2022 12:25:29.392,199.012,-25.019,1843.970750
30 Jun 2022 13:55:09.871,55.272,-25.122,1825.245665
30 Jun 2022 13:56:09.000,68.449,-26.272,1652.967539
30 Jun 2022 13:57:09.000,84.287,-26.917,1577.131247
30 Jun 2022 13:58:09.000,100.549,-26.582,1615.072190
30 Jun 2022 13:59:09.000,114.846,-25.517,1759.092697
30 Jun 2022 13:59:32.493,119.626,-25.044,1839.433148
30 Jun 2022 23:56:20.872,57.702,-25.042,1839.838454
30 Jun 2022 23:57:20.000,70.385,-26.336,1644.898389
30 Jun 2022 23:58:20.000,86.215,-27.250,1542.074396
30 Jun 2022 23:59:20.000,103.156,-27.129,1554.564185
1 Jul 2022 00:00:20.000,118.480,-26.065,1679.957492
1 Jul 2022 00:01:02.375,127.431,-25.125,1824.629468
1 Jul 2022 01:30:34.312,339.373,-25.020,1843.914438
1 Jul 2022 01:31:34.000,332.204,-27.907,1479.426765
1 Jul 2022 01:32:34.000,319.645,-32.965,1161.059518
1 Jul 2022 01:33:34.000,296.506,-39.412,942.870666
1 Jul 2022 01:34:34.000,262.106,-41.123,901.924259
1 Jul 2022 01:35:34.000,233.632,-35.526,1059.093565
1 Jul 2022 01:36:34.000,217.666,-29.616,1346.171991
1 Jul 2022 01:37:34.000,208.830,-25.935,1697.591502
1 Jul 2022 01:37:53.689,206.800,-25.148,1820.625599
1 Jul 2022 12:14:48.349,334.521,-25.149,1820.423676
1 Jul 2022 12:15:48.000,327.524,-28.201,1453.758116
1 Jul 2022 12:16:48.000,314.996,-33.621,1132.431756
1 Jul 2022 12:17:48.000,291.128,-40.658,912.560736
1 Jul 2022 12:18:48.000,254.861,-42.348,875.545737
1 Jul 2022 12:19:48.000,225.794,-36.046,1041.259057
1 Jul 2022 12:20:48.000,210.149,-29.770,1335.804171
1 Jul 2022 12:21:48.000,201.646,-25.973,1692.346146
1 Jul 2022 12:22:11.959,199.318,-25.019,1843.963859
1 Jul 2022 13:51:50.719,54.743,-25.123,1825.125978
1 Jul 2022 13:52:50.000,67.915,-26.303,1649.021553
1 Jul 2022 13:53:50.000,83.794,-26.987,1569.620731
1 Jul 2022 13:54:50.000,100.179,-26.673,1604.489239
1 Jul 2022 13:55:50.000,114.622,-25.599,1746.456188
1 Jul 2022 13:56:17.086,120.149,-25.043,1839.506690
1 Jul 2022 23:53:05.323,58.197,-25.042,1839.763287
1 Jul 2022 23:54:05.000,71.063,-26.322,1646.636915
1 Jul 2022 23:55:05.000,86.891,-27.188,1548.450903
1 Jul 2022 23:56:05.000,103.714,-27.027,1565.330001
1 Jul 2022 23:57:05.000,118.858,-25.961,1693.979782
1 Jul 2022 23:57:43.379,126.930,-25.125,1824.737368
2 Jul 2022 01:27:16.853,339.682,-25.020,1843.926329
2 Jul 2022 01:28:16.000,332.679,-27.884,1481.518282
2 Jul 2022 01:29:16.000,320.295,-32.969,1160.852330
2 Jul 2022 01:30:16.000,297.302,-39.563,939.044480
2 Jul 2022 01:31:16.000,262.591,-41.472,894.166881
2 Jul 2022 01:32:16.000,233.661,-35.809,1049.301578
2 Jul 2022 01:33:16.000,217.534,-29.767,1335.991842
2 Jul 2022 01:34:16.000,208.667,-26.008,1687.583634
2 Jul 2022 01:34:37.249,206.488,-25.148,1820.578517
2 Jul 2022 12:11:31.881,334.212,-25.149,1820.467954
2 Jul 2022 12:12:31.000,327.211,-28.151,1457.965561
2 Jul 2022 12:13:31.000,314.639,-33.496,1137.705068
2 Jul 2022 12:14:31.000,290.877,-40.386,918.936374
2 Jul 2022 12:15:31.000,255.044,-42.037,882.016687
2 Jul 2022 12:16:31.000,226.181,-35.889,1046.558437
2 Jul 2022 12:17:31.000,210.500,-29.709,1339.823603
2 Jul 2022 12:18:31.000,201.935,-25.951,1695.430300
2 Jul 2022 12:18:54.520,199.624,-25.019,1843.956452
2 Jul 2022 13:48:31.606,54.221,-25.123,1825.008496
2 Jul 2022 13:49:31.000,67.378,-26.334,1645.208860
2 Jul 2022 13:50:31.000,83.295,-27.056,1562.218943
2 Jul 2022 13:51:31.000,99.803,-26.766,1593.971909
2 Jul 2022 13:52:31.000,114.394,-25.683,1733.846348
2 Jul 2022 13:53:01.646,120.664,-25.043,1839.588485
2 Jul 2022 23:49:49.806,58.698,-25.042,1839.686486
2 Jul 2022 23:50:49.000,71.496,-26.287,1651.029599
2 Jul 2022 23:51:49.000,87.283,-27.119,1555.660736
2 Jul 2022 23:52:49.000,103.993,-26.938,1574.930695
2 Jul 2022 23:53:49.000,119.005,-25.881,1705.089034
2 Jul 2022 23:54:24.349,126.423,-25.124,1824.848051
3 Jul 2022 01:23:59.401,339.990,-25.019,1843.937976
3 Jul 2022 01:24:59.000,333.001,-27.925,1477.831576
3 Jul 2022 01:25:59.000,320.671,-33.077,1156.000491
3 Jul 2022 01:26:59.000,297.602,-39.811,932.862843
3 Jul 2022 01:27:59.000,262.493,-41.780,887.489287
3 Jul 2022 01:28:59.000,233.324,-35.980,1043.465494
3 Jul 2022 01:29:59.000,217.206,-29.837,1331.299488
3 Jul 2022 01:30:59.000,208.391,-26.036,1683.787178
3 Jul 2022 01:31:20.800,206.178,-25.148,1820.529210
3 Jul 2022 12:08:15.421,333.902,-25.148,1820.512753
3 Jul 2022 12:09:15.000,326.745,-28.170,1456.405025
3 Jul 2022 12:10:15.000,314.001,-33.481,1138.361669
3 Jul 2022 12:11:15.000,290.113,-40.214,923.046266
3 Jul 2022 12:12:15.000,254.634,-41.676,889.724501
3 Jul 2022 12:13:15.000,226.210,-35.617,1055.941812
3 Jul 2022 12:14:15.000,210.662,-29.568,1349.403865
3 Jul 2022 12:15:15.000,202.115,-25.884,1704.764284
3 Jul 2022 12:15:37.075,199.932,-25.019,1843.948532
3 Jul 2022 13:45:12.531,53.706,-25.124,1824.893135
3 Jul 2022 13:46:12.000,66.837,-26.363,1641.530679
3 Jul 2022 13:47:12.000,82.789,-27.126,1554.927742
3 Jul 2022 13:48:12.000,99.420,-26.859,1583.521808
3 Jul 2022 13:49:12.000,114.162,-25.768,1721.264036
3 Jul 2022 13:49:46.171,121.174,-25.043,1839.669596
3 Jul 2022 23:46:34.322,59.205,-25.043,1839.607983
3 Jul 2022 23:47:34.000,72.169,-26.271,1653.099157
3 Jul 2022 23:48:34.000,87.949,-27.055,1562.339487
3 Jul 2022 23:49:34.000,104.536,-26.838,1585.909847
3 Jul 2022 23:50:34.000,119.372,-25.782,1719.228689
3 Jul 2022 23:51:05.283,125.910,-25.124,1824.961825
4 Jul 2022 01:20:41.954,340.297,-25.019,1843.949382
4 Jul 2022 01:21:41.000,333.475,-27.900,1480.049192
4 Jul 2022 01:22:41.000,321.324,-33.078,1155.959458
4 Jul 2022 01:23:41.000,298.417,-39.959,929.212861
4 Jul 2022 01:24:41.000,262.995,-42.141,879.843279
4 Jul 2022 01:25:41.000,233.349,-36.273,1033.735316
4 Jul 2022 01:26:41.000,217.068,-29.993,1321.173425
4 Jul 2022 01:27:41.000,208.223,-26.111,1673.832838
4 Jul 2022 01:28:04.342,205.867,-25.149,1820.480053
4 Jul 2022 12:04:58.971,333.591,-25.148,1820.558075
4 Jul 2022 12:05:58.000,326.435,-28.120,1460.717975
4 Jul 2022 12:06:58.000,313.653,-33.356,1143.745557
4 Jul 2022 12:07:58.000,289.879,-39.947,929.510908
4 Jul 2022 12:08:58.000,254.816,-41.378,896.250189
4 Jul 2022 12:09:58.000,226.588,-35.464,1061.291743
4 Jul 2022 12:10:58.000,211.008,-29.509,1353.472729
4 Jul 2022 12:11:58.000,202.401,-25.861,1707.891108
4 Jul 2022 12:12:19.625,200.239,-25.019,1843.940101
4 Jul 2022 13:41:53.493,53.198,-25.125,1824.779818
4 Jul 2022 13:42:53.000,66.293,-26.392,1637.988166
4 Jul 2022 13:43:53.000,82.278,-27.195,1547.748974
4 Jul 2022 13:44:53.000,99.031,-26.954,1573.140571
4 Jul 2022 13:45:53.000,113.925,-25.856,1708.710144
4 Jul 2022 13:46:30.663,121.676,-25.042,1839.749818
4 Jul 2022 23:43:18.868,59.718,-25.043,1839.544618
4 Jul 2022 23:44:18.000,72.597,-26.235,1657.700744
4 Jul 2022 23:45:18.000,88.331,-26.986,1569.725800
4 Jul 2022 23:46:18.000,104.806,-26.751,1595.623722
4 Jul 2022 23:47:18.000,119.513,-25.706,1730.394133
4 Jul 2022 23:47:46.184,125.391,-25.123,1825.093124
5 Jul 2022 01:17:24.513,340.604,-25.019,1843.960547
5 Jul 2022 01:18:24.000,333.800,-27.940,1476.443809
5 Jul 2022 01:19:24.000,321.707,-33.185,1151.204059
5 Jul 2022 01:20:24.000,298.733,-40.211,923.120763
5 Jul 2022 01:21:24.000,262.899,-42.460,873.229593
5 Jul 2022 01:22:24.000,233.001,-36.450,1027.965337
5 Jul 2022 01:23:24.000,216.733,-30.064,1316.553916
5 Jul 2022 01:24:24.000,207.942,-26.139,1670.107712
5 Jul 2022 01:24:47.876,205.558,-25.149,1820.431038
5 Jul 2022 12:01:42.529,333.280,-25.148,1820.603924
5 Jul 2022 12:02:42.000,325.970,-28.136,1459.306242
5 Jul 2022 12:03:42.000,313.022,-33.337,1144.578330
5 Jul 2022 12:04:42.000,289.136,-39.774,933.785804
5 Jul 2022 12:05:42.000,254.422,-41.029,904.045364
5 Jul 2022 12:06:42.000,226.613,-35.201,1070.713277
5 Jul 2022 12:07:42.000,211.164,-29.372,1363.080914
5 Jul 2022 12:08:42.000,202.576,-25.796,1717.249296
5 Jul 2022 12:09:02.168,200.548,-25.020,1843.929231
5 Jul 2022 13:38:34.489,52.696,-25.125,1824.668473
5 Jul 2022 13:39:34.000,65.746,-26.420,1634.582422
5 Jul 2022 13:40:34.000,81.760,-27.264,1540.684483
5 Jul 2022 13:41:34.000,98.635,-27.050,1562.829878
5 Jul 2022 13:42:34.000,113.684,-25.945,1696.185622
5 Jul 2022 13:43:15.123,122.173,-25.042,1839.828946
5 Jul 2022 23:40:03.455,60.239,-25.044,1839.462064
5 Jul 2022 23:41:03.000,73.265,-26.216,1660.097898
5 Jul 2022 23:42:03.000,88.984,-26.921,1576.699210
5 Jul 2022 23:43:03.000,105.335,-26.653,1606.808257
5 Jul 2022 23:44:03.000,119.870,-25.611,1744.646079
5 Jul 2022 23:44:27.039,124.863,-25.122,1825.201879
6 Jul 2022 01:14:07.078,340.910,-25.019,1843.971474
6 Jul 2022 01:15:07.000,334.126,-27.980,1472.871316
6 Jul 2022 01:16:07.000,322.094,-33.293,1146.486612
6 Jul 2022 01:17:07.000,299.055,-40.465,917.065094
6 Jul 2022 01:18:07.000,262.799,-42.785,866.651531
6 Jul 2022 01:19:07.000,232.648,-36.628,1022.239471
6 Jul 2022 01:20:07.000,216.394,-30.136,1311.980506
6 Jul 2022 01:21:07.000,207.660,-26.167,1666.425211
6 Jul 2022 01:21:31.404,205.248,-25.149,1820.400356
6 Jul 2022 11:58:26.095,332.968,-25.148,1820.650302
6 Jul 2022 11:59:26.000,325.504,-28.151,1457.983071
6 Jul 2022 12:00:26.000,312.392,-33.315,1145.521991
6 Jul 2022 12:01:26.000,288.405,-39.598,938.173221
6 Jul 2022 12:02:26.000,254.039,-40.686,911.904917
6 Jul 2022 12:03:26.000,226.638,-34.943,1080.158764
6 Jul 2022 12:04:26.000,211.318,-29.237,1372.701511
6 Jul 2022 12:05:26.000,202.750,-25.732,1726.616789
6 Jul 2022 12:05:44.704,200.857,-25.020,1843.905756
6 Jul 2022 13:35:15.520,52.200,-25.126,1824.559032
6 Jul 2022 13:36:15.000,65.196,-26.446,1631.314501
6 Jul 2022 13:37:15.000,81.237,-27.333,1533.736128
6 Jul 2022 13:38:15.000,98.232,-27.148,1552.591476
6 Jul 2022 13:39:15.000,113.438,-26.037,1683.691498
6 Jul 2022 13:39:59.552,122.663,-25.041,1839.906832
6 Jul 2022 23:36:48.080,60.768,-25.044,1839.377540
6 Jul 2022 23:37:48.000,73.932,-26.196,1662.694357
6 Jul 2022 23:38:48.000,89.631,-26.856,1583.854862
6 Jul 2022 23:39:48.000,105.856,-26.556,1618.123184
6 Jul 2022 23:40:48.000,120.221,-25.518,1758.972191
6 Jul 2022 23:41:07.855,124.329,-25.122,1825.320174
7 Jul 2022 01:10:49.649,341.216,-25.019,1843.982164
7 Jul 2022 01:11:49.000,334.599,-27.953,1475.263731
7 Jul 2022 01:12:49.000,322.753,-33.289,1146.673374
7 Jul 2022 01:13:49.000,299.899,-40.611,913.653074
7 Jul 2022 01:14:49.000,263.324,-43.164,859.154408
7 Jul 2022 01:15:49.000,232.662,-36.934,1012.599684
7 Jul 2022 01:16:49.000,216.245,-30.297,1301.940365
7 Jul 2022 01:17:49.000,207.485,-26.244,1656.556979
7 Jul 2022 01:18:14.922,204.940,-25.149,1820.354317
7 Jul 2022 11:55:09.670,332.655,-25.147,1820.697213
7 Jul 2022 11:56:09.000,325.200,-28.099,1462.459319
7 Jul 2022 11:57:09.000,312.058,-33.188,1151.076193
7 Jul 2022 11:58:09.000,288.197,-39.338,944.769982
7 Jul 2022 11:59:09.000,254.223,-40.404,918.501355
7 Jul 2022 12:00:09.000,227.003,-34.798,1085.569891
7 Jul 2022 12:01:09.000,211.656,-29.180,1376.833319
7 Jul 2022 12:02:09.000,203.031,-25.710,1729.800183
7 Jul 2022 12:02:27.235,201.167,-25.020,1843.898236
7 Jul 2022 13:31:56.583,51.710,-25.126,1824.451433
7 Jul 2022 13:32:56.000,64.642,-26.472,1628.185428
7 Jul 2022 13:33:56.000,80.707,-27.402,1526.905798
7 Jul 2022 13:34:56.000,97.823,-27.247,1542.427198
7 Jul 2022 13:35:56.000,113.187,-26.130,1671.228901
7 Jul 2022 13:36:43.951,123.148,-25.041,1839.983352
7 Jul 2022 23:33:32.743,61.304,-25.045,1839.290948
7 Jul 2022 23:34:32.000,74.352,-26.158,1667.625962
7 Jul 2022 23:35:32.000,89.999,-26.787,1591.517080
7 Jul 2022 23:36:32.000,106.110,-26.474,1628.012925
7 Jul 2022 23:37:32.000,120.352,-25.447,1770.224841
7 Jul 2022 23:37:48.631,123.786,-25.121,1825.444356
8 Jul 2022 01:07:32.225,341.521,-25.019,1843.992620
8 Jul 2022 01:08:32.000,334.928,-27.993,1471.773101
8 Jul 2022 01:09:32.000,323.147,-33.395,1142.054895
8 Jul 2022 01:10:32.000,300.237,-40.869,907.692328
8 Jul 2022 01:11:32.000,263.225,-43.501,852.645956
8 Jul 2022 01:12:32.000,232.297,-37.117,1006.945046
8 Jul 2022 01:13:32.000,215.899,-30.369,1297.443968
8 Jul 2022 01:14:32.000,207.198,-26.272,1652.948983
8 Jul 2022 01:14:58.431,204.632,-25.150,1820.308607
8 Jul 2022 11:51:53.254,332.342,-25.147,1820.744658
8 Jul 2022 11:52:53.000,324.735,-28.113,1461.283375
8 Jul 2022 11:53:53.000,311.436,-33.163,1152.191724
8 Jul 2022 11:54:53.000,287.487,-39.162,949.313673
8 Jul 2022 11:55:53.000,253.854,-40.073,926.441365
8 Jul 2022 11:56:53.000,227.024,-34.549,1095.050723
8 Jul 2022 11:57:53.000,211.804,-29.048,1386.480531
8 Jul 2022 11:58:53.000,203.201,-25.647,1739.191331
8 Jul 2022 11:59:09.761,201.477,-25.020,1843.889986
8 Jul 2022 13:28:37.682,51.226,-25.127,1824.326807
8 Jul 2022 13:29:37.000,64.086,-26.497,1625.196226
8 Jul 2022 13:30:37.000,80.171,-27.470,1520.195440
8 Jul 2022 13:31:37.000,97.407,-27.347,1532.338991
8 Jul 2022 13:32:37.000,112.931,-26.226,1658.799085
8 Jul 2022 13:33:28.321,123.627,-25.040,1840.056069
8 Jul 2022 23:30:17.449,61.849,-25.045,1839.202184
8 Jul 2022 23:31:17.000,75.013,-26.136,1670.544460
8 Jul 2022 23:32:17.000,90.634,-26.722,1598.955855
8 Jul 2022 23:33:17.000,106.617,-26.379,1639.521697
8 Jul 2022 23:34:17.000,120.693,-25.358,1784.656373
8 Jul 2022 23:34:29.362,123.236,-25.120,1825.571070
9 Jul 2022 01:04:14.807,341.826,-25.019,1844.002844
9 Jul 2022 01:05:14.000,335.399,-27.964,1474.290096
9 Jul 2022 01:06:14.000,323.809,-33.387,1142.410106
9 Jul 2022 01:07:14.000,301.100,-41.010,904.467480
9 Jul 2022 01:08:14.000,263.770,-43.892,845.273013
9 Jul 2022 01:09:14.000,232.306,-37.434,997.375683
9 Jul 2022 01:10:14.000,215.743,-30.534,1287.464727
9 Jul 2022 01:11:14.000,207.018,-26.350,1643.139778
9 Jul 2022 01:11:41.931,204.325,-25.150,1820.263223
9 Jul 2022 11:48:36.847,332.028,-25.147,1820.792640
9 Jul 2022 11:49:36.000,324.435,-28.060,1465.860524
9 Jul 2022 11:50:36.000,311.111,-33.036,1157.848613
9 Jul 2022 11:51:36.000,287.295,-38.907,955.988954
9 Jul 2022 11:52:36.000,254.038,-39.802,933.085674
9 Jul 2022 11:53:36.000,227.380,-34.408,1100.508554
9 Jul 2022 11:54:36.000,212.136,-28.992,1390.659743
9 Jul 2022 11:55:36.000,203.479,-25.626,1742.416731
9 Jul 2022 11:55:52.281,201.789,-25.020,1843.881018
9 Jul 2022 13:25:18.807,50.747,-25.128,1824.222458
9 Jul 2022 13:26:18.000,63.527,-26.521,1622.347953
9 Jul 2022 13:27:18.000,79.629,-27.538,1513.607090
9 Jul 2022 13:28:18.000,96.983,-27.448,1522.328933
9 Jul 2022 13:29:18.000,112.671,-26.324,1646.403434
9 Jul 2022 13:30:12.663,124.101,-25.040,1840.125894
9 Jul 2022 23:27:02.197,62.402,-25.046,1839.111131
9 Jul 2022 23:28:02.000,75.672,-26.112,1673.659613
9 Jul 2022 23:29:02.000,91.262,-26.655,1606.570552
9 Jul 2022 23:30:02.000,107.117,-26.286,1651.154317
9 Jul 2022 23:31:02.000,121.027,-25.272,1799.158122
