data/Partner_Institute/Skyhopper_Partner-Milan_AER_1year.csv

"Time (UTCG)","Azimuth (deg)","Elevation (deg)","Range (km)"
1 Jun 2022 05:56:04.185,331.777,-25.219,1829.530659
1 Jun 2022 05:57:04.000,323.985,-28.136,1472.758631
1 Jun 2022 05:58:04.000,310.529,-33.015,1168.101566
1 Jun 2022 05:59:04.000,286.838,-38.645,970.249945
1 Jun 2022 06:00:04.000,254.285,-39.424,949.604520
1 Jun 2022 06:01:04.000,228.105,-34.231,1116.163042
1 Jun 2022 06:02:04.000,212.920,-28.975,1404.340680
1 Jun 2022 06:03:04.000,204.212,-25.675,1754.336066
1 Jun 2022 06:03:19.872,202.545,-25.092,1852.832095
1 Jun 2022 07:32:13.427,40.914,-25.211,1831.006547
1 Jun 2022 07:33:13.000,52.371,-27.159,1566.624687
1 Jun 2022 07:34:13.000,68.420,-29.246,1384.153097
1 Jun 2022 07:35:13.000,88.195,-30.161,1321.650562
1 Jun 2022 07:36:13.000,107.756,-29.094,1395.385195
1 Jun 2022 07:37:13.000,123.378,-26.979,1586.019592
1 Jun 2022 07:38:11.694,134.320,-25.104,1850.579663
1 Jun 2022 17:31:41.545,66.303,-25.119,1847.699188
1 Jun 2022 17:32:41.000,79.668,-25.969,1711.142597
1 Jun 2022 17:33:41.000,94.819,-26.254,1672.607910
1 Jun 2022 17:34:41.000,109.684,-25.765,1740.739445
1 Jun 2022 17:35:19.481,118.204,-25.184,1835.833611
1 Jun 2022 19:05:21.394,350.478,-25.090,1853.118947
1 Jun 2022 19:06:21.000,346.631,-28.298,1458.767502
1 Jun 2022 19:07:21.000,339.269,-34.904,1090.044595
1 Jun 2022 19:08:21.000,321.280,-47.369,792.868856
1 Jun 2022 19:09:21.000,270.015,-58.087,672.180182
1 Jun 2022 19:10:21.000,221.832,-46.177,811.520479
1 Jun 2022 19:11:21.000,205.256,-34.207,1117.133539
1 Jun 2022 19:12:21.000,198.326,-27.952,1489.140277
1 Jun 2022 19:13:12.130,195.079,-25.230,1827.734287
2 Jun 2022 05:52:47.755,331.491,-25.219,1829.579314
2 Jun 2022 05:53:47.000,323.719,-28.087,1477.095050
2 Jun 2022 05:54:47.000,310.248,-32.899,1173.403683
2 Jun 2022 05:55:47.000,286.681,-38.421,976.426275
2 Jun 2022 05:56:47.000,254.451,-39.189,955.704059
2 Jun 2022 05:57:47.000,228.421,-34.107,1121.175222
2 Jun 2022 05:58:47.000,213.218,-28.925,1408.182394
2 Jun 2022 05:59:47.000,204.463,-25.656,1757.297221
2 Jun 2022 06:00:02.426,202.829,-25.092,1852.821290
2 Jun 2022 07:28:55.157,40.556,-25.212,1830.933092
2 Jun 2022 07:29:55.000,52.017,-27.189,1563.454185
2 Jun 2022 07:30:55.000,68.072,-29.319,1378.862566
2 Jun 2022 07:31:55.000,87.948,-30.276,1314.366730
2 Jun 2022 07:32:55.000,107.665,-29.209,1386.885336
2 Jun 2022 07:33:55.000,123.403,-27.060,1577.186159
2 Jun 2022 07:34:55.000,134.606,-25.115,1848.447819
2 Jun 2022 07:34:55.434,134.673,-25.104,1850.620544
2 Jun 2022 17:28:26.477,66.886,-25.120,1847.599470
2 Jun 2022 17:29:26.000,80.301,-25.942,1714.941705
2 Jun 2022 17:30:26.000,95.403,-26.192,1680.718834
2 Jun 2022 17:31:26.000,110.142,-25.687,1752.547060
2 Jun 2022 17:31:59.874,117.614,-25.184,1835.977450
2 Jun 2022 19:02:04.153,350.744,-25.090,1853.121816
2 Jun 2022 19:03:04.000,346.959,-28.322,1456.731968
2 Jun 2022 19:04:04.000,339.719,-34.976,1087.346268
2 Jun 2022 19:05:04.000,321.895,-47.616,789.178093
2 Jun 2022 19:06:04.000,269.957,-58.621,667.834536
2 Jun 2022 19:07:04.000,221.225,-46.401,807.923240
2 Jun 2022 19:08:04.000,204.819,-34.273,1114.515299
2 Jun 2022 19:09:04.000,198.007,-27.974,1487.167183
2 Jun 2022 19:09:55.365,194.810,-25.230,1827.707358
3 Jun 2022 05:49:31.331,331.204,-25.219,1829.628445
3 Jun 2022 05:50:31.000,323.287,-28.101,1475.876481
3 Jun 2022 05:51:31.000,309.675,-32.877,1174.404418
3 Jun 2022 05:52:31.000,286.038,-38.268,980.681936
3 Jun 2022 05:53:31.000,254.094,-38.907,963.164603
3 Jun 2022 05:54:31.000,228.402,-33.888,1130.186131
3 Jun 2022 05:55:31.000,213.326,-28.805,1417.460969
3 Jun 2022 05:56:31.000,204.601,-25.597,1766.402796
3 Jun 2022 05:56:44.975,203.114,-25.092,1852.810287
3 Jun 2022 07:25:36.902,40.200,-25.212,1830.859611
3 Jun 2022 07:26:36.000,51.435,-27.181,1564.263891
3 Jun 2022 07:27:36.000,67.415,-29.361,1375.842088
3 Jun 2022 07:28:36.000,87.351,-30.392,1307.088439
3 Jun 2022 07:29:36.000,107.267,-29.357,1376.137684
3 Jun 2022 07:30:36.000,123.204,-27.180,1564.415195
3 Jun 2022 07:31:36.000,134.535,-25.190,1834.789034
3 Jun 2022 07:31:39.160,135.024,-25.103,1850.650691
3 Jun 2022 17:25:11.470,67.483,-25.120,1847.496605
3 Jun 2022 17:26:11.000,80.930,-25.914,1718.927702
3 Jun 2022 17:27:11.000,95.980,-26.130,1688.989303
3 Jun 2022 17:28:11.000,110.594,-25.609,1764.464668
3 Jun 2022 17:28:40.205,117.012,-25.183,1836.131633
3 Jun 2022 18:58:46.915,351.010,-25.090,1853.124542
3 Jun 2022 18:59:46.000,347.368,-28.270,1461.195718
3 Jun 2022 19:00:46.000,340.341,-34.893,1090.462953
3 Jun 2022 19:01:46.000,323.006,-47.596,789.476460
3 Jun 2022 19:02:46.000,271.072,-59.182,663.406707
3 Jun 2022 19:03:46.000,221.056,-46.885,800.288403
3 Jun 2022 19:04:46.000,204.541,-34.485,1106.116846
3 Jun 2022 19:05:46.000,197.764,-28.068,1478.745555
3 Jun 2022 19:06:38.595,194.541,-25.230,1827.680866
4 Jun 2022 05:46:14.916,330.917,-25.219,1829.678053
4 Jun 2022 05:47:14.000,323.025,-28.051,1480.296337
4 Jun 2022 05:48:14.000,309.402,-32.761,1179.787873
4 Jun 2022 05:49:14.000,285.893,-38.049,986.915779
4 Jun 2022 05:50:14.000,254.259,-38.680,969.294881
4 Jun 2022 05:51:14.000,228.712,-33.767,1135.227440
4 Jun 2022 05:52:14.000,213.620,-28.756,1421.333196
4 Jun 2022 05:53:14.000,204.849,-25.578,1769.391118
4 Jun 2022 05:53:27.520,203.399,-25.092,1852.799085
4 Jun 2022 07:22:18.661,39.846,-25.212,1830.787899
4 Jun 2022 07:23:18.000,51.077,-27.210,1561.244277
4 Jun 2022 07:24:18.000,67.060,-29.433,1370.688204
4 Jun 2022 07:25:18.000,87.094,-30.509,1299.891017
4 Jun 2022 07:26:18.000,107.169,-29.476,1367.667725
4 Jun 2022 07:27:18.000,123.228,-27.265,1555.580993
4 Jun 2022 07:28:18.000,134.620,-25.239,1826.127017
4 Jun 2022 07:28:22.877,135.373,-25.103,1850.686543
4 Jun 2022 17:21:56.528,68.092,-25.121,1847.390298
4 Jun 2022 17:22:56.000,81.557,-25.885,1723.099335
4 Jun 2022 17:23:56.000,96.551,-26.068,1697.416958
4 Jun 2022 17:24:56.000,111.039,-25.533,1776.489962
4 Jun 2022 17:25:20.468,116.397,-25.182,1836.285793
4 Jun 2022 18:55:29.682,351.276,-25.090,1853.127126
4 Jun 2022 18:56:29.000,347.696,-28.293,1459.230700
4 Jun 2022 18:57:29.000,340.794,-34.962,1087.864491
4 Jun 2022 18:58:29.000,323.641,-47.837,785.918110
4 Jun 2022 18:59:29.000,271.032,-59.733,659.193056
4 Jun 2022 19:00:29.000,220.424,-47.110,796.807533
4 Jun 2022 19:01:29.000,204.095,-34.549,1103.599806
4 Jun 2022 19:02:29.000,197.441,-28.090,1476.858314
4 Jun 2022 19:03:21.818,194.273,-25.230,1827.654813
5 Jun 2022 05:42:58.508,330.629,-25.218,1829.728140
5 Jun 2022 05:43:58.000,322.593,-28.063,1479.204355
5 Jun 2022 05:44:58.000,308.834,-32.737,1180.932038
5 Jun 2022 05:45:58.000,285.267,-37.897,991.295376
5 Jun 2022 05:46:58.000,253.914,-38.407,976.813948
5 Jun 2022 05:47:58.000,228.692,-33.555,1144.257909
5 Jun 2022 05:48:58.000,213.724,-28.639,1430.623539
5 Jun 2022 05:49:58.000,204.984,-25.521,1778.506832
5 Jun 2022 05:50:10.059,203.684,-25.092,1852.787681
5 Jun 2022 07:19:00.430,39.493,-25.213,1830.730272
5 Jun 2022 07:20:00.000,50.718,-27.238,1558.284349
5 Jun 2022 07:21:00.000,66.700,-29.505,1365.585586
5 Jun 2022 07:22:00.000,86.832,-30.627,1292.723578
5 Jun 2022 07:23:00.000,107.070,-29.597,1359.206884
5 Jun 2022 07:24:00.000,123.252,-27.351,1546.746322
5 Jun 2022 07:25:00.000,134.705,-25.288,1817.462311
5 Jun 2022 07:25:06.582,135.720,-25.103,1850.721655
5 Jun 2022 17:18:41.655,68.717,-25.122,1847.280284
5 Jun 2022 17:19:41.000,82.179,-25.855,1727.455248
5 Jun 2022 17:20:41.000,97.116,-26.006,1705.999402
5 Jun 2022 17:21:41.000,111.477,-25.459,1788.620653
5 Jun 2022 17:22:00.658,115.766,-25.181,1836.446388
5 Jun 2022 18:52:12.452,351.541,-25.090,1853.129567
5 Jun 2022 18:53:12.000,348.025,-28.316,1457.297090
5 Jun 2022 18:54:12.000,341.249,-35.031,1085.309782
5 Jun 2022 18:55:12.000,324.288,-48.077,782.418485
5 Jun 2022 18:56:12.000,270.988,-60.290,655.048067
5 Jun 2022 18:57:12.000,219.781,-47.335,793.395315
5 Jun 2022 18:58:12.000,203.646,-34.613,1101.140720
5 Jun 2022 18:59:12.000,197.117,-28.111,1475.018435
5 Jun 2022 19:00:05.035,194.004,-25.230,1827.629198
6 Jun 2022 05:39:42.108,330.341,-25.218,1829.778709
6 Jun 2022 05:40:42.000,322.162,-28.075,1478.190225
6 Jun 2022 05:41:42.000,308.268,-32.710,1182.170337
6 Jun 2022 05:42:42.000,284.649,-37.743,995.764638
6 Jun 2022 05:43:42.000,253.577,-38.138,984.381141
6 Jun 2022 05:44:42.000,228.672,-33.346,1153.303460
6 Jun 2022 05:45:42.000,213.827,-28.524,1439.918933
6 Jun 2022 05:46:42.000,205.117,-25.465,1787.625204
6 Jun 2022 05:46:52.592,203.971,-25.092,1852.764531
6 Jun 2022 07:15:42.216,39.142,-25.213,1830.661192
6 Jun 2022 07:16:42.000,50.356,-27.266,1555.384536
6 Jun 2022 07:17:42.000,66.337,-29.578,1360.534888
6 Jun 2022 07:18:42.000,86.567,-30.747,1285.586684
6 Jun 2022 07:19:42.000,106.968,-29.720,1350.755369
6 Jun 2022 07:20:42.000,123.276,-27.439,1537.911186
6 Jun 2022 07:21:42.000,134.790,-25.338,1808.794872
6 Jun 2022 07:21:50.277,136.066,-25.103,1850.756039
6 Jun 2022 17:15:26.858,69.357,-25.122,1847.166266
6 Jun 2022 17:16:26.000,82.799,-25.824,1731.993995
6 Jun 2022 17:17:26.000,97.675,-25.944,1714.734219
6 Jun 2022 17:18:26.000,111.909,-25.385,1800.854488
6 Jun 2022 17:18:40.771,115.120,-25.180,1836.612170
6 Jun 2022 18:48:55.226,351.807,-25.090,1853.131866
6 Jun 2022 18:49:55.000,348.354,-28.338,1455.395107
6 Jun 2022 18:50:55.000,341.708,-35.098,1082.799251
6 Jun 2022 18:51:55.000,324.946,-48.317,778.978523
6 Jun 2022 18:52:55.000,270.940,-60.856,650.973205
6 Jun 2022 18:53:55.000,219.126,-47.557,790.052747
6 Jun 2022 18:54:55.000,203.195,-34.675,1098.740043
6 Jun 2022 18:55:55.000,196.791,-28.131,1473.226132
6 Jun 2022 18:56:48.245,193.736,-25.230,1827.604022
7 Jun 2022 05:36:25.716,330.052,-25.218,1829.829763
7 Jun 2022 05:37:25.000,321.905,-28.023,1482.741025
7 Jun 2022 05:38:25.000,308.007,-32.594,1187.680668
7 Jun 2022 05:39:25.000,284.522,-37.530,1002.084103
7 Jun 2022 05:40:25.000,253.744,-37.922,990.548120
7 Jun 2022 05:41:25.000,228.974,-33.231,1158.375668
7 Jun 2022 05:42:25.000,214.114,-28.477,1443.826250
7 Jun 2022 05:43:25.000,205.362,-25.446,1790.646438
7 Jun 2022 05:43:35.120,204.258,-25.092,1852.739789
7 Jun 2022 07:12:24.016,38.793,-25.213,1830.592953
7 Jun 2022 07:13:24.000,49.993,-27.294,1552.545204
7 Jun 2022 07:14:24.000,65.971,-29.650,1355.536728
7 Jun 2022 07:15:24.000,86.297,-30.868,1278.480887
7 Jun 2022 07:16:24.000,106.864,-29.845,1342.313395
7 Jun 2022 07:17:24.000,123.300,-27.528,1529.075612
7 Jun 2022 07:18:24.000,134.876,-25.389,1800.124691
7 Jun 2022 07:18:33.962,136.410,-25.103,1850.789701
7 Jun 2022 17:12:12.142,70.015,-25.123,1847.047901
7 Jun 2022 17:13:12.000,83.656,-25.799,1735.642843
7 Jun 2022 17:14:12.000,98.473,-25.877,1724.289617
7 Jun 2022 17:15:12.000,112.553,-25.299,1815.489364
7 Jun 2022 17:15:20.800,114.457,-25.179,1836.783922
7 Jun 2022 18:45:38.004,352.072,-25.090,1853.134023
7 Jun 2022 18:46:38.000,348.685,-28.360,1453.524895
7 Jun 2022 18:47:38.000,342.168,-35.165,1080.333254
7 Jun 2022 18:48:38.000,325.616,-48.556,775.599114
7 Jun 2022 18:49:38.000,270.889,-61.428,646.969946
7 Jun 2022 18:50:38.000,218.459,-47.778,786.780868
7 Jun 2022 18:51:38.000,202.740,-34.736,1096.398287
7 Jun 2022 18:52:38.000,196.465,-28.151,1471.481690
7 Jun 2022 18:53:31.450,193.468,-25.230,1827.579213
8 Jun 2022 05:33:09.331,329.762,-25.217,1829.881304
8 Jun 2022 05:34:09.000,321.475,-28.033,1481.852822
8 Jun 2022 05:35:09.000,307.448,-32.565,1189.059404
8 Jun 2022 05:36:09.000,283.921,-37.377,1006.671338
8 Jun 2022 05:37:09.000,253.417,-37.662,998.169429
8 Jun 2022 05:38:09.000,228.953,-33.029,1167.438855
8 Jun 2022 05:39:09.000,214.214,-28.365,1453.132189
8 Jun 2022 05:40:09.000,205.492,-25.391,1799.774008
8 Jun 2022 05:40:17.643,204.545,-25.092,1852.723026
8 Jun 2022 07:09:05.828,38.446,-25.214,1830.525543
8 Jun 2022 07:10:05.000,49.405,-27.281,1553.876172
8 Jun 2022 07:11:05.000,65.291,-29.686,1353.032391
8 Jun 2022 07:12:05.000,85.664,-30.987,1271.573472
8 Jun 2022 07:13:05.000,106.438,-30.005,1331.726650
8 Jun 2022 07:14:05.000,123.090,-27.660,1516.328555
8 Jun 2022 07:15:05.000,134.803,-25.472,1786.435099
8 Jun 2022 07:15:17.636,136.752,-25.103,1850.822656
8 Jun 2022 17:08:57.514,70.691,-25.124,1846.924790
8 Jun 2022 17:09:57.000,84.268,-25.766,1740.613816
8 Jun 2022 17:10:57.000,99.017,-25.814,1733.386301
8 Jun 2022 17:11:57.000,112.969,-25.228,1827.970841
8 Jun 2022 17:12:00.738,113.776,-25.178,1836.962374
8 Jun 2022 18:42:20.785,352.337,-25.090,1853.136038
8 Jun 2022 18:43:20.000,349.089,-28.305,1458.200972
8 Jun 2022 18:44:20.000,342.786,-35.072,1083.765676
8 Jun 2022 18:45:20.000,326.758,-48.502,776.345648
8 Jun 2022 18:46:20.000,272.161,-62.019,642.967303
8 Jun 2022 18:47:20.000,218.223,-48.285,779.434039
8 Jun 2022 18:48:20.000,202.432,-34.952,1088.231508
8 Jun 2022 18:49:20.000,196.208,-28.246,1463.257333
8 Jun 2022 18:50:14.647,193.200,-25.231,1827.553606
9 Jun 2022 05:29:52.955,329.472,-25.217,1829.933335
9 Jun 2022 05:30:52.000,321.222,-27.982,1486.484563
9 Jun 2022 05:31:52.000,307.195,-32.448,1194.646164
9 Jun 2022 05:32:52.000,283.803,-37.168,1013.042217
9 Jun 2022 05:33:52.000,253.584,-37.454,1004.363508
9 Jun 2022 05:34:52.000,229.249,-32.918,1172.537779
9 Jun 2022 05:35:52.000,214.497,-28.318,1457.068149
9 Jun 2022 05:36:52.000,205.735,-25.373,1802.821094
9 Jun 2022 05:37:00.167,204.833,-25.092,1852.738166
9 Jun 2022 07:05:47.653,38.101,-25.214,1830.458952
9 Jun 2022 07:06:47.000,49.038,-27.307,1551.191770
9 Jun 2022 07:07:47.000,64.916,-29.758,1348.179117
9 Jun 2022 07:08:47.000,85.382,-31.110,1264.562865
9 Jun 2022 07:09:47.000,106.327,-30.135,1323.318980
9 Jun 2022 07:10:47.000,123.111,-27.753,1507.493289
9 Jun 2022 07:11:47.000,134.890,-25.526,1777.754528
9 Jun 2022 07:12:01.300,137.092,-25.102,1850.854907
9 Jun 2022 17:05:42.984,71.388,-25.124,1846.796471
9 Jun 2022 17:06:42.000,84.876,-25.731,1745.762681
9 Jun 2022 17:07:42.000,99.554,-25.752,1742.627489
9 Jun 2022 17:08:40.576,113.073,-25.177,1837.143983
9 Jun 2022 18:39:03.570,352.602,-25.090,1853.137912
9 Jun 2022 18:40:03.000,349.420,-28.326,1456.401648
9 Jun 2022 18:41:03.000,343.249,-35.136,1081.401465
9 Jun 2022 18:42:03.000,327.448,-48.734,773.105937
9 Jun 2022 18:43:03.000,272.135,-62.608,639.110393
9 Jun 2022 18:44:03.000,217.528,-48.506,776.289635
9 Jun 2022 18:45:03.000,201.969,-35.012,1085.997130
9 Jun 2022 18:46:03.000,195.878,-28.265,1461.602327
9 Jun 2022 18:46:57.839,192.932,-25.231,1827.528540
10 Jun 2022 05:26:36.586,329.181,-25.217,1829.985858
10 Jun 2022 05:27:36.000,320.793,-27.990,1485.721082
10 Jun 2022 05:28:36.000,306.642,-32.417,1196.162848
10 Jun 2022 05:29:36.000,283.218,-37.016,1017.743708
10 Jun 2022 05:30:36.000,253.267,-37.201,1012.036730
10 Jun 2022 05:31:36.000,229.226,-32.722,1181.618000
10 Jun 2022 05:32:36.000,214.594,-28.210,1466.384532
10 Jun 2022 05:33:36.000,205.863,-25.320,1811.958003
10 Jun 2022 05:33:42.680,205.122,-25.092,1852.719869
10 Jun 2022 07:02:29.492,37.757,-25.215,1830.393167
10 Jun 2022 07:03:29.000,48.670,-27.333,1548.568664
10 Jun 2022 07:04:29.000,64.537,-29.829,1343.380368
10 Jun 2022 07:05:29.000,85.097,-31.235,1257.585556
10 Jun 2022 07:06:29.000,106.214,-30.267,1314.922056
10 Jun 2022 07:07:29.000,123.133,-27.848,1498.658128
10 Jun 2022 07:08:29.000,134.978,-25.580,1769.071644
10 Jun 2022 07:08:44.957,137.431,-25.102,1850.899696
10 Jun 2022 17:02:28.559,72.108,-25.125,1846.662394
10 Jun 2022 17:03:28.000,85.720,-25.702,1750.257399
10 Jun 2022 17:04:28.000,100.326,-25.684,1752.900586
10 Jun 2022 17:05:20.303,112.348,-25.176,1837.329062
10 Jun 2022 18:35:46.359,352.867,-25.090,1853.139648
10 Jun 2022 18:36:46.000,349.751,-28.347,1454.633778
10 Jun 2022 18:37:46.000,343.715,-35.199,1079.082040
10 Jun 2022 18:38:46.000,328.149,-48.964,769.928722
10 Jun 2022 18:39:46.000,272.106,-63.204,635.329318
10 Jun 2022 18:40:46.000,216.821,-48.726,773.219389
10 Jun 2022 18:41:46.000,201.503,-35.071,1083.823754
10 Jun 2022 18:42:46.000,195.547,-28.284,1459.996598
10 Jun 2022 18:43:41.024,192.664,-25.231,1827.504026
11 Jun 2022 05:23:20.225,328.890,-25.217,1830.038877
11 Jun 2022 05:24:20.000,320.364,-27.998,1485.034464
11 Jun 2022 05:25:20.000,306.091,-32.384,1197.770611
11 Jun 2022 05:26:20.000,282.640,-36.864,1022.528829
11 Jun 2022 05:27:20.000,252.957,-36.952,1019.753624
11 Jun 2022 05:28:20.000,229.204,-32.530,1190.711952
11 Jun 2022 05:29:20.000,214.689,-28.103,1475.705656
11 Jun 2022 05:30:20.000,205.989,-25.267,1821.097615
11 Jun 2022 05:30:25.188,205.412,-25.093,1852.698165
11 Jun 2022 06:59:11.342,37.414,-25.215,1830.328175
11 Jun 2022 07:00:11.000,48.300,-27.358,1546.007103
11 Jun 2022 07:01:11.000,64.155,-29.900,1338.636780
11 Jun 2022 07:02:11.000,84.806,-31.360,1250.642284
11 Jun 2022 07:03:11.000,106.098,-30.401,1306.536384
11 Jun 2022 07:04:11.000,123.155,-27.945,1489.823444
11 Jun 2022 07:05:11.000,135.066,-25.636,1760.386814
11 Jun 2022 07:05:28.602,137.768,-25.102,1850.932325
11 Jun 2022 16:59:14.252,72.853,-25.126,1846.521899
11 Jun 2022 17:00:14.000,86.560,-25.670,1755.095529
11 Jun 2022 17:01:14.000,101.088,-25.616,1763.465570
11 Jun 2022 17:01:59.909,111.597,-25.175,1837.520871
11 Jun 2022 18:32:29.152,353.132,-25.090,1853.141242
11 Jun 2022 18:33:29.000,350.084,-28.368,1452.897169
11 Jun 2022 18:34:29.000,344.183,-35.262,1076.807413
11 Jun 2022 18:35:29.000,328.862,-49.193,766.814583
11 Jun 2022 18:36:29.000,272.073,-63.807,631.625437
11 Jun 2022 18:37:29.000,216.102,-48.942,770.224379
11 Jun 2022 18:38:29.000,201.035,-35.128,1081.712025
11 Jun 2022 18:39:29.000,195.215,-28.302,1458.440617
11 Jun 2022 18:40:24.203,192.396,-25.231,1827.479633
12 Jun 2022 05:20:03.873,328.597,-25.216,1830.092394
12 Jun 2022 05:21:03.000,320.116,-27.945,1489.791163
12 Jun 2022 05:22:03.000,305.850,-32.267,1203.474911
12 Jun 2022 05:23:03.000,282.539,-36.661,1028.975068
12 Jun 2022 05:24:03.000,253.124,-36.755,1025.979468
12 Jun 2022 05:25:03.000,229.492,-32.424,1195.839851
12 Jun 2022 05:26:03.000,214.966,-28.058,1479.675995
12 Jun 2022 05:27:03.000,206.228,-25.250,1824.177901
12 Jun 2022 05:27:07.689,205.702,-25.093,1852.673819
12 Jun 2022 06:55:53.205,37.074,-25.215,1830.263963
12 Jun 2022 06:56:53.000,47.928,-27.383,1543.507425
12 Jun 2022 06:57:53.000,63.768,-29.971,1333.949103
12 Jun 2022 06:58:53.000,84.511,-31.487,1243.733927
12 Jun 2022 06:59:53.000,105.980,-30.537,1298.162603
12 Jun 2022 07:00:53.000,123.176,-28.043,1480.989725
12 Jun 2022 07:01:53.000,135.154,-25.692,1751.700506
12 Jun 2022 07:02:12.237,138.104,-25.102,1850.964390
12 Jun 2022 16:56:00.077,73.626,-25.127,1846.374187
12 Jun 2022 16:57:00.000,87.394,-25.636,1760.274542
12 Jun 2022 16:58:00.000,101.839,-25.547,1774.317486
12 Jun 2022 16:58:39.381,110.818,-25.174,1837.720081
12 Jun 2022 18:29:11.948,353.396,-25.090,1853.142693
12 Jun 2022 18:30:11.000,350.482,-28.311,1457.740616
12 Jun 2022 18:31:11.000,344.793,-35.161,1080.494239
12 Jun 2022 18:32:11.000,330.021,-49.110,767.938566
12 Jun 2022 18:33:11.000,273.514,-64.417,628.006604
12 Jun 2022 18:34:11.000,215.805,-49.466,763.137672
12 Jun 2022 18:35:11.000,200.702,-35.346,1073.746808
12 Jun 2022 18:36:11.000,194.947,-28.398,1450.384328
12 Jun 2022 18:37:07.377,192.129,-25.231,1827.465755
13 Jun 2022 05:16:47.528,328.305,-25.216,1830.146408
13 Jun 2022 05:17:47.000,319.689,-27.951,1489.226424
13 Jun 2022 05:18:47.000,305.306,-32.232,1205.215663
13 Jun 2022 05:19:47.000,281.976,-36.510,1033.867489
13 Jun 2022 05:20:47.000,252.823,-36.514,1033.743835
13 Jun 2022 05:21:47.000,229.469,-32.238,1204.949330
13 Jun 2022 05:22:47.000,215.058,-27.954,1489.007147
13 Jun 2022 05:23:47.000,206.352,-25.198,1833.326985
13 Jun 2022 05:23:50.188,205.993,-25.093,1852.668310
13 Jun 2022 06:52:35.080,36.734,-25.216,1830.200528
13 Jun 2022 06:53:35.000,47.554,-27.407,1541.070126
13 Jun 2022 06:54:35.000,63.378,-30.042,1329.318248
13 Jun 2022 06:55:35.000,84.211,-31.615,1236.861511
13 Jun 2022 06:56:35.000,105.859,-30.676,1289.801461
13 Jun 2022 06:57:35.000,123.197,-28.143,1472.157519
13 Jun 2022 06:58:35.000,135.244,-25.750,1743.013210
13 Jun 2022 06:58:55.862,138.438,-25.102,1850.995900
13 Jun 2022 16:52:46.050,74.432,-25.127,1846.218282
13 Jun 2022 16:53:46.000,88.223,-25.601,1765.791872
13 Jun 2022 16:54:46.000,102.580,-25.478,1785.451432
13 Jun 2022 16:55:18.701,110.007,-25.173,1837.927617
13 Jun 2022 18:25:54.747,353.660,-25.090,1853.144008
13 Jun 2022 18:26:54.000,350.815,-28.330,1456.072727
13 Jun 2022 18:27:54.000,345.263,-35.220,1078.320253
13 Jun 2022 18:28:54.000,330.752,-49.330,764.967296
13 Jun 2022 18:29:54.000,273.515,-65.035,624.459696
13 Jun 2022 18:30:54.000,215.055,-49.682,760.279513
13 Jun 2022 18:31:54.000,200.225,-35.402,1071.748403
13 Jun 2022 18:32:54.000,194.611,-28.415,1448.921962
13 Jun 2022 18:33:50.542,191.862,-25.231,1827.435971
14 Jun 2022 05:13:31.191,328.011,-25.216,1830.200921
14 Jun 2022 05:14:31.000,319.261,-27.957,1488.737406
14 Jun 2022 05:15:31.000,304.764,-32.195,1207.044899
14 Jun 2022 05:16:31.000,281.421,-36.358,1038.839091
14 Jun 2022 05:17:31.000,252.529,-36.276,1041.548375
14 Jun 2022 05:18:31.000,229.446,-32.055,1214.070897
14 Jun 2022 05:19:31.000,215.148,-27.851,1498.342124
14 Jun 2022 05:20:31.000,206.474,-25.148,1842.478166
14 Jun 2022 05:20:32.679,206.284,-25.093,1852.647904
14 Jun 2022 06:49:16.968,36.397,-25.216,1830.137856
14 Jun 2022 06:50:16.000,46.962,-27.388,1543.025011
14 Jun 2022 06:51:16.000,62.674,-30.071,1327.451315
14 Jun 2022 06:52:16.000,83.533,-31.737,1230.428908
14 Jun 2022 06:53:16.000,105.398,-30.852,1279.426986
14 Jun 2022 06:54:16.000,122.974,-28.290,1459.447446
14 Jun 2022 06:55:16.000,135.169,-25.842,1729.292433
14 Jun 2022 06:55:39.478,138.771,-25.101,1851.026856
14 Jun 2022 16:49:32.192,75.274,-25.128,1846.052945
14 Jun 2022 16:50:32.000,89.046,-25.564,1771.644801
14 Jun 2022 16:51:32.000,103.311,-25.409,1796.862441
14 Jun 2022 16:51:57.850,109.159,-25.172,1838.144551
14 Jun 2022 18:22:37.550,353.924,-25.090,1853.145182
14 Jun 2022 18:23:37.000,351.148,-28.350,1454.436045
14 Jun 2022 18:24:37.000,345.736,-35.279,1076.191395
14 Jun 2022 18:25:37.000,331.496,-49.547,762.060795
14 Jun 2022 18:26:37.000,273.514,-65.662,620.993710
14 Jun 2022 18:27:37.000,214.291,-49.895,757.499295
14 Jun 2022 18:28:37.000,199.745,-35.456,1069.812912
14 Jun 2022 18:29:37.000,194.275,-28.432,1447.509992
14 Jun 2022 18:30:33.703,191.595,-25.231,1827.426740
15 Jun 2022 05:10:14.862,327.717,-25.215,1830.255933
15 Jun 2022 05:11:14.000,319.020,-27.903,1493.614143
15 Jun 2022 05:12:14.000,304.535,-32.079,1212.859315
15 Jun 2022 05:13:14.000,281.335,-36.162,1045.352401
15 Jun 2022 05:14:14.000,252.697,-36.090,1047.800603
15 Jun 2022 05:15:14.000,229.728,-31.954,1219.224200
15 Jun 2022 05:16:14.000,215.420,-27.808,1502.344201
15 Jun 2022 05:17:14.000,206.709,-25.131,1845.589840
15 Jun 2022 05:17:15.168,206.576,-25.093,1852.644717
15 Jun 2022 06:45:58.867,36.060,-25.216,1830.075946
15 Jun 2022 06:46:58.000,46.585,-27.410,1540.747548
15 Jun 2022 06:47:58.000,62.276,-30.140,1322.976785
15 Jun 2022 06:48:58.000,83.221,-31.867,1223.665842
15 Jun 2022 06:49:58.000,105.269,-30.995,1271.109804
15 Jun 2022 06:50:58.000,122.993,-28.395,1450.621142
15 Jun 2022 06:51:58.000,135.259,-25.903,1720.599055
15 Jun 2022 06:52:23.084,139.102,-25.101,1851.055766
15 Jun 2022 16:46:18.529,76.159,-25.129,1845.876679
15 Jun 2022 16:47:18.000,89.862,-25.525,1777.830319
15 Jun 2022 16:48:18.000,104.031,-25.340,1808.545354
15 Jun 2022 16:48:36.800,108.268,-25.170,1838.372291
15 Jun 2022 18:19:20.357,354.188,-25.090,1853.146217
15 Jun 2022 18:20:20.000,351.483,-28.369,1452.831103
15 Jun 2022 18:21:20.000,346.211,-35.336,1074.108319
15 Jun 2022 18:22:20.000,332.251,-49.763,759.220083
15 Jun 2022 18:23:20.000,273.511,-66.295,617.610016
15 Jun 2022 18:24:20.000,213.515,-50.104,754.797615
15 Jun 2022 18:25:20.000,199.262,-35.508,1067.940301
15 Jun 2022 18:26:20.000,193.937,-28.449,1446.148150
15 Jun 2022 18:27:16.857,191.328,-25.231,1827.407022
16 Jun 2022 05:06:58.541,327.422,-25.215,1830.311447
16 Jun 2022 05:07:58.000,318.594,-27.907,1493.245365
16 Jun 2022 05:08:58.000,304.000,-32.040,1214.817058
16 Jun 2022 05:09:58.000,280.795,-36.012,1050.423980
16 Jun 2022 05:10:58.000,252.411,-35.860,1055.646629
16 Jun 2022 05:11:58.000,229.704,-31.777,1228.357226
16 Jun 2022 05:12:58.000,215.508,-27.709,1511.685789
16 Jun 2022 05:13:57.649,206.869,-25.093,1852.627868
16 Jun 2022 06:42:40.778,35.726,-25.217,1830.014785
16 Jun 2022 06:43:40.000,46.207,-27.432,1538.534777
16 Jun 2022 06:44:40.000,61.874,-30.209,1318.562576
16 Jun 2022 06:45:40.000,82.903,-31.998,1216.942381
16 Jun 2022 06:46:40.000,105.138,-31.141,1262.807433
16 Jun 2022 06:47:40.000,123.012,-28.501,1441.797272
16 Jun 2022 06:48:40.000,135.350,-25.964,1711.905095
16 Jun 2022 06:49:06.683,139.432,-25.101,1851.091631
16 Jun 2022 16:43:05.095,77.094,-25.130,1845.687507
16 Jun 2022 16:44:05.000,90.909,-25.486,1784.125281
16 Jun 2022 16:45:05.000,104.967,-25.262,1821.930238
16 Jun 2022 16:45:15.515,107.326,-25.169,1838.605812
16 Jun 2022 18:16:03.167,354.452,-25.090,1853.147113
16 Jun 2022 18:17:03.000,351.818,-28.387,1451.258554
16 Jun 2022 18:18:03.000,346.689,-35.393,1072.071813
16 Jun 2022 18:19:03.000,333.019,-49.976,756.446320
16 Jun 2022 18:20:03.000,273.506,-66.936,614.310093
16 Jun 2022 18:21:03.000,212.726,-50.310,752.175094
16 Jun 2022 18:22:03.000,198.777,-35.559,1066.130513
16 Jun 2022 18:23:03.000,193.599,-28.465,1444.836124
16 Jun 2022 18:24:00.006,191.061,-25.231,1827.397240
17 Jun 2022 05:03:42.229,327.126,-25.215,1830.367464
17 Jun 2022 05:04:42.000,318.169,-27.910,1492.952541
17 Jun 2022 05:05:42.000,303.469,-32.000,1216.861770
17 Jun 2022 05:06:42.000,280.262,-35.862,1055.571004
17 Jun 2022 05:07:42.000,252.131,-35.633,1063.529399
17 Jun 2022 05:08:42.000,229.680,-31.603,1237.500036
17 Jun 2022 05:09:42.000,215.594,-27.611,1521.029190
17 Jun 2022 05:10:40.125,207.163,-25.093,1852.615489
17 Jun 2022 06:39:22.701,35.392,-25.217,1829.954363
17 Jun 2022 06:40:22.000,45.828,-27.454,1536.387373
17 Jun 2022 06:41:22.000,61.468,-30.278,1314.209593
17 Jun 2022 06:42:22.000,82.581,-32.131,1210.259325
17 Jun 2022 06:43:22.000,105.003,-31.290,1254.520123
17 Jun 2022 06:44:22.000,123.031,-28.610,1432.975690
17 Jun 2022 06:45:22.000,135.442,-26.026,1703.210252
17 Jun 2022 06:45:50.273,139.760,-25.101,1851.130248
17 Jun 2022 16:39:51.931,78.089,-25.131,1845.489058
17 Jun 2022 16:40:51.000,91.712,-25.444,1791.060264
17 Jun 2022 16:41:51.000,105.664,-25.193,1834.222161
17 Jun 2022 16:41:53.961,106.326,-25.168,1838.867006
17 Jun 2022 18:12:45.981,354.716,-25.090,1853.147870
17 Jun 2022 18:13:45.000,352.210,-28.327,1456.304613
17 Jun 2022 18:14:45.000,347.290,-35.282,1076.066344
17 Jun 2022 18:15:45.000,334.193,-49.854,758.032549
17 Jun 2022 18:16:45.000,275.216,-67.567,611.181380
17 Jun 2022 18:17:45.000,212.338,-50.850,745.431831
17 Jun 2022 18:18:45.000,198.413,-35.779,1058.429627
17 Jun 2022 18:19:45.000,193.316,-28.560,1436.997219
17 Jun 2022 18:20:43.143,190.794,-25.232,1827.347476
18 Jun 2022 05:00:25.925,326.830,-25.214,1830.423990
18 Jun 2022 05:01:25.000,317.933,-27.856,1497.948197
18 Jun 2022 05:02:25.000,303.251,-31.884,1222.782063
18 Jun 2022 05:03:25.000,280.190,-35.673,1062.145191
18 Jun 2022 05:04:25.000,252.299,-35.456,1069.802756
18 Jun 2022 05:05:25.000,229.955,-31.507,1242.673486
18 Jun 2022 05:06:25.000,215.860,-27.569,1525.057576
18 Jun 2022 05:07:22.595,207.457,-25.093,1852.602814
18 Jun 2022 06:36:04.636,35.060,-25.217,1829.894671
18 Jun 2022 06:37:04.000,45.447,-27.475,1534.305783
18 Jun 2022 06:38:04.000,61.058,-30.347,1309.918531
18 Jun 2022 06:39:04.000,82.254,-32.264,1203.617314
18 Jun 2022 06:40:04.000,104.866,-31.441,1246.248023
18 Jun 2022 06:41:04.000,123.050,-28.720,1424.156199
18 Jun 2022 06:42:04.000,135.534,-26.089,1694.514220
18 Jun 2022 06:42:33.855,140.088,-25.101,1851.171853
18 Jun 2022 16:36:39.101,79.158,-25.133,1845.271776
18 Jun 2022 16:37:39.000,92.977,-25.400,1798.337968
18 Jun 2022 16:38:32.066,105.251,-25.166,1839.138097
18 Jun 2022 18:09:28.799,354.980,-25.090,1853.148488
18 Jun 2022 18:10:28.000,352.545,-28.345,1454.803883
18 Jun 2022 18:11:28.000,347.769,-35.336,1074.134268
18 Jun 2022 18:12:28.000,334.978,-50.057,755.409138
18 Jun 2022 18:13:28.000,275.264,-68.222,608.052201
18 Jun 2022 18:14:28.000,211.515,-51.052,742.954776
18 Jun 2022 18:15:28.000,197.920,-35.828,1056.735704
18 Jun 2022 18:16:28.000,192.975,-28.575,1435.778551
18 Jun 2022 18:17:26.279,190.527,-25.232,1827.332978
19 Jun 2022 04:57:09.629,326.533,-25.214,1830.481026
19 Jun 2022 04:58:09.000,317.510,-27.858,1497.776027
19 Jun 2022 04:59:09.000,302.726,-31.842,1224.953086
19 Jun 2022 05:00:09.000,279.671,-35.524,1067.387477
19 Jun 2022 05:01:09.000,252.027,-35.237,1077.723363
19 Jun 2022 05:02:09.000,229.931,-31.339,1251.825271
19 Jun 2022 05:03:09.000,215.944,-27.474,1534.405133
19 Jun 2022 05:04:05.061,207.752,-25.093,1852.589843
19 Jun 2022 06:32:46.582,34.730,-25.218,1829.835696
19 Jun 2022 06:33:46.000,45.064,-27.495,1532.290248
19 Jun 2022 06:34:46.000,60.645,-30.415,1305.689943
19 Jun 2022 06:35:46.000,81.921,-32.399,1197.016933
19 Jun 2022 06:36:46.000,104.726,-31.594,1237.991310
19 Jun 2022 06:37:46.000,123.068,-28.832,1415.338696
19 Jun 2022 06:38:46.000,135.627,-26.154,1685.816840
19 Jun 2022 06:39:17.428,140.413,-25.101,1851.206511
19 Jun 2022 16:33:26.694,80.321,-25.134,1845.028530
19 Jun 2022 16:34:26.000,93.997,-25.353,1806.242010
19 Jun 2022 16:35:09.751,104.083,-25.164,1839.438157
19 Jun 2022 18:06:11.620,355.243,-25.090,1853.148967
19 Jun 2022 18:07:11.000,352.881,-28.363,1453.336415
19 Jun 2022 18:08:11.000,348.251,-35.388,1072.250047
19 Jun 2022 18:09:11.000,335.774,-50.256,752.855302
19 Jun 2022 18:10:11.000,275.313,-68.885,605.011341
19 Jun 2022 18:11:11.000,210.679,-51.250,740.559796
19 Jun 2022 18:12:11.000,197.423,-35.875,1055.105711
19 Jun 2022 18:13:11.000,192.632,-28.590,1434.610030
19 Jun 2022 18:14:09.410,190.260,-25.232,1827.328452
20 Jun 2022 04:53:53.342,326.235,-25.214,1830.538578
20 Jun 2022 04:54:53.000,317.087,-27.859,1497.679832
20 Jun 2022 04:55:53.000,302.204,-31.799,1227.209778
20 Jun 2022 04:56:53.000,279.160,-35.375,1072.702439
20 Jun 2022 04:57:53.000,251.761,-35.021,1085.678863
20 Jun 2022 04:58:53.000,229.907,-31.174,1260.986285
20 Jun 2022 04:59:53.000,216.027,-27.380,1543.754253
20 Jun 2022 05:00:47.518,208.049,-25.093,1852.561860
20 Jun 2022 06:29:28.539,34.400,-25.218,1829.777432
20 Jun 2022 06:30:28.000,44.680,-27.515,1530.340893
20 Jun 2022 06:31:28.000,60.228,-30.482,1301.524325
20 Jun 2022 06:32:28.000,81.582,-32.535,1190.458809
20 Jun 2022 06:33:28.000,104.583,-31.750,1229.750280
20 Jun 2022 06:34:28.000,123.086,-28.946,1406.523254
20 Jun 2022 06:35:28.000,135.721,-26.219,1677.118158
20 Jun 2022 06:36:00.991,140.738,-25.100,1851.237060
20 Jun 2022 16:30:14.846,81.608,-25.135,1844.755284
20 Jun 2022 16:31:14.000,95.238,-25.302,1814.961154
20 Jun 2022 16:31:46.873,102.790,-25.163,1839.765209
20 Jun 2022 18:02:54.445,355.507,-25.090,1853.149307
20 Jun 2022 18:03:54.000,353.218,-28.380,1451.902136
20 Jun 2022 18:04:54.000,348.734,-35.439,1070.413801
20 Jun 2022 18:05:54.000,336.582,-50.452,750.371709
20 Jun 2022 18:06:54.000,275.363,-69.554,602.060270
20 Jun 2022 18:07:54.000,209.830,-51.444,738.247946
20 Jun 2022 18:08:54.000,196.925,-35.921,1053.540226
20 Jun 2022 18:09:54.000,192.289,-28.603,1433.492061
20 Jun 2022 18:10:52.534,189.994,-25.232,1827.319740
21 Jun 2022 04:50:37.064,325.936,-25.213,1830.596650
21 Jun 2022 04:51:37.000,316.664,-27.859,1497.659367
21 Jun 2022 04:52:37.000,301.686,-31.754,1229.551446
21 Jun 2022 04:53:37.000,278.657,-35.227,1078.088862
21 Jun 2022 04:54:37.000,251.501,-34.808,1093.668466
21 Jun 2022 04:55:37.000,229.885,-31.012,1270.156400
21 Jun 2022 04:56:37.000,216.109,-27.289,1553.105041
21 Jun 2022 04:57:29.972,208.345,-25.093,1852.549630
21 Jun 2022 06:26:10.508,34.072,-25.218,1829.719873
21 Jun 2022 06:27:10.000,44.294,-27.534,1528.457823
21 Jun 2022 06:28:10.000,59.806,-30.549,1297.422210
21 Jun 2022 06:29:10.000,81.238,-32.672,1183.943669
21 Jun 2022 06:30:10.000,104.436,-31.909,1221.525383
21 Jun 2022 06:31:10.000,123.104,-29.063,1397.710116
21 Jun 2022 06:32:10.000,135.815,-26.286,1668.418397
21 Jun 2022 06:32:44.546,141.061,-25.100,1851.267215
21 Jun 2022 16:27:03.786,83.073,-25.137,1844.441293
21 Jun 2022 16:28:03.000,96.696,-25.245,1824.924378
21 Jun 2022 16:28:23.198,101.318,-25.161,1840.131752
21 Jun 2022 17:59:37.274,355.770,-25.090,1853.149509
21 Jun 2022 18:00:37.000,353.555,-28.396,1450.500883
21 Jun 2022 18:01:37.000,349.220,-35.489,1068.625553
21 Jun 2022 18:02:37.000,337.402,-50.645,747.958928
21 Jun 2022 18:03:37.000,275.414,-70.231,599.200385
21 Jun 2022 18:04:37.000,208.968,-51.632,736.020257
21 Jun 2022 18:05:37.000,196.424,-35.965,1052.039844
21 Jun 2022 18:06:37.000,191.944,-28.617,1432.425084
21 Jun 2022 18:07:35.650,189.727,-25.232,1827.300547
22 Jun 2022 04:47:20.794,325.637,-25.213,1830.655246
22 Jun 2022 04:48:20.000,316.437,-27.803,1502.815591
22 Jun 2022 04:49:20.000,301.484,-31.639,1235.612009
22 Jun 2022 04:50:20.000,278.603,-35.046,1084.739585
22 Jun 2022 04:51:20.000,251.670,-34.643,1099.963331
22 Jun 2022 04:52:20.000,230.151,-30.922,1275.349134
22 Jun 2022 04:53:20.000,216.368,-27.249,1557.161900
22 Jun 2022 04:54:12.420,208.643,-25.093,1852.537017
22 Jun 2022 06:22:52.488,33.746,-25.219,1829.663001
22 Jun 2022 06:23:52.000,43.907,-27.553,1526.641192
22 Jun 2022 06:24:52.000,59.381,-30.616,1293.384208
22 Jun 2022 06:25:52.000,80.889,-32.811,1177.472361
22 Jun 2022 06:26:52.000,104.287,-32.070,1213.317198
22 Jun 2022 06:27:52.000,123.122,-29.181,1388.899652
22 Jun 2022 06:28:52.000,135.911,-26.354,1659.717901
22 Jun 2022 06:29:28.093,141.383,-25.100,1851.296998
22 Jun 2022 16:23:53.978,84.820,-25.139,1844.060084
22 Jun 2022 16:24:53.000,98.364,-25.180,1836.630619
22 Jun 2022 16:24:58.273,99.566,-25.158,1840.572189
22 Jun 2022 17:56:20.106,356.033,-25.090,1853.149574
22 Jun 2022 17:57:20.000,353.893,-28.413,1449.132487
22 Jun 2022 17:58:20.000,349.708,-35.538,1066.885309
22 Jun 2022 17:59:20.000,338.233,-50.834,745.617488
22 Jun 2022 18:00:20.000,275.467,-70.914,596.433025
22 Jun 2022 18:01:20.000,208.093,-51.815,733.877700
22 Jun 2022 18:02:20.000,195.921,-36.007,1050.605115
22 Jun 2022 18:03:20.000,191.600,-28.629,1431.409503
22 Jun 2022 18:04:18.761,189.461,-25.232,1827.281770
23 Jun 2022 04:44:04.532,325.337,-25.213,1830.714367
23 Jun 2022 04:45:04.000,316.017,-27.802,1502.913017
23 Jun 2022 04:46:04.000,300.972,-31.593,1238.074690
23 Jun 2022 04:47:04.000,278.112,-34.899,1090.214440
23 Jun 2022 04:48:04.000,251.417,-34.437,1107.987435
23 Jun 2022 04:49:04.000,230.127,-30.765,1284.527927
23 Jun 2022 04:50:04.000,216.447,-27.160,1566.517421
23 Jun 2022 04:50:54.862,208.941,-25.093,1852.524027
23 Jun 2022 06:19:34.479,33.420,-25.219,1829.606813
23 Jun 2022 06:20:34.000,43.518,-27.571,1524.891223
23 Jun 2022 06:21:34.000,58.953,-30.682,1289.411015
23 Jun 2022 06:22:34.000,80.534,-32.950,1171.045836
23 Jun 2022 06:23:34.000,104.134,-32.234,1205.126399
23 Jun 2022 06:24:34.000,123.140,-29.302,1380.092302
23 Jun 2022 06:25:34.000,136.007,-26.423,1651.017066
23 Jun 2022 06:26:11.630,141.703,-25.100,1851.316929
23 Jun 2022 16:20:46.674,87.134,-25.142,1843.543623
23 Jun 2022 16:21:08.755,92.185,-25.185,1835.726900
23 Jun 2022 16:21:30.835,97.245,-25.155,1841.146090
23 Jun 2022 17:53:02.942,356.296,-25.090,1853.149500
23 Jun 2022 17:54:02.000,354.277,-28.350,1454.418281
23 Jun 2022 17:55:02.000,350.296,-35.416,1071.243038
23 Jun 2022 17:56:02.000,339.413,-50.661,747.757736
23 Jun 2022 17:57:02.000,277.651,-71.561,593.923916
23 Jun 2022 17:58:02.000,207.579,-52.364,727.581495
23 Jun 2022 17:59:02.000,195.521,-36.226,1043.241424
23 Jun 2022 18:00:02.000,191.301,-28.724,1423.842109
23 Jun 2022 18:01:01.865,189.195,-25.232,1827.263409
24 Jun 2022 04:40:48.280,325.036,-25.212,1830.774016
24 Jun 2022 04:41:48.000,315.597,-27.800,1503.084874
24 Jun 2022 04:42:48.000,300.464,-31.545,1240.619808
24 Jun 2022 04:43:48.000,277.629,-34.753,1095.757181
24 Jun 2022 04:44:48.000,251.169,-34.234,1116.043422
24 Jun 2022 04:45:48.000,230.104,-30.611,1293.715169
24 Jun 2022 04:46:48.000,216.526,-27.072,1575.874518
24 Jun 2022 04:47:37.298,209.240,-25.094,1852.510655
24 Jun 2022 06:16:16.480,33.096,-25.219,1829.551306
24 Jun 2022 06:17:16.000,43.128,-27.588,1523.208220
24 Jun 2022 06:18:16.000,58.520,-30.748,1285.503407
24 Jun 2022 06:19:16.000,80.173,-33.091,1164.665122
24 Jun 2022 06:20:16.000,103.978,-32.401,1196.953716
24 Jun 2022 06:21:16.000,123.157,-29.425,1371.288531
24 Jun 2022 06:22:16.000,136.104,-26.493,1642.316290
24 Jun 2022 06:22:55.161,142.022,-25.100,1851.343678
24 Jun 2022 17:49:45.782,356.559,-25.090,1853.149287
24 Jun 2022 17:50:45.000,354.615,-28.365,1453.119592
24 Jun 2022 17:51:45.000,350.784,-35.462,1069.606300
24 Jun 2022 17:52:45.000,340.258,-50.838,745.571128
24 Jun 2022 17:53:45.000,277.796,-72.255,591.343491
24 Jun 2022 17:54:45.000,206.668,-52.541,725.598436
24 Jun 2022 17:55:45.000,195.010,-36.265,1041.930750
24 Jun 2022 17:56:45.000,190.953,-28.736,1422.925342
24 Jun 2022 17:57:44.962,188.929,-25.232,1827.245463
25 Jun 2022 04:37:32.036,324.734,-25.212,1830.834197
25 Jun 2022 04:38:32.000,315.177,-27.798,1503.330820
25 Jun 2022 04:39:32.000,299.958,-31.496,1243.246495
25 Jun 2022 04:40:32.000,277.153,-34.607,1101.366400
25 Jun 2022 04:41:32.000,250.926,-34.035,1124.130258
25 Jun 2022 04:42:32.000,230.083,-30.460,1302.910404
25 Jun 2022 04:43:32.000,216.603,-26.986,1585.232957
25 Jun 2022 04:44:19.727,209.540,-25.094,1852.496898
25 Jun 2022 06:12:58.493,32.773,-25.220,1829.496468
25 Jun 2022 06:13:58.000,42.737,-27.605,1521.592551
25 Jun 2022 06:14:58.000,58.084,-30.813,1281.662219
25 Jun 2022 06:15:58.000,79.806,-33.232,1158.331303
25 Jun 2022 06:16:58.000,103.818,-32.570,1188.799902
25 Jun 2022 06:17:58.000,123.174,-29.550,1362.488795
25 Jun 2022 06:18:58.000,136.202,-26.565,1633.615936
25 Jun 2022 06:19:38.683,142.340,-25.100,1851.369814
25 Jun 2022 17:46:28.625,356.822,-25.090,1853.148937
25 Jun 2022 17:47:28.000,354.953,-28.380,1451.853429
25 Jun 2022 17:48:28.000,351.275,-35.506,1068.017559
25 Jun 2022 17:49:28.000,341.113,-51.011,743.457100
25 Jun 2022 17:50:28.000,277.951,-72.957,588.859242
25 Jun 2022 17:51:28.000,205.745,-52.711,723.703310
25 Jun 2022 17:52:28.000,194.497,-36.302,1040.687188
25 Jun 2022 17:53:28.000,190.604,-28.746,1422.060897
25 Jun 2022 17:54:28.000,188.664,-25.234,1826.859063
25 Jun 2022 17:54:28.054,188.663,-25.232,1827.227932
26 Jun 2022 04:34:15.801,324.431,-25.212,1830.894910
26 Jun 2022 04:35:15.000,314.958,-27.741,1508.639071
26 Jun 2022 04:36:15.000,299.772,-31.382,1249.435680
26 Jun 2022 04:37:15.000,277.115,-34.435,1108.083012
26 Jun 2022 04:38:15.000,251.096,-33.882,1130.442165
26 Jun 2022 04:39:15.000,230.341,-30.375,1308.120925
26 Jun 2022 04:40:15.000,216.856,-26.949,1589.317849
26 Jun 2022 04:41:02.151,209.841,-25.094,1852.482755
26 Jun 2022 06:09:40.515,32.451,-25.220,1829.443811
26 Jun 2022 06:10:40.000,42.344,-27.621,1520.044641
26 Jun 2022 06:11:40.000,57.644,-30.878,1277.888328
26 Jun 2022 06:12:40.000,79.434,-33.375,1152.045494
26 Jun 2022 06:13:40.000,103.655,-32.742,1180.665714
26 Jun 2022 06:14:40.000,123.192,-29.677,1353.693514
26 Jun 2022 06:15:40.000,136.300,-26.638,1624.916320
26 Jun 2022 06:16:22.198,142.657,-25.099,1851.395333
26 Jun 2022 17:43:11.471,357.085,-25.090,1853.148450
26 Jun 2022 17:44:11.000,355.293,-28.395,1450.619909
26 Jun 2022 17:45:11.000,351.767,-35.550,1066.477062
26 Jun 2022 17:46:11.000,341.980,-51.179,741.416304
26 Jun 2022 17:47:11.000,278.118,-73.664,586.472409
26 Jun 2022 17:48:11.000,204.809,-52.875,721.896812
26 Jun 2022 17:49:11.000,193.982,-36.338,1039.510969
26 Jun 2022 17:50:11.000,190.255,-28.757,1421.248855
26 Jun 2022 17:51:11.000,188.400,-25.238,1826.258140
26 Jun 2022 17:51:11.139,188.397,-25.232,1827.210815
27 Jun 2022 04:30:59.574,324.127,-25.211,1830.956160
27 Jun 2022 04:31:59.000,314.541,-27.737,1508.999249
27 Jun 2022 04:32:59.000,299.274,-31.332,1252.176773
27 Jun 2022 04:33:59.000,276.650,-34.291,1113.772399
27 Jun 2022 04:34:59.000,250.859,-33.688,1138.558313
27 Jun 2022 04:35:59.000,230.318,-30.229,1317.322343
27 Jun 2022 04:36:59.000,216.931,-26.865,1598.679437
27 Jun 2022 04:37:44.566,210.143,-25.094,1852.454923
27 Jun 2022 06:06:22.548,32.130,-25.220,1829.390869
27 Jun 2022 06:07:22.000,41.951,-27.636,1518.564948
27 Jun 2022 06:08:22.000,57.200,-30.942,1274.182636
27 Jun 2022 06:09:22.000,79.055,-33.519,1145.808824
27 Jun 2022 06:10:22.000,103.489,-32.917,1172.551891
27 Jun 2022 06:11:22.000,123.208,-29.806,1344.903065
27 Jun 2022 06:12:22.000,136.400,-26.712,1616.217690
27 Jun 2022 06:13:05.705,142.973,-25.099,1851.420245
27 Jun 2022 17:39:54.321,357.348,-25.090,1853.147824
27 Jun 2022 17:40:54.000,355.632,-28.409,1449.419219
27 Jun 2022 17:41:54.000,352.261,-35.592,1064.985118
27 Jun 2022 17:42:54.000,342.857,-51.343,739.449433
27 Jun 2022 17:43:54.000,278.297,-74.378,584.184224
27 Jun 2022 17:44:54.000,203.860,-53.032,720.179577
27 Jun 2022 17:45:54.000,193.466,-36.372,1038.402260
27 Jun 2022 17:46:54.000,189.906,-28.766,1420.489231
27 Jun 2022 17:47:54.000,188.136,-25.241,1825.699982
27 Jun 2022 17:47:54.218,188.131,-25.233,1827.194111
28 Jun 2022 04:27:43.357,323.823,-25.211,1831.017947
28 Jun 2022 04:28:43.000,314.125,-27.732,1509.432559
28 Jun 2022 04:29:43.000,298.779,-31.281,1254.997034
28 Jun 2022 04:30:43.000,276.193,-34.148,1119.524693
28 Jun 2022 04:31:43.000,250.627,-33.498,1146.702755
28 Jun 2022 04:32:43.000,230.296,-30.085,1326.530379
28 Jun 2022 04:33:43.000,217.006,-26.782,1608.041374
28 Jun 2022 04:34:26.977,210.445,-25.094,1852.441758
28 Jun 2022 06:03:04.591,31.810,-25.221,1829.338587
28 Jun 2022 06:04:04.000,41.556,-27.651,1517.153949
28 Jun 2022 06:05:04.000,56.753,-31.005,1270.546047
28 Jun 2022 06:06:04.000,78.670,-33.663,1139.622420
28 Jun 2022 06:07:04.000,103.319,-33.095,1164.459146
28 Jun 2022 06:08:04.000,123.225,-29.938,1336.117770
28 Jun 2022 06:09:04.000,136.500,-26.787,1607.520232
28 Jun 2022 06:09:49.204,143.288,-25.099,1851.444554
28 Jun 2022 17:36:37.174,357.611,-25.090,1853.147059
28 Jun 2022 17:37:37.000,355.973,-28.423,1448.251604
28 Jun 2022 17:38:37.000,352.757,-35.633,1063.542092
28 Jun 2022 17:39:37.000,343.745,-51.502,737.557217
28 Jun 2022 17:40:37.000,278.490,-75.097,581.995910
28 Jun 2022 17:41:37.000,202.900,-53.182,718.552202
28 Jun 2022 17:42:37.000,192.947,-36.403,1037.361182
28 Jun 2022 17:43:37.000,189.555,-28.775,1419.781995
28 Jun 2022 17:44:37.000,187.871,-25.244,1825.184501
28 Jun 2022 17:44:37.291,187.865,-25.233,1827.177821
29 Jun 2022 04:24:27.148,323.518,-25.211,1831.080276
29 Jun 2022 04:25:27.000,313.710,-27.727,1509.938838
29 Jun 2022 04:26:27.000,298.287,-31.229,1257.895732
29 Jun 2022 04:27:27.000,275.743,-34.005,1125.338629
29 Jun 2022 04:28:27.000,250.400,-33.310,1154.874521
29 Jun 2022 04:29:27.000,230.274,-29.944,1335.744511
29 Jun 2022 04:30:27.000,217.079,-26.702,1617.403284
29 Jun 2022 04:31:09.382,210.749,-25.094,1852.428086
29 Jun 2022 05:59:46.645,31.492,-25.221,1829.286961
29 Jun 2022 06:00:46.000,41.160,-27.665,1515.812119
29 Jun 2022 06:01:46.000,56.302,-31.068,1266.979458
29 Jun 2022 06:02:46.000,78.279,-33.809,1133.487392
29 Jun 2022 06:03:46.000,103.145,-33.276,1156.388159
29 Jun 2022 06:04:46.000,123.241,-30.073,1327.337897
29 Jun 2022 06:05:46.000,136.602,-26.864,1598.824067
29 Jun 2022 06:06:32.695,143.602,-25.099,1851.468250
29 Jun 2022 17:33:20.031,357.873,-25.090,1853.146160
29 Jun 2022 17:34:20.000,356.314,-28.437,1447.117341
29 Jun 2022 17:35:20.000,353.254,-35.672,1062.148376
29 Jun 2022 17:36:20.000,344.643,-51.656,735.740402
29 Jun 2022 17:37:20.000,278.701,-75.822,579.908674
29 Jun 2022 17:38:20.000,201.928,-53.326,717.015247
29 Jun 2022 17:39:20.000,192.428,-36.433,1036.387826
29 Jun 2022 17:40:20.000,189.204,-28.784,1419.127086
29 Jun 2022 17:41:20.000,187.606,-25.247,1824.711583
29 Jun 2022 17:41:20.357,187.599,-25.233,1827.161944
30 Jun 2022 04:21:10.949,323.211,-25.210,1831.143149
30 Jun 2022 04:22:10.000,313.499,-27.670,1515.392179
30 Jun 2022 04:23:10.000,298.116,-31.117,1264.202709
30 Jun 2022 04:24:10.000,275.719,-33.842,1132.110212
30 Jun 2022 04:25:10.000,250.569,-33.168,1161.196724
30 Jun 2022 04:26:10.000,230.525,-29.865,1340.967603
30 Jun 2022 04:27:10.000,217.325,-26.666,1621.511420
30 Jun 2022 04:27:51.781,211.053,-25.094,1852.413885
30 Jun 2022 05:56:28.709,31.174,-25.221,1829.235984
30 Jun 2022 05:57:28.000,40.762,-27.678,1514.539913
30 Jun 2022 05:58:28.000,55.847,-31.129,1263.483733
30 Jun 2022 05:59:28.000,77.882,-33.955,1127.404829
30 Jun 2022 06:00:28.000,102.967,-33.460,1148.339572
30 Jun 2022 06:01:28.000,123.258,-30.209,1318.563664
30 Jun 2022 06:02:28.000,136.704,-26.941,1590.129265
30 Jun 2022 06:03:16.182,143.914,-25.099,1851.506853
30 Jun 2022 17:30:02.892,358.136,-25.090,1853.145120
30 Jun 2022 17:31:02.000,356.688,-28.371,1452.669318
30 Jun 2022 17:32:02.000,353.825,-35.537,1066.913036
30 Jun 2022 17:33:02.000,345.807,-51.421,738.517467
30 Jun 2022 17:34:02.000,281.875,-76.462,578.162712
30 Jun 2022 17:35:02.000,201.245,-53.869,711.292055
30 Jun 2022 17:36:02.000,191.983,-36.647,1029.449400
30 Jun 2022 17:37:02.000,188.887,-28.877,1411.896677
30 Jun 2022 17:38:02.000,187.360,-25.288,1817.421414
30 Jun 2022 17:38:03.414,187.333,-25.233,1827.123743
1 Jul 2022 04:17:54.758,322.904,-25.210,1831.206570
1 Jul 2022 04:18:54.000,313.087,-27.663,1516.010427
1 Jul 2022 04:19:54.000,297.632,-31.063,1267.210404
1 Jul 2022 04:20:54.000,275.280,-33.701,1137.997104
1 Jul 2022 04:21:54.000,250.348,-32.986,1169.392884
1 Jul 2022 04:22:54.000,230.503,-29.728,1350.184797
1 Jul 2022 04:23:54.000,217.397,-26.588,1630.873759
1 Jul 2022 04:24:34.173,211.359,-25.094,1852.399160
1 Jul 2022 05:53:10.783,30.858,-25.221,1829.185652
1 Jul 2022 05:54:10.000,40.364,-27.691,1513.337746
1 Jul 2022 05:55:10.000,55.389,-31.190,1260.059697
1 Jul 2022 05:56:10.000,77.478,-34.102,1121.375785
1 Jul 2022 05:57:10.000,102.785,-33.647,1140.313999
1 Jul 2022 05:58:10.000,123.274,-30.348,1309.795250
1 Jul 2022 05:59:10.000,136.807,-27.021,1581.435857
1 Jul 2022 05:59:59.659,144.226,-25.099,1851.531414
1 Jul 2022 17:26:45.756,358.398,-25.090,1853.143943
1 Jul 2022 17:27:45.000,357.028,-28.383,1451.605441
1 Jul 2022 17:28:45.000,354.322,-35.574,1065.624037
1 Jul 2022 17:29:45.000,346.713,-51.561,736.860647
1 Jul 2022 17:30:45.000,282.303,-77.192,576.278319
1 Jul 2022 17:31:45.000,200.237,-54.001,709.926830
1 Jul 2022 17:32:45.000,191.456,-36.673,1028.605310
1 Jul 2022 17:33:45.000,188.534,-28.884,1411.342715
1 Jul 2022 17:34:45.000,187.094,-25.290,1817.031204
1 Jul 2022 17:34:46.468,187.068,-25.233,1827.105933
2 Jul 2022 04:14:38.577,322.596,-25.210,1831.270542
2 Jul 2022 04:15:38.000,312.675,-27.656,1516.701112
2 Jul 2022 04:16:38.000,297.151,-31.009,1270.294612
2 Jul 2022 04:17:38.000,274.848,-33.562,1143.942703
2 Jul 2022 04:18:38.000,250.131,-32.808,1177.614353
2 Jul 2022 04:19:38.000,230.481,-29.594,1359.407000
2 Jul 2022 04:20:38.000,217.467,-26.510,1640.235201
2 Jul 2022 04:21:16.558,211.665,-25.094,1852.383914
2 Jul 2022 05:49:52.867,30.543,-25.222,1829.135959
2 Jul 2022 05:50:52.000,39.965,-27.703,1512.205981
2 Jul 2022 05:51:52.000,54.927,-31.250,1256.708125
2 Jul 2022 05:52:52.000,77.068,-34.250,1115.401289
2 Jul 2022 05:53:52.000,102.599,-33.837,1132.312032
2 Jul 2022 05:54:52.000,123.289,-30.490,1301.032815
2 Jul 2022 05:55:52.000,136.912,-27.101,1572.743861
2 Jul 2022 05:56:43.128,144.536,-25.099,1851.555513
2 Jul 2022 17:23:28.624,358.661,-25.090,1853.142630
2 Jul 2022 17:24:28.000,357.369,-28.396,1450.575509
2 Jul 2022 17:25:28.000,354.821,-35.609,1064.385143
2 Jul 2022 17:26:28.000,347.629,-51.695,735.280853
2 Jul 2022 17:27:28.000,282.781,-77.928,574.498306
2 Jul 2022 17:28:28.000,199.219,-54.124,708.654055
2 Jul 2022 17:29:28.000,190.928,-36.697,1027.829560
2 Jul 2022 17:30:28.000,188.179,-28.890,1410.841149
2 Jul 2022 17:31:28.000,186.827,-25.292,1816.683401
2 Jul 2022 17:31:29.516,186.802,-25.233,1827.088525
3 Jul 2022 04:11:22.406,322.287,-25.209,1831.335072
3 Jul 2022 04:12:22.000,312.264,-27.648,1517.464109
3 Jul 2022 04:13:22.000,296.674,-30.954,1273.454702
3 Jul 2022 04:14:22.000,274.422,-33.423,1149.945967
3 Jul 2022 04:15:22.000,249.918,-32.632,1185.860433
3 Jul 2022 04:16:22.000,230.460,-29.462,1368.633920
3 Jul 2022 04:17:22.000,217.537,-26.435,1649.595572
3 Jul 2022 04:17:58.937,211.972,-25.094,1852.368141
3 Jul 2022 05:46:34.961,30.228,-25.222,1829.086899
3 Jul 2022 05:47:34.000,39.564,-27.714,1511.144916
3 Jul 2022 05:48:34.000,54.461,-31.309,1253.429736
3 Jul 2022 05:49:34.000,76.651,-34.399,1109.482338
3 Jul 2022 05:50:34.000,102.409,-34.030,1124.334251
3 Jul 2022 05:51:34.000,123.305,-30.635,1292.276514
3 Jul 2022 05:52:34.000,137.017,-27.183,1564.053302
3 Jul 2022 05:53:26.591,144.846,-25.099,1851.579153
3 Jul 2022 17:20:11.495,358.923,-25.090,1853.141177
3 Jul 2022 17:21:11.000,357.711,-28.407,1449.579700
3 Jul 2022 17:22:11.000,355.322,-35.643,1063.196644
3 Jul 2022 17:23:11.000,348.554,-51.824,733.778708
3 Jul 2022 17:24:11.000,283.320,-78.667,572.823753
3 Jul 2022 17:25:11.000,198.191,-54.240,707.474273
3 Jul 2022 17:26:11.000,190.398,-36.719,1027.122305
3 Jul 2022 17:27:11.000,187.825,-28.896,1410.392013
3 Jul 2022 17:28:11.000,186.560,-25.294,1816.377994
3 Jul 2022 17:28:12.557,186.536,-25.233,1827.071556
4 Jul 2022 04:08:06.244,321.977,-25.209,1831.400162
4 Jul 2022 04:09:06.000,311.854,-27.639,1518.299259
4 Jul 2022 04:10:06.000,296.201,-30.899,1276.690033
4 Jul 2022 04:11:06.000,274.002,-33.285,1156.005892
4 Jul 2022 04:12:06.000,249.710,-32.459,1194.130491
4 Jul 2022 04:13:06.000,230.440,-29.333,1377.865341
4 Jul 2022 04:14:06.000,217.606,-26.360,1658.954772
4 Jul 2022 04:14:41.311,212.280,-25.094,1852.359110
4 Jul 2022 05:43:17.065,29.915,-25.222,1829.038467
4 Jul 2022 05:44:17.000,39.358,-27.778,1505.180790
4 Jul 2022 05:45:17.000,54.300,-31.432,1246.697575
4 Jul 2022 05:46:17.000,76.653,-34.579,1102.446654
4 Jul 2022 05:47:17.000,102.626,-34.186,1118.007910
4 Jul 2022 05:48:17.000,123.605,-30.717,1287.351529
4 Jul 2022 05:49:17.000,137.303,-27.217,1560.493523
4 Jul 2022 05:50:10.047,145.154,-25.098,1851.602345
4 Jul 2022 17:16:54.370,359.186,-25.090,1853.139588
4 Jul 2022 17:17:54.000,358.053,-28.419,1448.618115
4 Jul 2022 17:18:54.000,355.824,-35.675,1062.058757
4 Jul 2022 17:19:54.000,349.487,-51.946,732.354762
4 Jul 2022 17:20:54.000,283.931,-79.409,571.255686
4 Jul 2022 17:21:54.000,197.154,-54.347,706.388034
4 Jul 2022 17:22:54.000,189.867,-36.739,1026.483745
4 Jul 2022 17:23:54.000,187.470,-28.901,1409.995401
4 Jul 2022 17:24:54.000,186.294,-25.296,1816.115038
4 Jul 2022 17:24:55.593,186.271,-25.233,1827.055022
5 Jul 2022 04:04:50.091,321.666,-25.209,1831.465819
5 Jul 2022 04:05:50.000,311.445,-27.630,1519.206355
5 Jul 2022 04:06:50.000,295.730,-30.842,1279.999940
5 Jul 2022 04:07:50.000,273.589,-33.147,1162.121498
5 Jul 2022 04:08:50.000,249.506,-32.289,1202.423948
5 Jul 2022 04:09:50.000,230.421,-29.206,1387.101107
5 Jul 2022 04:10:50.000,217.675,-26.287,1668.312776
5 Jul 2022 04:11:23.676,212.590,-25.094,1852.340516
5 Jul 2022 05:39:59.179,29.603,-25.222,1828.990658
5 Jul 2022 05:40:59.000,38.954,-27.788,1504.230602
5 Jul 2022 05:41:59.000,53.827,-31.491,1243.525063
5 Jul 2022 05:42:59.000,76.225,-34.731,1096.598174
5 Jul 2022 05:43:59.000,102.431,-34.385,1110.055902
5 Jul 2022 05:44:59.000,123.623,-30.866,1278.603860
5 Jul 2022 05:45:59.000,137.411,-27.301,1551.810621
5 Jul 2022 05:46:53.495,145.461,-25.098,1851.625085
5 Jul 2022 17:13:37.248,359.448,-25.090,1853.137862
5 Jul 2022 17:14:37.000,358.396,-28.430,1447.690771
5 Jul 2022 17:15:37.000,356.328,-35.706,1060.971613
5 Jul 2022 17:16:37.000,350.429,-52.063,731.009484
5 Jul 2022 17:17:37.000,284.633,-80.155,569.795069
5 Jul 2022 17:18:37.000,196.108,-54.445,705.395893
5 Jul 2022 17:19:37.000,189.335,-36.757,1025.914134
5 Jul 2022 17:20:37.000,187.115,-28.906,1409.651475
5 Jul 2022 17:21:37.000,186.027,-25.297,1815.894664
5 Jul 2022 17:21:38.625,186.005,-25.233,1827.057374
6 Jul 2022 04:01:33.948,321.354,-25.208,1831.531066
6 Jul 2022 04:02:33.000,311.247,-27.571,1524.875808
6 Jul 2022 04:03:33.000,295.581,-30.732,1286.474617
6 Jul 2022 04:04:33.000,273.586,-32.996,1168.961272
6 Jul 2022 04:05:33.000,249.676,-32.161,1208.746561
6 Jul 2022 04:06:33.000,230.662,-29.135,1392.327055
6 Jul 2022 04:07:33.000,217.912,-26.255,1672.440684
6 Jul 2022 04:08:06.035,212.900,-25.095,1852.321635
6 Jul 2022 05:36:41.302,29.292,-25.223,1828.943466
6 Jul 2022 05:37:41.000,38.550,-27.797,1503.351743
6 Jul 2022 05:38:41.000,53.350,-31.549,1240.427504
6 Jul 2022 05:39:41.000,75.791,-34.884,1090.807679
6 Jul 2022 05:40:41.000,102.232,-34.587,1102.129463
6 Jul 2022 05:41:41.000,123.640,-31.017,1269.862829
6 Jul 2022 05:42:41.000,137.520,-27.387,1543.129468
6 Jul 2022 05:43:36.940,145.768,-25.098,1851.662332
6 Jul 2022 17:10:20.130,359.710,-25.090,1853.135995
6 Jul 2022 17:11:20.000,358.739,-28.441,1446.797597
6 Jul 2022 17:12:20.000,356.832,-35.736,1059.935255
6 Jul 2022 17:13:20.000,351.379,-52.174,729.743252
6 Jul 2022 17:14:20.000,285.447,-80.903,568.442798
6 Jul 2022 17:15:20.000,195.053,-54.535,704.498415
6 Jul 2022 17:16:20.000,188.802,-36.773,1025.413774
6 Jul 2022 17:17:20.000,186.760,-28.909,1409.360465
6 Jul 2022 17:18:20.000,185.760,-25.298,1815.717077
6 Jul 2022 17:18:21.648,185.739,-25.233,1827.043133
7 Jul 2022 03:58:17.815,321.041,-25.208,1831.598442
7 Jul 2022 03:59:17.000,310.842,-27.561,1525.891654
7 Jul 2022 04:00:17.000,295.119,-30.675,1289.886400
7 Jul 2022 04:01:17.000,273.183,-32.861,1175.141382
7 Jul 2022 04:02:17.000,249.476,-31.996,1217.060098
7 Jul 2022 04:03:17.000,230.642,-29.012,1401.564341
7 Jul 2022 04:04:17.000,217.979,-26.184,1681.798086
7 Jul 2022 04:04:48.386,213.212,-25.095,1852.302456
7 Jul 2022 05:33:23.435,28.981,-25.223,1828.896886
7 Jul 2022 05:34:23.000,38.144,-27.806,1502.544260
7 Jul 2022 05:35:23.000,52.870,-31.605,1237.405446
7 Jul 2022 05:36:23.000,75.349,-35.037,1085.076174
7 Jul 2022 05:37:23.000,102.028,-34.793,1094.229316
7 Jul 2022 05:38:23.000,123.657,-31.171,1261.128795
7 Jul 2022 05:39:23.000,137.630,-27.473,1534.450337
7 Jul 2022 05:40:20.375,146.074,-25.098,1851.685632
7 Jul 2022 17:07:03.016,359.973,-25.090,1853.133995
7 Jul 2022 17:08:03.000,359.083,-28.451,1445.938442
7 Jul 2022 17:09:03.000,357.339,-35.764,1058.949645
7 Jul 2022 17:10:03.000,352.336,-52.278,728.556361
7 Jul 2022 17:11:03.000,286.404,-81.653,567.199695
7 Jul 2022 17:12:03.000,193.992,-54.615,703.696160
7 Jul 2022 17:13:03.000,188.269,-36.786,1024.983014
7 Jul 2022 17:14:03.000,186.404,-28.913,1409.122661
7 Jul 2022 17:15:03.000,185.492,-25.299,1815.582550
7 Jul 2022 17:15:04.666,185.474,-25.234,1827.029367
8 Jul 2022 03:55:01.692,320.726,-25.207,1831.666396
8 Jul 2022 03:56:01.000,310.437,-27.549,1526.978258
8 Jul 2022 03:57:01.000,294.659,-30.616,1293.370564
8 Jul 2022 03:58:01.000,272.786,-32.727,1181.374667
8 Jul 2022 03:59:01.000,249.281,-31.834,1225.395874
8 Jul 2022 04:00:01.000,230.622,-28.891,1410.805887
8 Jul 2022 04:01:01.000,218.045,-26.114,1691.154530
8 Jul 2022 04:01:30.730,213.524,-25.095,1852.281002
8 Jul 2022 05:30:05.577,28.672,-25.223,1828.850914
8 Jul 2022 05:31:05.000,37.738,-27.814,1501.808168
8 Jul 2022 05:32:05.000,52.386,-31.661,1234.459435
8 Jul 2022 05:33:05.000,74.900,-35.191,1079.404714
8 Jul 2022 05:34:05.000,101.820,-35.002,1086.356276
8 Jul 2022 05:35:05.000,123.673,-31.328,1252.402222
8 Jul 2022 05:36:05.000,137.741,-27.562,1525.773612
8 Jul 2022 05:37:03.804,146.378,-25.098,1851.708566
8 Jul 2022 17:03:45.905,0.235,-25.090,1853.131852
8 Jul 2022 17:04:45.000,359.445,-28.381,1451.787639
8 Jul 2022 17:05:45.000,357.885,-35.615,1064.166636
8 Jul 2022 17:06:45.000,353.445,-51.973,732.050798
8 Jul 2022 17:07:45.000,292.584,-82.194,566.371434
8 Jul 2022 17:08:45.000,193.102,-55.125,698.688052
8 Jul 2022 17:09:45.000,187.778,-36.990,1018.562949
8 Jul 2022 17:10:45.000,186.067,-29.002,1402.293946
8 Jul 2022 17:11:45.000,185.235,-25.339,1808.621174
8 Jul 2022 17:11:47.677,185.208,-25.234,1827.016075
9 Jul 2022 03:51:45.578,320.411,-25.207,1831.734939
9 Jul 2022 03:52:45.000,310.033,-27.538,1528.135097
9 Jul 2022 03:53:45.000,294.204,-30.558,1296.926178
9 Jul 2022 03:54:45.000,272.395,-32.594,1187.660012
9 Jul 2022 03:55:45.000,249.089,-31.674,1233.753273
9 Jul 2022 03:56:45.000,230.603,-28.772,1420.051554
9 Jul 2022 03:57:45.000,218.111,-26.046,1700.510056
9 Jul 2022 03:58:13.065,213.838,-25.095,1852.249812
9 Jul 2022 05:26:47.729,28.363,-25.224,1828.805545
9 Jul 2022 05:27:47.000,37.331,-27.821,1501.143500
9 Jul 2022 05:28:47.000,51.899,-31.715,1231.590056
9 Jul 2022 05:29:47.000,74.443,-35.345,1073.794445
9 Jul 2022 05:30:47.000,101.606,-35.215,1078.511273
9 Jul 2022 05:31:47.000,123.690,-31.488,1243.683684
9 Jul 2022 05:32:47.000,137.854,-27.652,1517.099775
9 Jul 2022 05:33:47.000,146.656,-25.105,1850.401886
9 Jul 2022 05:33:47.227,146.682,-25.098,1851.733090
9 Jul 2022 17:00:28.798,0.497,-25.090,1853.129577
9 Jul 2022 17:01:28.000,359.787,-28.391,1450.997025
9 Jul 2022 17:02:28.000,358.389,-35.640,1063.284224
9 Jul 2022 17:03:28.000,354.403,-52.062,731.025630
9 Jul 2022 17:04:28.000,294.463,-82.925,565.344704
9 Jul 2022 17:05:28.000,192.010,-55.189,698.070710
9 Jul 2022 17:06:28.000,187.238,-37.000,1018.268733
9 Jul 2022 17:07:28.000,185.709,-29.004,1402.161643
9 Jul 2022 17:08:28.000,184.967,-25.340,1808.572689
9 Jul 2022 17:08:30.682,184.943,-25.234,1827.003278
10 Jul 2022 03:48:29.475,320.095,-25.207,1831.804073
10 Jul 2022 03:49:29.000,309.630,-27.525,1529.361587
10 Jul 2022 03:50:29.000,293.752,-30.498,1300.552228
10 Jul 2022 03:51:29.000,272.010,-32.462,1193.996212
10 Jul 2022 03:52:29.000,248.901,-31.517,1242.131571
10 Jul 2022 03:53:29.000,230.585,-28.655,1429.301082
10 Jul 2022 03:54:29.000,218.175,-25.978,1709.864592
10 Jul 2022 03:54:55.393,214.153,-25.095,1852.222028
10 Jul 2022 05:23:29.890,28.056,-25.224,1828.760777
10 Jul 2022 05:24:29.000,36.923,-27.828,1500.550364
10 Jul 2022 05:25:29.000,51.409,-31.768,1228.797984
10 Jul 2022 05:26:29.000,73.980,-35.500,1068.246628
10 Jul 2022 05:27:29.000,101.388,-35.431,1070.695361
10 Jul 2022 05:28:29.000,123.706,-31.651,1234.973849
10 Jul 2022 05:29:29.000,137.967,-27.743,1508.429380
10 Jul 2022 05:30:29.000,146.795,-25.150,1842.085753
10 Jul 2022 05:30:30.640,146.985,-25.098,1851.745732
10 Jul 2022 16:57:11.694,0.759,-25.090,1853.127159
10 Jul 2022 16:58:11.000,0.131,-28.400,1450.239677
10 Jul 2022 16:59:11.000,358.895,-35.664,1062.451954
10 Jul 2022 17:00:11.000,355.366,-52.144,730.079842
10 Jul 2022 17:01:11.000,296.771,-83.649,564.428979
10 Jul 2022 17:02:11.000,190.913,-55.243,697.550502
10 Jul 2022 17:03:11.000,186.698,-37.007,1018.045427
10 Jul 2022 17:04:11.000,185.351,-29.005,1402.083610
10 Jul 2022 17:05:11.000,184.698,-25.340,1808.568225
10 Jul 2022 17:05:13.680,184.677,-25.234,1826.990972
11 Jul 2022 03:45:13.381,319.777,-25.206,1831.873797
11 Jul 2022 03:46:13.000,309.228,-27.512,1530.657138
11 Jul 2022 03:47:13.000,293.304,-30.438,1304.247655
11 Jul 2022 03:48:13.000,271.630,-32.330,1200.381975
11 Jul 2022 03:49:13.000,248.717,-31.362,1250.529908
11 Jul 2022 03:50:13.000,230.567,-28.541,1438.554041
11 Jul 2022 03:51:13.000,218.240,-25.912,1719.217878
11 Jul 2022 03:51:37.714,214.469,-25.095,1852.197439
11 Jul 2022 05:20:12.060,27.749,-25.224,1828.716605
11 Jul 2022 05:21:12.000,36.701,-27.889,1494.856710
11 Jul 2022 05:22:12.000,51.220,-31.894,1222.288809
11 Jul 2022 05:23:12.000,73.953,-35.696,1061.321336
11 Jul 2022 05:24:12.000,101.607,-35.608,1064.401938
11 Jul 2022 05:25:12.000,124.023,-31.744,1230.095684
11 Jul 2022 05:26:12.000,138.267,-27.780,1504.939851
11 Jul 2022 05:27:12.000,147.051,-25.163,1839.665197
11 Jul 2022 05:27:14.051,147.287,-25.097,1851.775573
11 Jul 2022 16:53:54.593,1.021,-25.090,1853.124607
11 Jul 2022 16:54:54.000,0.474,-28.408,1449.515659
11 Jul 2022 16:55:54.000,359.402,-35.686,1061.669957
11 Jul 2022 16:56:54.000,356.335,-52.220,729.213767
