data/Partner_Institute/Skyhopper_Partner-Chalottesville_Access_1year.csv

"Access","Start Time (UTCG)","Stop Time (UTCG)","Duration (sec)"
1,1 Jun 2022 01:34:30.194,1 Jun 2022 01:40:05.680,335.486
2,1 Jun 2022 12:16:37.723,1 Jun 2022 12:24:35.421,477.697
3,1 Jun 2022 23:55:23.262,2 Jun 2022 00:02:14.255,410.993
4,2 Jun 2022 01:31:12.118,2 Jun 2022 01:36:50.025,337.907
5,2 Jun 2022 12:13:20.838,2 Jun 2022 12:21:18.260,477.422
6,2 Jun 2022 23:52:06.842,2 Jun 2022 23:58:56.307,409.465
7,3 Jun 2022 01:27:54.058,3 Jun 2022 01:33:34.353,340.295
8,3 Jun 2022 12:10:03.960,3 Jun 2022 12:18:01.092,477.132
9,3 Jun 2022 23:48:50.431,3 Jun 2022 23:55:38.350,407.919
10,4 Jun 2022 01:24:36.013,4 Jun 2022 01:30:18.664,342.651
11,4 Jun 2022 12:06:47.090,4 Jun 2022 12:14:43.920,476.830
12,4 Jun 2022 23:45:34.029,4 Jun 2022 23:52:20.380,406.351
13,5 Jun 2022 01:21:17.982,5 Jun 2022 01:27:02.956,344.974
14,5 Jun 2022 12:03:30.228,5 Jun 2022 12:11:26.743,476.515
15,5 Jun 2022 23:42:17.637,5 Jun 2022 23:49:02.398,404.761
16,6 Jun 2022 01:17:59.963,6 Jun 2022 01:23:47.232,347.269
17,6 Jun 2022 12:00:13.373,6 Jun 2022 12:08:09.561,476.188
18,6 Jun 2022 23:39:01.255,6 Jun 2022 23:45:44.404,403.148
19,7 Jun 2022 01:14:41.960,7 Jun 2022 01:20:31.491,349.531
20,7 Jun 2022 11:56:56.525,7 Jun 2022 12:04:52.374,475.848
21,7 Jun 2022 23:35:44.883,7 Jun 2022 23:42:26.394,401.511
22,8 Jun 2022 01:11:23.972,8 Jun 2022 01:17:15.734,351.763
23,8 Jun 2022 11:53:39.686,8 Jun 2022 12:01:35.181,475.495
24,8 Jun 2022 23:32:28.522,8 Jun 2022 23:39:08.375,399.853
25,9 Jun 2022 01:08:05.996,9 Jun 2022 01:13:59.962,353.965
26,9 Jun 2022 11:50:22.853,9 Jun 2022 11:58:17.981,475.128
27,9 Jun 2022 23:29:12.170,9 Jun 2022 23:35:50.346,398.176
28,10 Jun 2022 01:04:48.035,10 Jun 2022 01:10:44.173,356.139
29,10 Jun 2022 11:47:06.029,10 Jun 2022 11:55:00.778,474.749
30,10 Jun 2022 23:25:55.829,10 Jun 2022 23:32:32.300,396.471
31,11 Jun 2022 01:01:30.086,11 Jun 2022 01:07:28.369,358.283
32,11 Jun 2022 11:43:49.212,11 Jun 2022 11:51:43.575,474.363
33,11 Jun 2022 23:22:39.498,11 Jun 2022 23:29:14.240,394.743
34,12 Jun 2022 00:58:12.149,12 Jun 2022 01:04:12.548,360.398
35,12 Jun 2022 11:40:32.402,12 Jun 2022 11:48:26.361,473.959
36,12 Jun 2022 23:19:23.177,12 Jun 2022 23:25:56.168,392.990
37,13 Jun 2022 00:54:54.223,13 Jun 2022 01:00:56.711,362.488
38,13 Jun 2022 11:37:15.600,13 Jun 2022 11:45:09.143,473.543
39,13 Jun 2022 23:16:06.867,13 Jun 2022 23:22:38.081,391.214
40,14 Jun 2022 00:51:36.311,14 Jun 2022 00:57:40.859,364.549
41,14 Jun 2022 11:33:58.805,14 Jun 2022 11:41:51.921,473.116
42,14 Jun 2022 23:12:50.569,14 Jun 2022 23:19:19.981,389.412
43,15 Jun 2022 00:48:18.411,15 Jun 2022 00:54:24.990,366.579
44,15 Jun 2022 11:30:42.018,15 Jun 2022 11:38:34.692,472.674
45,15 Jun 2022 23:09:34.282,15 Jun 2022 23:16:01.864,387.583
46,16 Jun 2022 00:45:00.522,16 Jun 2022 00:51:09.108,368.586
47,16 Jun 2022 11:27:25.239,16 Jun 2022 11:35:17.459,472.220
48,16 Jun 2022 23:06:18.006,16 Jun 2022 23:12:43.734,385.728
49,17 Jun 2022 00:41:42.645,17 Jun 2022 00:47:53.215,370.569
50,17 Jun 2022 11:24:08.467,17 Jun 2022 11:32:00.221,471.754
51,17 Jun 2022 23:03:01.742,17 Jun 2022 23:09:25.591,383.849
52,18 Jun 2022 00:38:24.780,18 Jun 2022 00:44:37.305,372.525
53,18 Jun 2022 11:20:51.703,18 Jun 2022 11:28:42.979,471.276
54,18 Jun 2022 22:59:45.490,18 Jun 2022 23:06:07.438,381.948
55,19 Jun 2022 00:35:06.926,19 Jun 2022 00:41:21.381,374.456
56,19 Jun 2022 11:17:34.947,19 Jun 2022 11:25:25.731,470.784
57,19 Jun 2022 22:56:29.250,19 Jun 2022 23:02:49.266,380.016
58,20 Jun 2022 00:31:49.083,20 Jun 2022 00:38:05.446,376.363
59,20 Jun 2022 11:14:18.199,20 Jun 2022 11:22:08.479,470.280
60,20 Jun 2022 22:53:13.022,20 Jun 2022 22:59:31.076,378.054
61,21 Jun 2022 00:28:31.251,21 Jun 2022 00:34:49.497,378.247
62,21 Jun 2022 11:11:01.458,21 Jun 2022 11:18:51.221,469.762
63,21 Jun 2022 22:49:56.807,21 Jun 2022 22:56:12.875,376.068
64,22 Jun 2022 00:25:13.429,22 Jun 2022 00:31:33.535,380.105
65,22 Jun 2022 11:07:44.725,22 Jun 2022 11:15:33.958,469.232
66,22 Jun 2022 22:46:40.605,22 Jun 2022 22:52:54.659,374.055
67,23 Jun 2022 00:21:55.619,23 Jun 2022 00:28:17.559,381.940
68,23 Jun 2022 11:04:28.000,23 Jun 2022 11:12:16.689,468.689
69,23 Jun 2022 22:43:24.415,23 Jun 2022 22:49:36.427,372.013
70,24 Jun 2022 00:18:37.818,24 Jun 2022 00:25:01.565,383.746
71,24 Jun 2022 11:01:11.283,24 Jun 2022 11:08:59.416,468.133
72,24 Jun 2022 22:40:08.238,24 Jun 2022 22:46:18.177,369.939
73,25 Jun 2022 00:15:20.028,25 Jun 2022 00:21:45.563,385.535
74,25 Jun 2022 10:57:54.574,25 Jun 2022 11:05:42.137,467.563
75,25 Jun 2022 22:36:52.075,25 Jun 2022 22:42:59.913,367.839
76,26 Jun 2022 00:12:02.247,26 Jun 2022 00:18:29.549,387.302
77,26 Jun 2022 10:54:37.872,26 Jun 2022 11:02:24.853,466.981
78,26 Jun 2022 22:33:35.927,26 Jun 2022 22:39:41.636,365.709
79,27 Jun 2022 00:08:44.476,27 Jun 2022 00:15:13.523,389.047
80,27 Jun 2022 10:51:21.178,27 Jun 2022 10:59:07.563,466.386
81,27 Jun 2022 22:30:19.791,27 Jun 2022 22:36:23.339,363.548
82,28 Jun 2022 00:05:26.715,28 Jun 2022 00:11:57.483,390.768
83,28 Jun 2022 10:48:04.492,28 Jun 2022 10:55:50.269,465.777
84,28 Jun 2022 22:27:03.669,28 Jun 2022 22:33:05.024,361.355
85,29 Jun 2022 00:02:08.964,29 Jun 2022 00:08:41.430,392.467
86,29 Jun 2022 10:44:47.814,29 Jun 2022 10:52:32.969,465.156
87,29 Jun 2022 22:23:47.562,29 Jun 2022 22:29:46.692,359.130
88,29 Jun 2022 23:58:51.222,30 Jun 2022 00:05:25.366,394.144
89,30 Jun 2022 10:41:31.143,30 Jun 2022 10:49:15.664,464.521
90,30 Jun 2022 12:20:55.111,30 Jun 2022 12:21:14.163,19.052
91,30 Jun 2022 22:20:31.470,30 Jun 2022 22:26:28.342,356.873
92,30 Jun 2022 23:55:33.489,1 Jul 2022 00:02:09.289,395.800
93,1 Jul 2022 10:38:14.481,1 Jul 2022 10:45:58.354,463.873
94,1 Jul 2022 12:17:20.734,1 Jul 2022 12:18:13.920,53.186
95,1 Jul 2022 22:17:15.393,1 Jul 2022 22:23:09.974,354.581
96,1 Jul 2022 23:52:15.765,1 Jul 2022 23:58:53.201,397.436
97,2 Jul 2022 10:34:57.826,2 Jul 2022 10:42:41.038,463.212
98,2 Jul 2022 12:13:53.690,2 Jul 2022 12:15:06.353,72.663
99,2 Jul 2022 22:13:59.331,2 Jul 2022 22:19:51.587,352.256
100,2 Jul 2022 23:48:58.050,2 Jul 2022 23:55:37.097,399.047
101,3 Jul 2022 10:31:41.180,3 Jul 2022 10:39:23.715,462.535
102,3 Jul 2022 12:10:28.794,3 Jul 2022 12:11:56.641,87.847
103,3 Jul 2022 22:10:43.288,3 Jul 2022 22:16:33.183,349.895
104,3 Jul 2022 23:45:40.344,3 Jul 2022 23:52:20.985,400.640
105,4 Jul 2022 10:28:24.542,4 Jul 2022 10:36:06.389,461.847
106,4 Jul 2022 12:07:05.065,4 Jul 2022 12:08:45.768,100.704
107,4 Jul 2022 22:07:27.258,4 Jul 2022 22:13:14.760,347.502
108,4 Jul 2022 23:42:22.648,4 Jul 2022 23:49:04.861,402.213
109,5 Jul 2022 10:25:07.912,5 Jul 2022 10:32:49.057,461.146
110,5 Jul 2022 12:03:42.099,5 Jul 2022 12:05:34.130,112.031
111,5 Jul 2022 22:04:11.244,5 Jul 2022 22:09:56.318,345.073
112,5 Jul 2022 23:39:04.959,5 Jul 2022 23:45:48.729,403.769
113,6 Jul 2022 10:21:51.290,6 Jul 2022 10:29:31.720,460.430
114,6 Jul 2022 12:00:19.686,6 Jul 2022 12:02:21.937,122.251
115,6 Jul 2022 22:00:55.248,6 Jul 2022 22:06:37.856,342.608
116,6 Jul 2022 23:35:47.280,6 Jul 2022 23:42:32.583,405.303
117,7 Jul 2022 10:18:34.676,7 Jul 2022 10:26:14.378,459.702
118,7 Jul 2022 11:56:57.697,7 Jul 2022 11:59:09.333,131.637
119,7 Jul 2022 21:57:39.269,7 Jul 2022 22:03:19.375,340.106
120,7 Jul 2022 23:32:29.609,7 Jul 2022 23:39:16.425,406.816
121,8 Jul 2022 10:15:18.070,8 Jul 2022 10:22:57.027,458.957
122,8 Jul 2022 11:53:36.046,8 Jul 2022 11:55:56.388,140.342
123,8 Jul 2022 21:54:23.310,8 Jul 2022 22:00:00.873,337.563
124,8 Jul 2022 23:29:11.946,8 Jul 2022 23:36:00.257,408.311
125,9 Jul 2022 10:12:01.473,9 Jul 2022 10:19:39.674,458.201
126,9 Jul 2022 11:50:14.675,9 Jul 2022 11:52:43.167,148.491
127,9 Jul 2022 21:51:07.368,9 Jul 2022 21:56:42.350,334.982
128,9 Jul 2022 23:25:54.292,9 Jul 2022 23:32:44.080,409.788
129,10 Jul 2022 10:08:44.883,10 Jul 2022 10:16:22.314,457.431
130,10 Jul 2022 11:46:53.541,10 Jul 2022 11:49:29.712,156.171
131,10 Jul 2022 21:47:51.443,10 Jul 2022 21:53:23.806,332.362
132,10 Jul 2022 23:22:36.645,10 Jul 2022 23:29:27.890,411.244
133,11 Jul 2022 10:05:28.302,11 Jul 2022 10:13:04.949,456.647
134,11 Jul 2022 11:43:32.609,11 Jul 2022 11:46:16.057,163.448
135,11 Jul 2022 21:44:35.538,11 Jul 2022 21:50:05.239,329.701
136,11 Jul 2022 23:19:19.007,11 Jul 2022 23:26:11.689,412.682
137,12 Jul 2022 10:02:11.728,12 Jul 2022 10:09:47.576,455.847
138,12 Jul 2022 11:40:11.855,12 Jul 2022 11:43:02.227,170.372
139,12 Jul 2022 21:41:19.652,12 Jul 2022 21:46:46.650,326.998
140,12 Jul 2022 23:16:01.376,12 Jul 2022 23:22:55.477,414.101
141,13 Jul 2022 09:58:55.163,13 Jul 2022 10:06:30.197,455.034
142,13 Jul 2022 11:36:51.257,13 Jul 2022 11:39:48.243,176.986
143,13 Jul 2022 21:38:03.788,13 Jul 2022 21:43:28.038,324.251
144,13 Jul 2022 23:12:43.753,13 Jul 2022 23:19:39.255,415.502
145,14 Jul 2022 09:55:38.607,14 Jul 2022 10:03:12.814,454.208
146,14 Jul 2022 11:33:30.799,14 Jul 2022 11:36:34.120,183.321
147,14 Jul 2022 21:34:47.944,14 Jul 2022 21:40:09.402,321.458
148,14 Jul 2022 23:09:26.138,14 Jul 2022 23:16:23.022,416.884
149,15 Jul 2022 09:52:22.058,15 Jul 2022 09:59:55.426,453.367
150,15 Jul 2022 11:30:10.468,15 Jul 2022 11:33:19.875,189.407
151,15 Jul 2022 21:31:32.122,15 Jul 2022 21:36:50.742,318.620
152,15 Jul 2022 23:06:08.530,15 Jul 2022 23:13:06.780,418.250
153,16 Jul 2022 09:49:05.519,16 Jul 2022 09:56:38.031,452.513
154,16 Jul 2022 11:26:50.250,16 Jul 2022 11:30:05.520,195.269
155,16 Jul 2022 21:28:16.323,16 Jul 2022 21:33:32.062,315.739
156,16 Jul 2022 23:02:50.931,16 Jul 2022 23:09:50.528,419.597
157,17 Jul 2022 09:45:48.988,17 Jul 2022 09:53:20.631,451.644
158,17 Jul 2022 11:23:30.137,17 Jul 2022 11:26:51.064,200.926
159,17 Jul 2022 21:25:00.542,17 Jul 2022 21:30:13.352,312.810
160,17 Jul 2022 22:59:33.339,17 Jul 2022 23:06:34.266,420.927
161,18 Jul 2022 09:42:32.465,18 Jul 2022 09:50:03.225,450.760
162,18 Jul 2022 11:20:10.120,18 Jul 2022 11:23:36.519,206.400
163,18 Jul 2022 21:21:44.789,18 Jul 2022 21:26:54.615,309.825
164,18 Jul 2022 22:56:15.755,18 Jul 2022 23:03:17.992,422.238
165,19 Jul 2022 09:39:15.951,19 Jul 2022 09:46:45.814,449.863
166,19 Jul 2022 11:16:50.191,19 Jul 2022 11:20:21.883,211.692
167,19 Jul 2022 21:18:29.061,19 Jul 2022 21:23:35.855,306.793
168,19 Jul 2022 22:52:58.178,19 Jul 2022 23:00:01.708,423.531
169,20 Jul 2022 09:35:59.446,20 Jul 2022 09:43:28.397,448.951
170,20 Jul 2022 11:13:30.344,20 Jul 2022 11:17:07.173,216.829
171,20 Jul 2022 21:15:13.355,20 Jul 2022 21:20:17.065,303.710
172,20 Jul 2022 22:49:40.608,20 Jul 2022 22:56:45.418,424.810
173,21 Jul 2022 09:32:42.949,21 Jul 2022 09:40:10.973,448.024
174,21 Jul 2022 11:10:10.573,21 Jul 2022 11:13:52.386,221.813
175,21 Jul 2022 21:11:57.674,21 Jul 2022 21:16:58.246,300.573
176,21 Jul 2022 22:46:23.046,21 Jul 2022 22:53:29.117,426.071
177,22 Jul 2022 09:29:26.461,22 Jul 2022 09:36:53.544,447.083
178,22 Jul 2022 11:06:50.874,22 Jul 2022 11:10:37.531,226.657
179,22 Jul 2022 21:08:42.021,22 Jul 2022 21:13:39.399,297.378
180,22 Jul 2022 22:43:05.491,22 Jul 2022 22:50:12.805,427.314
181,23 Jul 2022 09:26:09.981,23 Jul 2022 09:33:36.108,446.127
182,23 Jul 2022 11:03:31.241,23 Jul 2022 11:07:22.611,231.370
183,23 Jul 2022 21:05:26.396,23 Jul 2022 21:10:20.521,294.125
184,23 Jul 2022 22:39:47.942,23 Jul 2022 22:46:56.478,428.536
185,24 Jul 2022 09:22:53.510,24 Jul 2022 09:30:18.663,445.153
186,24 Jul 2022 11:00:11.672,24 Jul 2022 11:04:07.631,235.959
187,24 Jul 2022 21:02:10.799,24 Jul 2022 21:07:01.611,290.812
188,24 Jul 2022 22:36:30.401,24 Jul 2022 22:43:40.148,429.747
189,25 Jul 2022 09:19:37.048,25 Jul 2022 09:27:01.215,444.168
190,25 Jul 2022 10:56:52.162,25 Jul 2022 11:00:52.590,240.428
191,25 Jul 2022 20:58:55.230,25 Jul 2022 21:03:42.668,287.438
192,25 Jul 2022 22:33:12.866,25 Jul 2022 22:40:23.809,430.943
193,26 Jul 2022 09:16:20.594,26 Jul 2022 09:23:43.761,443.167
194,26 Jul 2022 10:53:32.709,26 Jul 2022 10:57:37.500,244.791
195,26 Jul 2022 20:55:39.693,26 Jul 2022 21:00:23.692,283.999
196,26 Jul 2022 22:29:55.339,26 Jul 2022 22:37:07.458,432.119
197,27 Jul 2022 09:13:04.150,27 Jul 2022 09:20:26.301,442.151
198,27 Jul 2022 10:50:13.309,27 Jul 2022 10:54:22.359,249.050
199,27 Jul 2022 20:52:24.187,27 Jul 2022 20:57:04.681,280.494
200,27 Jul 2022 22:26:37.818,27 Jul 2022 22:33:51.097,433.279
201,28 Jul 2022 09:09:47.714,28 Jul 2022 09:17:08.834,441.120
202,28 Jul 2022 10:46:53.960,28 Jul 2022 10:51:07.170,253.210
203,28 Jul 2022 20:49:08.715,28 Jul 2022 20:53:45.635,276.920
204,28 Jul 2022 22:23:20.304,28 Jul 2022 22:30:34.727,434.423
205,29 Jul 2022 09:06:31.288,29 Jul 2022 09:13:51.358,440.070
206,29 Jul 2022 10:43:34.659,29 Jul 2022 10:47:51.935,257.276
207,29 Jul 2022 20:45:53.277,29 Jul 2022 20:50:26.552,273.275
208,29 Jul 2022 22:20:02.797,29 Jul 2022 22:27:18.348,435.551
209,30 Jul 2022 09:03:14.870,30 Jul 2022 09:10:33.879,439.009
210,30 Jul 2022 10:40:15.404,30 Jul 2022 10:44:36.659,261.255
211,30 Jul 2022 20:42:37.875,30 Jul 2022 20:47:07.435,269.560
212,30 Jul 2022 22:16:45.296,30 Jul 2022 22:24:01.959,436.663
213,31 Jul 2022 08:59:58.462,31 Jul 2022 09:07:16.393,437.931
214,31 Jul 2022 10:36:56.194,31 Jul 2022 10:41:21.343,265.149
215,31 Jul 2022 20:39:22.506,31 Jul 2022 20:43:48.270,265.764
216,31 Jul 2022 22:13:27.802,31 Jul 2022 22:20:45.558,437.756
217,1 Aug 2022 08:56:42.063,1 Aug 2022 09:03:58.901,436.838
218,1 Aug 2022 10:33:37.026,1 Aug 2022 10:38:05.980,268.954
219,1 Aug 2022 20:36:07.181,1 Aug 2022 20:40:29.066,261.886
220,1 Aug 2022 22:10:10.315,1 Aug 2022 22:17:29.151,438.836
221,2 Aug 2022 08:53:25.673,2 Aug 2022 09:00:41.403,435.730
222,2 Aug 2022 10:30:17.898,2 Aug 2022 10:34:50.584,272.686
223,2 Aug 2022 20:32:51.896,2 Aug 2022 20:37:09.818,257.922
224,2 Aug 2022 22:06:52.834,2 Aug 2022 22:14:12.737,439.903
225,3 Aug 2022 08:50:09.293,3 Aug 2022 08:57:23.899,434.606
226,3 Aug 2022 10:26:58.810,3 Aug 2022 10:31:35.153,276.343
227,3 Aug 2022 20:29:36.655,3 Aug 2022 20:33:50.525,253.871
228,3 Aug 2022 22:03:35.360,3 Aug 2022 22:10:56.312,440.952
229,4 Aug 2022 08:46:52.921,4 Aug 2022 08:54:06.386,433.465
230,4 Aug 2022 10:23:39.759,4 Aug 2022 10:28:19.687,279.928
231,4 Aug 2022 20:26:21.459,4 Aug 2022 20:30:31.185,249.726
232,4 Aug 2022 22:00:17.892,4 Aug 2022 22:07:39.877,441.985
233,5 Aug 2022 08:43:36.560,5 Aug 2022 08:50:48.867,432.307
234,5 Aug 2022 10:20:20.743,5 Aug 2022 10:25:04.188,283.444
235,5 Aug 2022 20:23:06.310,5 Aug 2022 20:27:11.794,245.484
236,5 Aug 2022 21:57:00.430,5 Aug 2022 22:04:23.434,443.004
237,6 Aug 2022 08:40:20.207,6 Aug 2022 08:47:31.340,431.133
238,6 Aug 2022 10:17:01.767,6 Aug 2022 10:21:48.657,286.889
239,6 Aug 2022 20:19:51.213,6 Aug 2022 20:23:52.354,241.140
240,6 Aug 2022 21:53:42.975,6 Aug 2022 22:01:06.981,444.006
241,7 Aug 2022 08:37:03.864,7 Aug 2022 08:44:13.807,429.943
242,7 Aug 2022 10:13:42.820,7 Aug 2022 10:18:33.095,290.275
243,7 Aug 2022 20:16:36.167,7 Aug 2022 20:20:32.854,236.687
244,7 Aug 2022 21:50:25.525,7 Aug 2022 21:57:50.522,444.997
245,8 Aug 2022 08:33:47.531,8 Aug 2022 08:40:56.265,428.734
246,8 Aug 2022 10:10:23.905,8 Aug 2022 10:15:17.502,293.597
247,8 Aug 2022 20:13:21.176,8 Aug 2022 20:17:13.295,232.118
248,8 Aug 2022 21:47:08.082,8 Aug 2022 21:54:34.052,445.970
249,9 Aug 2022 08:30:31.207,9 Aug 2022 08:37:38.715,427.508
250,9 Aug 2022 10:07:05.021,9 Aug 2022 10:12:01.881,296.860
251,9 Aug 2022 20:10:06.246,9 Aug 2022 20:13:53.673,227.427
252,9 Aug 2022 21:43:50.645,9 Aug 2022 21:51:17.573,446.929
253,10 Aug 2022 08:27:14.892,10 Aug 2022 08:34:21.164,426.272
254,10 Aug 2022 10:03:46.167,10 Aug 2022 10:08:46.232,300.065
255,10 Aug 2022 20:06:51.378,10 Aug 2022 20:10:33.984,222.606
256,10 Aug 2022 21:40:33.213,10 Aug 2022 21:48:01.085,447.872
257,11 Aug 2022 08:23:58.588,11 Aug 2022 08:31:03.602,425.014
258,11 Aug 2022 10:00:27.345,11 Aug 2022 10:05:30.551,303.206
259,11 Aug 2022 20:03:36.579,11 Aug 2022 20:07:14.224,217.644
260,11 Aug 2022 21:37:15.788,11 Aug 2022 21:44:44.589,448.801
261,12 Aug 2022 08:20:42.293,12 Aug 2022 08:27:46.032,423.739
262,12 Aug 2022 09:57:08.549,12 Aug 2022 10:02:14.851,306.302
263,12 Aug 2022 20:00:21.854,12 Aug 2022 20:03:54.386,212.532
264,12 Aug 2022 21:33:58.369,12 Aug 2022 21:41:28.085,449.716
265,13 Aug 2022 08:17:26.008,13 Aug 2022 08:24:28.454,422.446
266,13 Aug 2022 09:53:49.783,13 Aug 2022 09:58:59.126,309.343
267,13 Aug 2022 19:57:07.207,13 Aug 2022 20:00:34.472,207.265
268,13 Aug 2022 21:30:40.956,13 Aug 2022 21:38:11.572,450.616
269,14 Aug 2022 08:14:09.734,14 Aug 2022 08:21:10.872,421.138
270,14 Aug 2022 09:50:31.041,14 Aug 2022 09:55:43.376,312.335
271,14 Aug 2022 19:53:52.644,14 Aug 2022 19:57:14.468,201.824
272,14 Aug 2022 21:27:23.549,14 Aug 2022 21:34:55.051,451.502
273,15 Aug 2022 08:10:53.470,15 Aug 2022 08:17:53.280,419.810
274,15 Aug 2022 09:47:12.331,15 Aug 2022 09:52:27.603,315.272
275,15 Aug 2022 19:50:38.173,15 Aug 2022 19:53:54.371,196.198
276,15 Aug 2022 21:24:06.149,15 Aug 2022 21:31:38.522,452.373
277,16 Aug 2022 08:07:37.216,16 Aug 2022 08:14:35.684,418.468
278,16 Aug 2022 09:43:53.642,16 Aug 2022 09:49:11.802,318.161
279,16 Aug 2022 19:47:23.801,16 Aug 2022 19:50:34.172,190.371
280,16 Aug 2022 21:20:48.754,16 Aug 2022 21:28:21.983,453.230
281,17 Aug 2022 08:04:20.972,17 Aug 2022 08:11:18.077,417.105
282,17 Aug 2022 09:40:34.978,17 Aug 2022 09:45:55.984,321.007
283,17 Aug 2022 19:44:09.539,17 Aug 2022 19:47:13.862,184.323
284,17 Aug 2022 21:17:31.364,17 Aug 2022 21:25:05.437,454.073
285,18 Aug 2022 08:01:04.739,18 Aug 2022 08:08:00.464,415.725
286,18 Aug 2022 09:37:16.338,18 Aug 2022 09:42:40.144,323.806
287,18 Aug 2022 19:40:55.398,18 Aug 2022 19:43:53.428,178.030
288,18 Aug 2022 21:14:13.981,18 Aug 2022 21:21:48.882,454.901
289,19 Aug 2022 07:57:48.516,19 Aug 2022 08:04:42.843,414.327
290,19 Aug 2022 09:33:57.722,19 Aug 2022 09:39:24.283,326.561
291,19 Aug 2022 19:37:41.391,19 Aug 2022 19:40:32.855,171.464
292,19 Aug 2022 21:10:56.603,19 Aug 2022 21:18:32.319,455.716
293,20 Aug 2022 07:54:32.303,20 Aug 2022 08:01:25.214,412.911
294,20 Aug 2022 09:30:39.130,20 Aug 2022 09:36:08.402,329.272
295,20 Aug 2022 19:34:27.535,20 Aug 2022 19:37:12.129,164.594
296,20 Aug 2022 21:07:39.231,20 Aug 2022 21:15:15.751,456.521
297,21 Aug 2022 07:51:16.101,21 Aug 2022 07:58:07.577,411.476
298,21 Aug 2022 09:27:20.560,21 Aug 2022 09:32:52.500,331.940
299,21 Aug 2022 19:31:13.849,21 Aug 2022 19:33:51.229,157.380
300,21 Aug 2022 21:04:21.864,21 Aug 2022 21:11:59.171,457.307
301,22 Aug 2022 07:47:59.910,22 Aug 2022 07:54:49.930,410.020
302,22 Aug 2022 09:24:02.013,22 Aug 2022 09:29:36.579,334.566
303,22 Aug 2022 19:28:00.359,22 Aug 2022 19:30:30.130,149.771
304,22 Aug 2022 21:01:04.503,22 Aug 2022 21:08:42.580,458.076
305,23 Aug 2022 07:44:43.729,23 Aug 2022 07:51:32.277,408.548
306,23 Aug 2022 09:20:43.483,23 Aug 2022 09:26:20.640,337.157
307,23 Aug 2022 19:24:47.097,23 Aug 2022 19:27:08.802,141.705
308,23 Aug 2022 20:57:47.148,23 Aug 2022 21:05:25.982,458.834
309,24 Aug 2022 07:41:27.559,24 Aug 2022 07:48:14.616,407.056
310,24 Aug 2022 09:17:24.978,24 Aug 2022 09:23:04.682,339.704
311,24 Aug 2022 19:21:34.104,24 Aug 2022 19:23:47.201,133.097
312,24 Aug 2022 20:54:29.798,24 Aug 2022 21:02:09.379,459.581
313,25 Aug 2022 07:38:11.401,25 Aug 2022 07:44:56.946,405.545
314,25 Aug 2022 09:14:06.495,25 Aug 2022 09:19:48.706,342.212
315,25 Aug 2022 19:18:21.434,25 Aug 2022 19:20:25.270,123.836
316,25 Aug 2022 20:51:12.454,25 Aug 2022 20:58:52.766,460.312
317,26 Aug 2022 07:34:55.253,26 Aug 2022 07:41:39.268,404.015
318,26 Aug 2022 09:10:48.031,26 Aug 2022 09:16:32.714,344.683
319,26 Aug 2022 19:15:09.171,26 Aug 2022 19:17:02.936,113.765
320,26 Aug 2022 20:47:55.115,26 Aug 2022 20:55:36.144,461.029
321,27 Aug 2022 07:31:39.117,27 Aug 2022 07:38:21.579,402.463
322,27 Aug 2022 09:07:29.587,27 Aug 2022 09:13:16.704,347.117
323,27 Aug 2022 19:11:57.431,27 Aug 2022 19:13:40.072,102.641
324,27 Aug 2022 20:44:37.782,27 Aug 2022 20:52:19.515,461.733
325,28 Aug 2022 07:28:22.992,28 Aug 2022 07:35:03.885,400.893
326,28 Aug 2022 09:04:11.160,28 Aug 2022 09:10:00.678,349.518
327,28 Aug 2022 19:08:46.411,28 Aug 2022 19:10:16.487,90.076
328,28 Aug 2022 20:41:20.455,28 Aug 2022 20:49:02.880,462.426
329,29 Aug 2022 07:25:06.879,29 Aug 2022 07:31:46.181,399.303
330,29 Aug 2022 09:00:52.754,29 Aug 2022 09:06:44.636,351.883
331,29 Aug 2022 19:05:36.468,29 Aug 2022 19:06:51.818,75.350
332,29 Aug 2022 20:38:03.132,29 Aug 2022 20:45:46.235,463.102
333,30 Aug 2022 07:21:50.777,30 Aug 2022 07:28:28.469,397.692
334,30 Aug 2022 08:57:34.366,30 Aug 2022 09:03:28.579,354.213
335,30 Aug 2022 19:02:28.427,30 Aug 2022 19:03:25.251,56.823
336,30 Aug 2022 20:34:45.816,30 Aug 2022 20:42:29.582,463.766
337,31 Aug 2022 07:18:34.687,31 Aug 2022 07:25:10.747,396.060
338,31 Aug 2022 08:54:15.997,31 Aug 2022 09:00:12.506,356.509
339,31 Aug 2022 18:59:25.700,31 Aug 2022 18:59:53.365,27.665
340,31 Aug 2022 20:31:28.505,31 Aug 2022 20:39:12.920,464.416
341,1 Sep 2022 07:15:18.609,1 Sep 2022 07:21:53.018,394.409
342,1 Sep 2022 08:50:57.646,1 Sep 2022 08:56:56.417,358.772
343,1 Sep 2022 20:28:11.199,1 Sep 2022 20:35:56.251,465.052
344,2 Sep 2022 07:12:02.543,2 Sep 2022 07:18:35.278,392.735
345,2 Sep 2022 08:47:39.309,2 Sep 2022 08:53:40.314,361.004
346,2 Sep 2022 20:24:53.898,2 Sep 2022 20:32:39.574,465.676
347,3 Sep 2022 07:08:46.489,3 Sep 2022 07:15:17.528,391.039
348,3 Sep 2022 08:44:20.992,3 Sep 2022 08:50:24.193,363.200
349,3 Sep 2022 20:21:36.603,3 Sep 2022 20:29:22.890,466.287
350,4 Sep 2022 07:05:30.447,4 Sep 2022 07:11:59.768,389.321
351,4 Sep 2022 08:41:02.692,4 Sep 2022 08:47:08.059,365.367
352,4 Sep 2022 20:18:19.313,4 Sep 2022 20:26:06.197,466.884
353,5 Sep 2022 07:02:14.417,5 Sep 2022 07:08:41.998,387.581
354,5 Sep 2022 08:37:44.408,5 Sep 2022 08:43:51.911,367.503
355,5 Sep 2022 20:15:02.028,5 Sep 2022 20:22:49.496,467.469
356,6 Sep 2022 06:58:58.400,6 Sep 2022 07:05:24.217,385.817
357,6 Sep 2022 08:34:26.141,6 Sep 2022 08:40:35.750,369.608
358,6 Sep 2022 20:11:44.748,6 Sep 2022 20:19:32.788,468.040
359,7 Sep 2022 06:55:42.395,7 Sep 2022 07:02:06.426,384.031
360,7 Sep 2022 08:31:07.890,7 Sep 2022 08:37:19.575,371.684
361,7 Sep 2022 20:08:27.473,7 Sep 2022 20:16:16.072,468.598
362,8 Sep 2022 06:52:26.403,8 Sep 2022 06:58:48.626,382.223
363,8 Sep 2022 08:27:49.655,8 Sep 2022 08:34:03.389,373.733
364,8 Sep 2022 20:05:10.204,8 Sep 2022 20:12:59.348,469.144
365,9 Sep 2022 06:49:10.424,9 Sep 2022 06:55:30.821,380.397
366,9 Sep 2022 08:24:31.436,9 Sep 2022 08:30:47.188,375.752
367,9 Sep 2022 20:01:52.940,9 Sep 2022 20:09:42.616,469.676
368,10 Sep 2022 06:45:54.458,10 Sep 2022 06:52:13.001,378.542
369,10 Sep 2022 08:21:13.233,10 Sep 2022 08:27:30.974,377.742
370,10 Sep 2022 19:58:35.682,10 Sep 2022 20:06:25.877,470.196
371,11 Sep 2022 06:42:38.506,11 Sep 2022 06:48:55.170,376.663
372,11 Sep 2022 08:17:55.044,11 Sep 2022 08:24:14.752,379.708
373,11 Sep 2022 19:55:18.428,11 Sep 2022 20:03:09.130,470.702
374,12 Sep 2022 06:39:22.568,12 Sep 2022 06:45:37.328,374.760
375,12 Sep 2022 08:14:36.871,12 Sep 2022 08:20:58.510,381.639
376,12 Sep 2022 19:52:01.180,12 Sep 2022 19:59:52.376,471.196
377,13 Sep 2022 06:36:06.643,13 Sep 2022 06:42:19.475,372.832
378,13 Sep 2022 08:11:18.712,13 Sep 2022 08:17:42.261,383.549
379,13 Sep 2022 19:48:43.937,13 Sep 2022 19:56:35.614,471.677
380,14 Sep 2022 06:32:50.732,14 Sep 2022 06:39:01.610,370.878
381,14 Sep 2022 08:08:00.568,14 Sep 2022 08:14:26.001,385.433
382,14 Sep 2022 19:45:26.699,14 Sep 2022 19:53:18.844,472.144
383,15 Sep 2022 06:29:34.835,15 Sep 2022 06:35:43.736,368.900
384,15 Sep 2022 08:04:42.438,15 Sep 2022 08:11:09.730,387.292
385,15 Sep 2022 19:42:09.466,15 Sep 2022 19:50:02.066,472.600
386,16 Sep 2022 06:26:18.953,16 Sep 2022 06:32:25.850,366.897
387,16 Sep 2022 08:01:24.322,16 Sep 2022 08:07:53.446,389.124
388,16 Sep 2022 19:38:52.238,16 Sep 2022 19:46:45.280,473.042
389,17 Sep 2022 06:23:03.084,17 Sep 2022 06:29:07.952,364.868
390,17 Sep 2022 07:58:06.219,17 Sep 2022 08:04:37.150,390.930
391,17 Sep 2022 19:35:35.015,17 Sep 2022 19:43:28.488,473.473
392,18 Sep 2022 06:19:47.231,18 Sep 2022 06:25:50.042,362.811
393,18 Sep 2022 07:54:48.131,18 Sep 2022 08:01:20.842,392.711
394,18 Sep 2022 19:32:17.797,18 Sep 2022 19:40:11.686,473.889
395,19 Sep 2022 06:16:31.392,19 Sep 2022 06:22:32.120,360.728
396,19 Sep 2022 07:51:30.056,19 Sep 2022 07:58:04.524,394.468
397,19 Sep 2022 19:29:00.584,19 Sep 2022 19:36:54.880,474.295
398,20 Sep 2022 06:13:15.568,20 Sep 2022 06:19:14.187,358.619
399,20 Sep 2022 07:48:11.994,20 Sep 2022 07:54:48.193,396.199
400,20 Sep 2022 19:25:43.376,20 Sep 2022 19:33:38.064,474.688
401,21 Sep 2022 06:09:59.760,21 Sep 2022 06:15:56.239,356.479
402,21 Sep 2022 07:44:53.946,21 Sep 2022 07:51:31.853,397.907
403,21 Sep 2022 19:22:26.173,21 Sep 2022 19:30:21.242,475.069
404,22 Sep 2022 06:06:43.970,22 Sep 2022 06:12:38.278,354.308
405,22 Sep 2022 07:41:35.911,22 Sep 2022 07:48:15.502,399.591
406,22 Sep 2022 19:19:08.975,22 Sep 2022 19:27:04.407,475.432
407,23 Sep 2022 06:03:28.193,23 Sep 2022 06:09:20.303,352.110
408,23 Sep 2022 07:38:17.889,23 Sep 2022 07:44:59.141,401.253
409,23 Sep 2022 19:15:51.783,23 Sep 2022 19:23:47.570,475.788
410,24 Sep 2022 06:00:12.433,24 Sep 2022 06:06:02.315,349.882
411,24 Sep 2022 07:34:59.879,24 Sep 2022 07:41:42.770,402.891
412,24 Sep 2022 19:12:34.595,24 Sep 2022 19:20:30.727,476.132
413,25 Sep 2022 05:56:56.689,25 Sep 2022 06:02:44.314,347.625
414,25 Sep 2022 07:31:41.883,25 Sep 2022 07:38:26.392,404.509
415,25 Sep 2022 19:09:17.412,25 Sep 2022 19:17:13.874,476.462
416,26 Sep 2022 05:53:40.961,26 Sep 2022 05:59:26.299,345.338
417,26 Sep 2022 07:28:23.899,26 Sep 2022 07:35:10.002,406.103
418,26 Sep 2022 19:06:00.235,26 Sep 2022 19:13:57.013,476.778
419,27 Sep 2022 05:50:25.254,27 Sep 2022 05:56:08.270,343.016
420,27 Sep 2022 07:25:05.927,27 Sep 2022 07:31:53.602,407.675
421,27 Sep 2022 19:02:43.062,27 Sep 2022 19:10:40.144,477.083
422,28 Sep 2022 05:47:09.561,28 Sep 2022 05:52:50.226,340.665
423,28 Sep 2022 07:21:47.967,28 Sep 2022 07:28:37.192,409.225
424,28 Sep 2022 18:59:25.894,28 Sep 2022 19:07:23.268,477.374
425,29 Sep 2022 05:43:53.885,29 Sep 2022 05:49:32.167,338.282
426,29 Sep 2022 07:18:30.020,29 Sep 2022 07:25:20.773,410.754
427,29 Sep 2022 18:56:08.731,29 Sep 2022 19:04:06.385,477.654
428,30 Sep 2022 05:40:38.228,30 Sep 2022 05:46:14.093,335.865
429,30 Sep 2022 07:15:12.084,30 Sep 2022 07:22:04.347,412.264
430,30 Sep 2022 18:52:51.573,30 Sep 2022 19:00:49.494,477.921
431,1 Oct 2022 05:37:22.589,1 Oct 2022 05:42:56.003,333.414
432,1 Oct 2022 07:11:54.160,1 Oct 2022 07:18:47.910,413.750
433,1 Oct 2022 18:49:34.420,1 Oct 2022 18:57:32.595,478.175
434,2 Oct 2022 05:34:06.973,2 Oct 2022 05:39:37.897,330.924
435,2 Oct 2022 07:08:36.247,2 Oct 2022 07:15:31.463,415.216
436,2 Oct 2022 18:46:17.271,2 Oct 2022 18:54:15.689,478.417
437,3 Oct 2022 05:30:51.372,3 Oct 2022 05:36:19.775,328.403
438,3 Oct 2022 07:05:18.346,3 Oct 2022 07:12:15.008,416.661
439,3 Oct 2022 18:43:00.128,3 Oct 2022 18:50:58.775,478.647
440,4 Oct 2022 05:27:35.791,4 Oct 2022 05:33:01.636,325.845
441,4 Oct 2022 07:02:00.457,4 Oct 2022 07:08:58.544,418.087
442,4 Oct 2022 18:39:42.989,4 Oct 2022 18:47:41.850,478.861
443,5 Oct 2022 05:24:20.230,5 Oct 2022 05:29:43.479,323.249
444,5 Oct 2022 06:58:42.579,5 Oct 2022 07:05:42.070,419.491
445,5 Oct 2022 18:36:25.855,5 Oct 2022 18:44:24.921,479.065
446,6 Oct 2022 05:21:04.690,6 Oct 2022 05:26:25.305,320.615
447,6 Oct 2022 06:55:24.712,6 Oct 2022 07:02:25.589,420.877
448,6 Oct 2022 18:33:08.727,6 Oct 2022 18:41:07.987,479.260
449,7 Oct 2022 05:17:49.171,7 Oct 2022 05:23:07.113,317.941
450,7 Oct 2022 06:52:06.857,7 Oct 2022 06:59:09.098,422.241
451,7 Oct 2022 18:29:51.603,7 Oct 2022 18:37:51.043,479.440
452,8 Oct 2022 05:14:33.675,8 Oct 2022 05:19:48.902,315.227
453,8 Oct 2022 06:48:49.012,8 Oct 2022 06:55:52.602,423.589
454,8 Oct 2022 18:26:34.484,8 Oct 2022 18:34:34.092,479.608
455,9 Oct 2022 05:11:18.200,9 Oct 2022 05:16:30.671,312.470
456,9 Oct 2022 06:45:31.179,9 Oct 2022 06:52:36.097,424.918
457,9 Oct 2022 18:23:17.370,9 Oct 2022 18:31:17.134,479.763
458,10 Oct 2022 05:08:02.744,10 Oct 2022 05:13:12.425,309.681
459,10 Oct 2022 06:42:13.357,10 Oct 2022 06:49:19.583,426.226
460,10 Oct 2022 18:20:00.262,10 Oct 2022 18:28:00.168,479.907
461,11 Oct 2022 05:04:47.317,11 Oct 2022 05:09:54.154,306.837
462,11 Oct 2022 06:38:55.545,11 Oct 2022 06:46:03.056,427.511
463,11 Oct 2022 18:16:43.158,11 Oct 2022 18:24:43.195,480.037
464,12 Oct 2022 05:01:31.913,12 Oct 2022 05:06:35.861,303.948
465,12 Oct 2022 06:35:37.744,12 Oct 2022 06:42:46.527,428.783
466,12 Oct 2022 18:13:26.058,12 Oct 2022 18:21:26.214,480.156
467,13 Oct 2022 04:58:16.531,13 Oct 2022 05:03:17.550,301.019
468,13 Oct 2022 06:32:19.953,13 Oct 2022 06:39:29.991,430.037
469,13 Oct 2022 18:10:08.964,13 Oct 2022 18:18:09.226,480.262
470,14 Oct 2022 04:55:01.177,14 Oct 2022 04:59:59.215,298.038
471,14 Oct 2022 06:29:02.173,14 Oct 2022 06:36:13.444,431.271
472,14 Oct 2022 18:06:51.875,14 Oct 2022 18:14:52.231,480.356
473,15 Oct 2022 04:51:45.844,15 Oct 2022 04:56:40.856,295.011
474,15 Oct 2022 06:25:44.403,15 Oct 2022 06:32:56.889,432.486
475,15 Oct 2022 18:03:34.790,15 Oct 2022 18:11:35.228,480.438
476,16 Oct 2022 04:48:30.541,16 Oct 2022 04:53:22.473,291.931
477,16 Oct 2022 06:22:26.643,16 Oct 2022 06:29:40.327,433.684
478,16 Oct 2022 18:00:17.710,16 Oct 2022 18:08:18.217,480.507
479,17 Oct 2022 04:45:15.265,17 Oct 2022 04:50:04.066,288.801
480,17 Oct 2022 06:19:08.894,17 Oct 2022 06:26:23.757,434.863
481,17 Oct 2022 17:57:00.635,17 Oct 2022 18:05:01.199,480.565
482,18 Oct 2022 04:42:00.016,18 Oct 2022 04:46:45.633,285.617
483,18 Oct 2022 06:15:51.154,18 Oct 2022 06:23:07.177,436.023
484,18 Oct 2022 17:53:43.565,18 Oct 2022 18:01:44.174,480.609
485,19 Oct 2022 04:38:44.796,19 Oct 2022 04:43:27.174,282.378
486,19 Oct 2022 06:12:33.425,19 Oct 2022 06:19:50.592,437.167
487,19 Oct 2022 17:50:26.499,19 Oct 2022 17:58:27.141,480.642
488,20 Oct 2022 04:35:29.607,20 Oct 2022 04:40:08.688,279.082
489,20 Oct 2022 06:09:15.706,20 Oct 2022 06:16:33.999,438.293
490,20 Oct 2022 17:47:09.439,20 Oct 2022 17:55:10.101,480.662
491,21 Oct 2022 04:32:14.448,21 Oct 2022 04:36:50.174,275.726
492,21 Oct 2022 06:05:57.997,21 Oct 2022 06:13:17.398,439.402
493,21 Oct 2022 17:43:52.384,21 Oct 2022 17:51:53.054,480.670
494,22 Oct 2022 04:28:59.317,22 Oct 2022 04:33:31.631,272.314
495,22 Oct 2022 06:02:40.298,22 Oct 2022 06:10:00.791,440.493
496,22 Oct 2022 17:40:35.334,22 Oct 2022 17:48:35.999,480.665
497,23 Oct 2022 04:25:44.224,23 Oct 2022 04:30:13.060,268.836
498,23 Oct 2022 05:59:22.608,23 Oct 2022 06:06:44.179,441.571
499,23 Oct 2022 17:37:18.288,23 Oct 2022 17:45:18.937,480.649
500,24 Oct 2022 04:22:29.166,24 Oct 2022 04:26:54.456,265.290
501,24 Oct 2022 05:56:04.928,24 Oct 2022 06:03:27.557,442.629
502,24 Oct 2022 17:34:01.248,24 Oct 2022 17:42:01.867,480.620
503,25 Oct 2022 04:19:14.143,25 Oct 2022 04:23:35.818,261.674
504,25 Oct 2022 05:52:47.258,25 Oct 2022 06:00:10.929,443.671
505,25 Oct 2022 17:30:44.212,25 Oct 2022 17:38:44.790,480.578
506,26 Oct 2022 04:15:59.159,26 Oct 2022 04:20:17.143,257.984
507,26 Oct 2022 05:49:29.598,26 Oct 2022 05:56:54.294,444.696
508,26 Oct 2022 17:27:27.182,26 Oct 2022 17:35:27.706,480.524
509,27 Oct 2022 04:12:44.213,27 Oct 2022 04:16:58.434,254.221
510,27 Oct 2022 05:46:11.947,27 Oct 2022 05:53:37.652,445.705
511,27 Oct 2022 17:24:10.156,27 Oct 2022 17:32:10.614,480.458
512,28 Oct 2022 04:09:29.307,28 Oct 2022 04:13:39.687,250.380
513,28 Oct 2022 05:42:54.305,28 Oct 2022 05:50:21.005,446.700
514,28 Oct 2022 17:20:53.135,28 Oct 2022 17:28:53.515,480.380
515,29 Oct 2022 04:06:14.444,29 Oct 2022 04:10:20.900,246.456
516,29 Oct 2022 05:39:36.673,29 Oct 2022 05:47:04.349,447.676
517,29 Oct 2022 17:17:36.119,29 Oct 2022 17:25:36.407,480.289
518,30 Oct 2022 04:02:59.626,30 Oct 2022 04:07:02.072,242.446
519,30 Oct 2022 05:36:19.049,30 Oct 2022 05:43:47.686,448.637
520,30 Oct 2022 17:14:19.107,30 Oct 2022 17:22:19.293,480.185
521,31 Oct 2022 03:59:44.854,31 Oct 2022 04:03:43.200,238.347
522,31 Oct 2022 05:33:01.435,31 Oct 2022 05:40:31.016,449.581
523,31 Oct 2022 17:11:02.101,31 Oct 2022 17:19:02.171,480.070
524,1 Nov 2022 03:56:30.130,1 Nov 2022 04:00:24.283,234.152
525,1 Nov 2022 05:29:43.830,1 Nov 2022 05:37:14.340,450.510
526,1 Nov 2022 17:07:45.100,1 Nov 2022 17:15:45.041,479.941
527,2 Nov 2022 03:53:15.458,2 Nov 2022 03:57:05.320,229.861
528,2 Nov 2022 05:26:26.235,2 Nov 2022 05:33:57.657,451.422
529,2 Nov 2022 17:04:28.103,2 Nov 2022 17:12:27.904,479.801
530,3 Nov 2022 03:50:00.840,3 Nov 2022 03:53:46.303,225.463
531,3 Nov 2022 05:23:08.649,3 Nov 2022 05:30:40.968,452.319
532,3 Nov 2022 17:01:11.112,3 Nov 2022 17:09:10.759,479.647
533,4 Nov 2022 03:46:46.280,4 Nov 2022 03:50:27.230,220.950
534,4 Nov 2022 05:19:51.071,4 Nov 2022 05:27:24.273,453.201
535,4 Nov 2022 16:57:54.126,4 Nov 2022 17:05:53.605,479.479
536,5 Nov 2022 03:43:31.782,5 Nov 2022 03:47:08.098,216.316
537,5 Nov 2022 05:16:33.503,5 Nov 2022 05:24:07.571,454.068
538,5 Nov 2022 16:54:37.145,5 Nov 2022 17:02:36.446,479.301
539,6 Nov 2022 03:40:17.348,6 Nov 2022 03:43:48.903,211.555
540,6 Nov 2022 05:13:15.944,6 Nov 2022 05:20:50.863,454.919
541,6 Nov 2022 16:51:20.169,6 Nov 2022 16:59:19.279,479.110
542,7 Nov 2022 03:37:02.984,7 Nov 2022 03:40:29.643,206.659
543,7 Nov 2022 05:09:58.394,7 Nov 2022 05:17:34.149,455.755
544,7 Nov 2022 16:48:03.198,7 Nov 2022 16:56:02.108,478.911
545,8 Nov 2022 03:33:48.695,8 Nov 2022 03:37:10.312,201.618
546,8 Nov 2022 05:06:40.853,8 Nov 2022 05:14:17.430,456.577
547,8 Nov 2022 16:44:46.232,8 Nov 2022 16:52:44.926,478.694
548,9 Nov 2022 03:30:34.485,9 Nov 2022 03:33:50.904,196.419
549,9 Nov 2022 05:03:23.320,9 Nov 2022 05:11:00.702,457.382
550,9 Nov 2022 16:41:29.271,9 Nov 2022 16:49:27.736,478.465
551,10 Nov 2022 03:27:20.362,10 Nov 2022 03:30:31.413,191.051
552,10 Nov 2022 05:00:05.796,10 Nov 2022 05:07:43.969,458.173
553,10 Nov 2022 16:38:12.315,10 Nov 2022 16:46:10.539,478.224
554,11 Nov 2022 03:24:06.332,11 Nov 2022 03:27:11.832,185.499
555,11 Nov 2022 04:56:48.281,11 Nov 2022 05:04:27.231,458.951
556,11 Nov 2022 16:34:55.364,11 Nov 2022 16:42:53.333,477.969
557,12 Nov 2022 03:20:52.405,12 Nov 2022 03:23:52.152,179.746
558,12 Nov 2022 04:53:30.774,12 Nov 2022 05:01:10.485,459.711
559,12 Nov 2022 16:31:38.418,12 Nov 2022 16:39:36.120,477.702
560,13 Nov 2022 03:17:38.590,13 Nov 2022 03:20:32.361,173.771
561,13 Nov 2022 04:50:13.276,13 Nov 2022 04:57:53.733,460.457
562,13 Nov 2022 16:28:21.477,13 Nov 2022 16:36:18.899,477.423
563,14 Nov 2022 03:14:24.899,14 Nov 2022 03:17:12.448,167.549
564,14 Nov 2022 04:46:55.786,14 Nov 2022 04:54:36.977,461.191
565,14 Nov 2022 16:25:04.541,14 Nov 2022 16:33:01.671,477.130
566,15 Nov 2022 03:11:11.346,15 Nov 2022 03:13:52.400,161.054
567,15 Nov 2022 04:43:38.305,15 Nov 2022 04:51:20.213,461.908
568,15 Nov 2022 16:21:47.610,15 Nov 2022 16:29:44.435,476.825
569,16 Nov 2022 03:07:57.949,16 Nov 2022 03:10:32.200,154.251
570,16 Nov 2022 04:40:20.833,16 Nov 2022 04:48:03.443,462.610
571,16 Nov 2022 16:18:30.685,16 Nov 2022 16:26:27.190,476.505
572,17 Nov 2022 03:04:44.729,17 Nov 2022 03:07:11.826,147.096
573,17 Nov 2022 04:37:03.369,17 Nov 2022 04:44:46.667,463.298
574,17 Nov 2022 16:15:13.765,17 Nov 2022 16:23:09.936,476.171
575,18 Nov 2022 03:01:31.713,18 Nov 2022 03:03:51.250,139.537
576,18 Nov 2022 04:33:45.913,18 Nov 2022 04:41:29.888,463.975
577,18 Nov 2022 16:11:56.850,18 Nov 2022 16:19:52.680,475.830
578,19 Nov 2022 02:58:18.937,19 Nov 2022 03:00:30.439,131.503
579,19 Nov 2022 04:30:28.467,19 Nov 2022 04:38:13.101,464.634
580,19 Nov 2022 16:08:39.940,19 Nov 2022 16:16:35.413,475.473
581,20 Nov 2022 02:55:06.443,20 Nov 2022 02:57:09.344,122.901
582,20 Nov 2022 04:27:11.028,20 Nov 2022 04:34:56.308,465.280
583,20 Nov 2022 16:05:23.036,20 Nov 2022 16:13:18.137,475.101
584,21 Nov 2022 02:51:54.302,21 Nov 2022 02:53:47.905,113.603
585,21 Nov 2022 04:23:53.598,21 Nov 2022 04:31:39.509,465.912
586,21 Nov 2022 16:02:06.136,21 Nov 2022 16:10:00.854,474.718
587,22 Nov 2022 02:48:42.605,22 Nov 2022 02:50:26.023,103.418
588,22 Nov 2022 04:20:36.176,22 Nov 2022 04:28:22.705,466.529
589,22 Nov 2022 15:58:49.242,22 Nov 2022 16:06:43.565,474.322
590,23 Nov 2022 02:45:31.496,23 Nov 2022 02:47:03.554,92.058
591,23 Nov 2022 04:17:18.762,23 Nov 2022 04:25:05.895,467.133
592,23 Nov 2022 15:55:32.354,23 Nov 2022 16:03:26.265,473.912
593,24 Nov 2022 02:42:21.232,24 Nov 2022 02:43:40.240,79.008
594,24 Nov 2022 04:14:01.357,24 Nov 2022 04:21:49.080,467.723
595,24 Nov 2022 15:52:15.470,24 Nov 2022 16:00:08.959,473.489
596,25 Nov 2022 02:39:12.330,25 Nov 2022 02:40:15.572,63.242
597,25 Nov 2022 04:10:43.959,25 Nov 2022 04:18:32.259,468.299
598,25 Nov 2022 15:48:58.592,25 Nov 2022 15:56:51.645,473.053
599,26 Nov 2022 02:36:06.269,26 Nov 2022 02:36:48.064,41.795
600,26 Nov 2022 04:07:26.570,26 Nov 2022 04:15:15.432,468.862
601,26 Nov 2022 15:45:41.719,26 Nov 2022 15:53:34.323,472.605
602,27 Nov 2022 04:04:09.188,27 Nov 2022 04:11:58.599,469.411
603,27 Nov 2022 15:42:24.851,27 Nov 2022 15:50:16.994,472.143
604,28 Nov 2022 04:00:51.815,28 Nov 2022 04:08:41.761,469.946
605,28 Nov 2022 15:39:07.989,28 Nov 2022 15:46:59.656,471.667
606,29 Nov 2022 03:57:34.450,29 Nov 2022 04:05:24.918,470.468
607,29 Nov 2022 15:35:51.132,29 Nov 2022 15:43:42.310,471.178
608,30 Nov 2022 03:54:17.093,30 Nov 2022 04:02:08.069,470.976
609,30 Nov 2022 15:32:34.280,30 Nov 2022 15:40:24.956,470.676
610,1 Dec 2022 03:50:59.744,1 Dec 2022 03:58:51.214,471.470
611,1 Dec 2022 15:29:17.435,1 Dec 2022 15:37:07.595,470.160
612,2 Dec 2022 03:47:42.403,2 Dec 2022 03:55:34.355,471.952
613,2 Dec 2022 15:26:00.595,2 Dec 2022 15:33:50.225,469.630
614,3 Dec 2022 03:44:25.070,3 Dec 2022 03:52:17.490,472.419
615,3 Dec 2022 15:22:43.760,3 Dec 2022 15:30:32.847,469.087
616,3 Dec 2022 17:01:17.648,3 Dec 2022 17:01:46.365,28.717
617,4 Dec 2022 03:41:07.746,4 Dec 2022 03:49:00.619,472.874
618,4 Dec 2022 15:19:26.931,4 Dec 2022 15:27:15.462,468.531
619,4 Dec 2022 16:57:47.473,4 Dec 2022 16:58:42.980,55.507
620,5 Dec 2022 03:37:50.429,5 Dec 2022 03:45:43.744,473.315
621,5 Dec 2022 15:16:10.108,5 Dec 2022 15:23:58.068,467.960
622,5 Dec 2022 16:54:21.950,5 Dec 2022 16:55:34.930,72.980
623,6 Dec 2022 03:34:33.120,6 Dec 2022 03:42:26.864,473.745
624,6 Dec 2022 15:12:53.290,6 Dec 2022 15:20:40.666,467.376
625,6 Dec 2022 16:50:58.178,6 Dec 2022 16:52:25.133,86.954
626,7 Dec 2022 03:31:15.818,7 Dec 2022 03:39:09.977,474.159
627,7 Dec 2022 15:09:36.478,7 Dec 2022 15:17:23.255,466.778
628,7 Dec 2022 16:47:35.408,7 Dec 2022 16:49:14.328,98.920
629,8 Dec 2022 03:27:58.525,8 Dec 2022 03:35:53.086,474.561
630,8 Dec 2022 15:06:19.671,8 Dec 2022 15:14:05.837,466.166
631,8 Dec 2022 16:44:13.310,8 Dec 2022 16:46:02.847,109.537
632,9 Dec 2022 03:24:41.239,9 Dec 2022 03:32:36.191,474.952
633,9 Dec 2022 15:03:02.870,9 Dec 2022 15:10:48.410,465.541
634,9 Dec 2022 16:40:51.702,9 Dec 2022 16:42:50.871,119.169
635,10 Dec 2022 03:21:23.961,10 Dec 2022 03:29:19.284,475.323
636,10 Dec 2022 14:59:46.074,10 Dec 2022 15:07:30.975,464.901
637,10 Dec 2022 16:37:30.478,10 Dec 2022 16:39:38.511,128.033
638,11 Dec 2022 03:18:06.691,11 Dec 2022 03:26:02.378,475.686
639,11 Dec 2022 14:56:29.285,11 Dec 2022 15:04:13.532,464.248
640,11 Dec 2022 16:34:09.559,11 Dec 2022 16:36:25.844,136.285
641,12 Dec 2022 03:14:49.429,12 Dec 2022 03:22:45.467,476.038
642,12 Dec 2022 14:53:12.501,12 Dec 2022 15:00:56.081,463.580
643,12 Dec 2022 16:30:48.891,12 Dec 2022 16:33:12.920,144.029
644,13 Dec 2022 03:11:32.174,13 Dec 2022 03:19:28.550,476.376
645,13 Dec 2022 14:49:55.723,13 Dec 2022 14:57:38.621,462.898
646,13 Dec 2022 16:27:28.437,13 Dec 2022 16:29:59.779,151.342
647,14 Dec 2022 03:08:14.927,14 Dec 2022 03:16:11.627,476.700
648,14 Dec 2022 14:46:38.951,14 Dec 2022 14:54:21.150,462.199
649,14 Dec 2022 16:24:08.168,14 Dec 2022 16:26:46.451,158.282
650,15 Dec 2022 03:04:57.688,15 Dec 2022 03:12:54.698,477.010
651,15 Dec 2022 14:43:22.185,15 Dec 2022 14:51:03.673,461.488
652,15 Dec 2022 16:20:48.060,15 Dec 2022 16:23:32.959,164.899
653,16 Dec 2022 03:01:40.457,16 Dec 2022 03:09:37.765,477.308
654,16 Dec 2022 14:40:05.425,16 Dec 2022 14:47:46.188,460.763
655,16 Dec 2022 16:17:28.095,16 Dec 2022 16:20:19.322,171.227
656,17 Dec 2022 02:58:23.233,17 Dec 2022 03:06:20.826,477.593
657,17 Dec 2022 14:36:48.671,17 Dec 2022 14:44:28.692,460.021
658,17 Dec 2022 16:14:08.256,17 Dec 2022 16:17:05.556,177.300
659,18 Dec 2022 02:55:06.017,18 Dec 2022 03:03:03.883,477.865
660,18 Dec 2022 14:33:31.923,18 Dec 2022 14:41:11.190,459.267
661,18 Dec 2022 16:10:48.531,18 Dec 2022 16:13:51.671,183.140
662,19 Dec 2022 02:51:48.809,19 Dec 2022 02:59:46.934,478.125
663,19 Dec 2022 14:30:15.182,19 Dec 2022 14:37:53.683,458.501
664,19 Dec 2022 16:07:28.910,19 Dec 2022 16:10:37.680,188.770
665,20 Dec 2022 02:48:31.608,20 Dec 2022 02:56:29.978,478.370
666,20 Dec 2022 14:26:58.446,20 Dec 2022 14:34:36.160,457.714
667,20 Dec 2022 16:04:09.384,20 Dec 2022 16:07:23.593,194.209
668,21 Dec 2022 02:45:14.415,21 Dec 2022 02:53:13.019,478.603
669,21 Dec 2022 14:23:41.716,21 Dec 2022 14:31:18.630,456.914
670,21 Dec 2022 16:00:49.943,21 Dec 2022 16:04:09.416,199.472
671,22 Dec 2022 02:41:57.230,22 Dec 2022 02:49:56.054,478.824
672,22 Dec 2022 14:20:24.993,22 Dec 2022 14:28:01.091,456.099
673,22 Dec 2022 15:57:30.583,22 Dec 2022 16:00:55.157,204.575
674,23 Dec 2022 02:38:40.052,23 Dec 2022 02:46:39.085,479.033
675,23 Dec 2022 14:17:08.275,23 Dec 2022 14:24:43.545,455.270
676,23 Dec 2022 15:54:11.295,23 Dec 2022 15:57:40.822,209.527
677,24 Dec 2022 02:35:22.881,24 Dec 2022 02:43:22.110,479.229
678,24 Dec 2022 14:13:51.564,24 Dec 2022 14:21:25.989,454.425
679,24 Dec 2022 15:50:52.076,24 Dec 2022 15:54:26.418,214.342
680,25 Dec 2022 02:32:05.718,25 Dec 2022 02:40:05.130,479.412
681,25 Dec 2022 14:10:34.859,25 Dec 2022 14:18:08.424,453.565
682,25 Dec 2022 15:47:32.921,25 Dec 2022 15:51:11.944,219.023
683,26 Dec 2022 02:28:48.563,26 Dec 2022 02:36:48.145,479.583
684,26 Dec 2022 14:07:18.161,26 Dec 2022 14:14:50.851,452.690
685,26 Dec 2022 15:44:13.826,26 Dec 2022 15:47:57.412,223.586
686,27 Dec 2022 02:25:31.415,27 Dec 2022 02:33:31.156,479.741
687,27 Dec 2022 14:04:01.469,27 Dec 2022 14:11:33.268,451.799
688,27 Dec 2022 15:40:54.786,27 Dec 2022 15:44:42.817,228.031
689,28 Dec 2022 02:22:14.275,28 Dec 2022 02:30:14.164,479.889
690,28 Dec 2022 14:00:44.783,28 Dec 2022 14:08:15.676,450.893
691,28 Dec 2022 15:37:35.799,28 Dec 2022 15:41:28.167,232.368
692,29 Dec 2022 02:18:57.142,29 Dec 2022 02:26:57.164,480.022
693,29 Dec 2022 13:57:28.105,29 Dec 2022 14:04:58.076,449.971
694,29 Dec 2022 15:34:16.861,29 Dec 2022 15:38:13.464,236.603
695,30 Dec 2022 02:15:40.017,30 Dec 2022 02:23:40.160,480.143
696,30 Dec 2022 13:54:11.433,30 Dec 2022 14:01:40.467,449.034
697,30 Dec 2022 15:30:57.972,30 Dec 2022 15:34:58.708,240.737
698,31 Dec 2022 02:12:22.899,31 Dec 2022 02:20:23.151,480.252
699,31 Dec 2022 13:50:54.768,31 Dec 2022 13:58:22.848,448.081
700,31 Dec 2022 15:27:39.127,31 Dec 2022 15:31:43.908,244.782
701,1 Jan 2023 02:09:05.790,1 Jan 2023 02:17:06.137,480.347
702,1 Jan 2023 13:47:38.109,1 Jan 2023 13:55:05.221,447.112
703,1 Jan 2023 15:24:20.324,1 Jan 2023 15:28:29.063,248.739
704,2 Jan 2023 02:05:48.687,2 Jan 2023 02:13:49.118,480.431
705,2 Jan 2023 13:44:21.457,2 Jan 2023 13:51:47.584,446.127
706,2 Jan 2023 15:21:01.562,2 Jan 2023 15:25:14.174,252.612
707,3 Jan 2023 02:02:31.592,3 Jan 2023 02:10:32.094,480.502
708,3 Jan 2023 13:41:04.812,3 Jan 2023 13:48:29.935,445.123
709,3 Jan 2023 15:17:42.843,3 Jan 2023 15:21:59.244,256.401
710,4 Jan 2023 01:59:14.505,4 Jan 2023 02:07:15.065,480.561
711,4 Jan 2023 13:37:48.174,4 Jan 2023 13:45:12.278,444.105
712,4 Jan 2023 15:14:24.157,4 Jan 2023 15:18:44.275,260.118
713,5 Jan 2023 01:55:57.424,5 Jan 2023 02:03:58.032,480.607
714,5 Jan 2023 13:34:31.542,5 Jan 2023 13:41:54.613,443.071
715,5 Jan 2023 15:11:05.505,5 Jan 2023 15:15:29.268,263.763
716,6 Jan 2023 01:52:40.352,6 Jan 2023 02:00:40.993,480.641
717,6 Jan 2023 13:31:14.918,6 Jan 2023 13:38:36.938,442.020
718,6 Jan 2023 15:07:46.887,6 Jan 2023 15:12:14.223,267.336
719,7 Jan 2023 01:49:23.286,7 Jan 2023 01:57:23.949,480.663
720,7 Jan 2023 13:27:58.300,7 Jan 2023 13:35:19.253,440.952
721,7 Jan 2023 15:04:28.301,7 Jan 2023 15:08:59.148,270.847
722,8 Jan 2023 01:46:06.228,8 Jan 2023 01:54:06.900,480.672
723,8 Jan 2023 13:24:41.690,8 Jan 2023 13:32:01.556,439.866
724,8 Jan 2023 15:01:09.746,8 Jan 2023 15:05:44.031,274.285
725,9 Jan 2023 01:42:49.178,9 Jan 2023 01:50:49.847,480.669
726,9 Jan 2023 13:21:25.087,9 Jan 2023 13:28:43.852,438.764
727,9 Jan 2023 14:57:51.220,9 Jan 2023 15:02:28.885,277.665
728,10 Jan 2023 01:39:32.135,10 Jan 2023 01:47:32.788,480.654
729,10 Jan 2023 13:18:08.491,10 Jan 2023 13:25:26.140,437.649
730,10 Jan 2023 14:54:32.724,10 Jan 2023 14:59:13.709,280.985
731,11 Jan 2023 01:36:15.099,11 Jan 2023 01:44:15.725,480.626
732,11 Jan 2023 13:14:51.903,11 Jan 2023 13:22:08.416,436.512
733,11 Jan 2023 14:51:14.254,11 Jan 2023 14:55:58.502,284.247
734,12 Jan 2023 01:32:58.071,12 Jan 2023 01:40:58.657,480.586
735,12 Jan 2023 13:11:35.322,12 Jan 2023 13:18:50.681,435.358
736,12 Jan 2023 14:47:55.812,12 Jan 2023 14:52:43.266,287.454
737,13 Jan 2023 01:29:41.051,13 Jan 2023 01:37:41.584,480.534
738,13 Jan 2023 13:08:18.749,13 Jan 2023 13:15:32.936,434.187
739,13 Jan 2023 14:44:37.395,13 Jan 2023 14:49:28.001,290.606
740,14 Jan 2023 01:26:24.038,14 Jan 2023 01:34:24.507,480.469
741,14 Jan 2023 13:05:02.184,14 Jan 2023 13:12:15.181,432.997
742,14 Jan 2023 14:41:19.003,14 Jan 2023 14:46:12.709,293.706
743,15 Jan 2023 01:23:07.032,15 Jan 2023 01:31:07.424,480.392
744,15 Jan 2023 13:01:45.626,15 Jan 2023 13:08:57.416,431.790
745,15 Jan 2023 14:38:00.634,15 Jan 2023 14:42:57.390,296.756
746,16 Jan 2023 01:19:50.034,16 Jan 2023 01:27:50.337,480.303
747,16 Jan 2023 12:58:29.075,16 Jan 2023 13:05:39.639,430.564
748,16 Jan 2023 14:34:42.291,16 Jan 2023 14:39:42.045,299.753
749,17 Jan 2023 01:16:33.044,17 Jan 2023 01:24:33.245,480.201
750,17 Jan 2023 12:55:12.533,17 Jan 2023 13:02:21.851,429.318
751,17 Jan 2023 14:31:23.969,17 Jan 2023 14:36:26.674,302.705
752,18 Jan 2023 01:13:16.060,18 Jan 2023 01:21:16.148,480.087
753,18 Jan 2023 12:51:55.998,18 Jan 2023 12:59:04.058,428.060
754,18 Jan 2023 14:28:05.669,18 Jan 2023 14:33:11.278,305.609
755,19 Jan 2023 01:09:59.085,19 Jan 2023 01:17:59.046,479.961
756,19 Jan 2023 12:48:39.472,19 Jan 2023 12:55:46.251,426.779
757,19 Jan 2023 14:24:47.389,19 Jan 2023 14:29:55.858,308.469
758,20 Jan 2023 01:06:42.116,20 Jan 2023 01:14:41.939,479.823
759,20 Jan 2023 12:45:22.953,20 Jan 2023 12:52:28.431,425.479
760,20 Jan 2023 14:21:29.134,20 Jan 2023 14:26:40.410,311.276
761,21 Jan 2023 01:03:25.155,21 Jan 2023 01:11:24.827,479.672
762,21 Jan 2023 12:42:06.442,21 Jan 2023 12:49:10.601,424.159
763,21 Jan 2023 14:18:10.895,21 Jan 2023 14:23:24.945,314.050
764,22 Jan 2023 01:00:08.201,22 Jan 2023 01:08:07.710,479.509
765,22 Jan 2023 12:38:49.940,22 Jan 2023 12:45:52.761,422.822
766,22 Jan 2023 14:14:52.675,22 Jan 2023 14:20:09.457,316.782
767,23 Jan 2023 00:56:51.254,23 Jan 2023 01:04:50.585,479.331
768,23 Jan 2023 12:35:33.446,23 Jan 2023 12:42:34.909,421.464
769,23 Jan 2023 14:11:34.474,23 Jan 2023 14:16:53.947,319.473
770,24 Jan 2023 00:53:34.316,24 Jan 2023 01:01:33.459,479.143
771,24 Jan 2023 12:32:16.960,24 Jan 2023 12:39:17.049,420.089
772,24 Jan 2023 14:08:16.292,24 Jan 2023 14:13:38.415,322.123
773,25 Jan 2023 00:50:17.384,25 Jan 2023 00:58:16.327,478.943
774,25 Jan 2023 12:29:00.484,25 Jan 2023 12:35:59.175,418.692
775,25 Jan 2023 14:04:58.128,25 Jan 2023 14:10:22.864,324.735
776,26 Jan 2023 00:47:00.460,26 Jan 2023 00:54:59.191,478.731
777,26 Jan 2023 12:25:44.016,26 Jan 2023 12:32:41.291,417.275
778,26 Jan 2023 14:01:39.983,26 Jan 2023 14:07:07.292,327.309
779,27 Jan 2023 00:43:43.544,27 Jan 2023 00:51:42.051,478.506
780,27 Jan 2023 12:22:27.557,27 Jan 2023 12:29:23.395,415.839
781,27 Jan 2023 13:58:21.854,27 Jan 2023 14:03:51.700,329.845
782,28 Jan 2023 00:40:26.636,28 Jan 2023 00:48:24.905,478.269
783,28 Jan 2023 12:19:11.107,28 Jan 2023 12:26:05.489,414.382
784,28 Jan 2023 13:55:03.743,28 Jan 2023 14:00:36.088,332.345
785,29 Jan 2023 00:37:09.735,29 Jan 2023 00:45:07.754,478.020
786,29 Jan 2023 12:15:54.665,29 Jan 2023 12:22:47.571,412.905
787,29 Jan 2023 13:51:45.646,29 Jan 2023 13:57:20.458,334.812
788,30 Jan 2023 00:33:52.841,30 Jan 2023 00:41:50.599,477.758
789,30 Jan 2023 12:12:38.233,30 Jan 2023 12:19:29.641,411.408
790,30 Jan 2023 13:48:27.564,30 Jan 2023 13:54:04.809,337.245
791,31 Jan 2023 00:30:35.955,31 Jan 2023 00:38:33.440,477.485
792,31 Jan 2023 12:09:21.810,31 Jan 2023 12:16:11.699,409.889
793,31 Jan 2023 13:45:09.501,31 Jan 2023 13:50:49.142,339.641
794,1 Feb 2023 00:27:19.076,1 Feb 2023 00:35:16.274,477.198
795,1 Feb 2023 12:06:05.397,1 Feb 2023 12:12:53.743,408.346
796,1 Feb 2023 13:41:51.452,1 Feb 2023 13:47:33.458,342.006
797,2 Feb 2023 00:24:02.204,2 Feb 2023 00:31:59.103,476.898
798,2 Feb 2023 12:02:48.992,2 Feb 2023 12:09:35.777,406.785
799,2 Feb 2023 13:38:33.418,2 Feb 2023 13:44:17.755,344.337
800,3 Feb 2023 00:20:45.340,3 Feb 2023 00:28:41.927,476.586
801,3 Feb 2023 11:59:32.598,3 Feb 2023 12:06:17.799,405.201
802,3 Feb 2023 13:35:15.398,3 Feb 2023 13:41:02.035,346.637
803,4 Feb 2023 00:17:28.484,4 Feb 2023 00:25:24.746,476.262
804,4 Feb 2023 11:56:16.213,4 Feb 2023 12:02:59.808,403.595
805,4 Feb 2023 13:31:57.390,4 Feb 2023 13:37:46.299,348.909
806,5 Feb 2023 00:14:11.635,5 Feb 2023 00:22:07.560,475.925
807,5 Feb 2023 11:52:59.838,5 Feb 2023 11:59:41.802,401.964
808,5 Feb 2023 13:28:39.397,5 Feb 2023 13:34:30.546,351.149
809,6 Feb 2023 00:10:54.794,6 Feb 2023 00:18:50.368,475.575
810,6 Feb 2023 11:49:43.473,6 Feb 2023 11:56:23.786,400.313
811,6 Feb 2023 13:25:21.418,6 Feb 2023 13:31:14.777,353.359
812,7 Feb 2023 00:07:37.960,7 Feb 2023 00:15:33.169,475.210
813,7 Feb 2023 11:46:27.118,7 Feb 2023 11:53:05.761,398.643
814,7 Feb 2023 13:22:03.453,7 Feb 2023 13:27:58.993,355.540
815,8 Feb 2023 00:04:21.134,8 Feb 2023 00:12:15.967,474.834
816,8 Feb 2023 11:43:10.774,8 Feb 2023 11:49:47.718,396.944
817,8 Feb 2023 13:18:45.501,8 Feb 2023 13:24:43.194,357.693
818,9 Feb 2023 00:01:04.315,9 Feb 2023 00:08:58.766,474.451
819,9 Feb 2023 11:39:54.440,9 Feb 2023 11:46:29.663,395.223
820,9 Feb 2023 13:15:27.561,9 Feb 2023 13:21:27.377,359.816
821,9 Feb 2023 23:57:47.504,10 Feb 2023 00:05:41.553,474.049
822,10 Feb 2023 11:36:38.117,10 Feb 2023 11:43:11.594,393.477
823,10 Feb 2023 13:12:09.632,10 Feb 2023 13:18:11.545,361.914
824,10 Feb 2023 23:54:30.701,11 Feb 2023 00:02:24.337,473.636
825,11 Feb 2023 11:33:21.805,11 Feb 2023 11:39:53.512,391.707
826,11 Feb 2023 13:08:51.717,11 Feb 2023 13:14:55.698,363.981
827,11 Feb 2023 23:51:13.905,11 Feb 2023 23:59:07.116,473.211
828,12 Feb 2023 11:30:05.504,12 Feb 2023 11:36:35.417,389.912
829,12 Feb 2023 13:05:33.814,12 Feb 2023 13:11:39.833,366.019
830,12 Feb 2023 23:47:57.117,12 Feb 2023 23:55:49.889,472.772
831,13 Feb 2023 11:26:49.215,13 Feb 2023 11:33:17.305,388.091
832,13 Feb 2023 13:02:15.924,13 Feb 2023 13:08:23.956,368.033
833,13 Feb 2023 23:44:40.337,13 Feb 2023 23:52:32.658,472.321
834,14 Feb 2023 11:23:32.936,14 Feb 2023 11:29:59.180,386.244
835,14 Feb 2023 12:58:58.045,14 Feb 2023 13:05:08.065,370.020
836,14 Feb 2023 23:41:23.565,14 Feb 2023 23:49:15.422,471.857
837,15 Feb 2023 11:20:16.669,15 Feb 2023 11:26:41.041,384.372
838,15 Feb 2023 12:55:40.177,15 Feb 2023 13:01:52.162,371.985
839,15 Feb 2023 23:38:06.799,15 Feb 2023 23:45:58.181,471.381
840,16 Feb 2023 11:17:00.413,16 Feb 2023 11:23:22.893,382.480
841,16 Feb 2023 12:52:22.321,16 Feb 2023 12:58:36.242,373.921
842,16 Feb 2023 23:34:50.042,16 Feb 2023 23:42:40.934,470.892
843,17 Feb 2023 11:13:44.169,17 Feb 2023 11:20:04.726,380.556
844,17 Feb 2023 12:49:04.475,17 Feb 2023 12:55:20.310,375.835
845,17 Feb 2023 23:31:33.292,17 Feb 2023 23:39:23.683,470.391
846,18 Feb 2023 11:10:27.938,18 Feb 2023 11:16:46.540,378.602
847,18 Feb 2023 12:45:46.640,18 Feb 2023 12:52:04.365,377.724
848,18 Feb 2023 23:28:16.550,18 Feb 2023 23:36:06.426,469.876
849,19 Feb 2023 11:07:11.719,19 Feb 2023 11:13:28.343,376.624
850,19 Feb 2023 12:42:28.816,19 Feb 2023 12:48:48.406,379.590
851,19 Feb 2023 23:24:59.815,19 Feb 2023 23:32:49.164,469.348
852,20 Feb 2023 11:03:55.512,20 Feb 2023 11:10:10.131,374.618
853,20 Feb 2023 12:39:11.002,20 Feb 2023 12:45:32.433,381.431
854,20 Feb 2023 23:21:43.089,20 Feb 2023 23:29:31.896,468.808
855,21 Feb 2023 11:00:39.319,21 Feb 2023 11:06:51.903,372.584
856,21 Feb 2023 12:35:53.199,21 Feb 2023 12:42:16.448,383.249
857,21 Feb 2023 23:18:26.370,21 Feb 2023 23:26:14.624,468.254
858,22 Feb 2023 10:57:23.139,22 Feb 2023 11:03:33.658,370.519
859,22 Feb 2023 12:32:35.406,22 Feb 2023 12:39:00.445,385.039
860,22 Feb 2023 23:15:09.659,22 Feb 2023 23:22:57.347,467.688
861,23 Feb 2023 10:54:06.972,23 Feb 2023 11:00:15.399,368.427
862,23 Feb 2023 12:29:17.623,23 Feb 2023 12:35:44.435,386.811
863,23 Feb 2023 23:11:52.956,23 Feb 2023 23:19:40.064,467.108
864,24 Feb 2023 10:50:50.822,24 Feb 2023 10:56:57.124,366.303
865,24 Feb 2023 12:25:59.850,24 Feb 2023 12:32:28.413,388.563
866,24 Feb 2023 23:08:36.261,24 Feb 2023 23:16:22.777,466.516
867,25 Feb 2023 10:47:34.682,25 Feb 2023 10:53:38.836,364.153
868,25 Feb 2023 12:22:42.087,25 Feb 2023 12:29:12.377,390.290
869,25 Feb 2023 23:05:19.574,25 Feb 2023 23:13:05.484,465.910
870,26 Feb 2023 10:44:18.557,26 Feb 2023 10:50:20.527,361.970
871,26 Feb 2023 12:19:24.334,26 Feb 2023 12:25:56.329,391.995
872,26 Feb 2023 23:02:02.895,26 Feb 2023 23:09:48.186,465.291
873,27 Feb 2023 10:41:02.446,27 Feb 2023 10:47:02.200,359.755
874,27 Feb 2023 12:16:06.590,27 Feb 2023 12:22:40.268,393.678
875,27 Feb 2023 22:58:46.223,27 Feb 2023 23:06:30.883,464.659
876,28 Feb 2023 10:37:46.349,28 Feb 2023 10:43:43.857,357.507
877,28 Feb 2023 12:12:48.855,28 Feb 2023 12:19:24.195,395.340
878,28 Feb 2023 22:55:29.560,28 Feb 2023 23:03:13.574,464.014
879,1 Mar 2023 00:34:38.566,1 Mar 2023 00:35:26.584,48.018
880,1 Mar 2023 10:34:30.268,1 Mar 2023 10:40:25.494,355.226
881,1 Mar 2023 12:09:31.130,1 Mar 2023 12:16:08.110,396.980
882,1 Mar 2023 22:52:12.904,1 Mar 2023 22:59:56.260,463.356
883,2 Mar 2023 00:31:10.770,2 Mar 2023 00:32:19.766,68.995
884,2 Mar 2023 10:31:14.202,2 Mar 2023 10:37:07.113,352.911
885,2 Mar 2023 12:06:13.413,2 Mar 2023 12:12:52.010,398.597
886,2 Mar 2023 22:48:56.257,2 Mar 2023 22:56:38.938,462.681
887,3 Mar 2023 00:27:45.535,3 Mar 2023 00:29:10.399,84.864
888,3 Mar 2023 10:27:58.154,3 Mar 2023 10:33:48.714,350.560
889,3 Mar 2023 12:02:55.705,3 Mar 2023 12:09:35.901,400.196
890,3 Mar 2023 22:45:39.617,3 Mar 2023 22:53:21.613,461.996
891,4 Mar 2023 00:24:21.600,4 Mar 2023 00:25:59.727,98.127
892,4 Mar 2023 10:24:42.119,4 Mar 2023 10:30:30.296,348.177
893,4 Mar 2023 11:59:38.006,4 Mar 2023 12:06:19.780,401.774
894,4 Mar 2023 22:42:22.985,4 Mar 2023 22:50:04.282,461.297
895,5 Mar 2023 00:20:58.494,5 Mar 2023 00:22:48.229,109.735
896,5 Mar 2023 10:21:26.101,5 Mar 2023 10:27:11.860,345.759
897,5 Mar 2023 11:56:20.316,5 Mar 2023 12:03:03.651,403.335
898,5 Mar 2023 22:39:06.362,5 Mar 2023 22:46:46.946,460.585
899,6 Mar 2023 00:17:35.976,6 Mar 2023 00:19:36.142,120.166
900,6 Mar 2023 10:18:10.100,6 Mar 2023 10:23:53.404,343.304
901,6 Mar 2023 11:53:02.634,6 Mar 2023 11:59:47.508,404.874
902,6 Mar 2023 22:35:49.746,6 Mar 2023 22:43:29.605,459.859
903,7 Mar 2023 00:14:13.905,7 Mar 2023 00:16:23.617,129.713
904,7 Mar 2023 10:14:54.115,7 Mar 2023 10:20:34.930,340.815
905,7 Mar 2023 11:49:44.961,7 Mar 2023 11:56:31.354,406.394
906,7 Mar 2023 22:32:33.139,7 Mar 2023 22:40:12.256,459.117
907,8 Mar 2023 00:10:52.189,8 Mar 2023 00:13:10.738,138.549
908,8 Mar 2023 10:11:38.149,8 Mar 2023 10:17:16.432,338.283
909,8 Mar 2023 11:46:27.296,8 Mar 2023 11:53:15.189,407.893
910,8 Mar 2023 22:29:16.540,8 Mar 2023 22:36:54.904,458.364
911,9 Mar 2023 00:07:30.763,9 Mar 2023 00:09:57.571,146.807
912,9 Mar 2023 10:08:22.206,9 Mar 2023 10:13:57.916,335.710
913,9 Mar 2023 11:43:09.639,9 Mar 2023 11:49:59.016,409.376
914,9 Mar 2023 22:25:59.949,9 Mar 2023 22:33:37.546,457.597
915,10 Mar 2023 00:04:09.583,10 Mar 2023 00:06:44.162,154.580
916,10 Mar 2023 10:05:06.276,10 Mar 2023 10:10:39.378,333.102
917,10 Mar 2023 11:39:51.991,10 Mar 2023 11:46:42.829,410.838
918,10 Mar 2023 22:22:43.367,10 Mar 2023 22:30:20.183,456.817
919,11 Mar 2023 00:00:48.612,11 Mar 2023 00:03:30.548,161.936
920,11 Mar 2023 10:01:50.366,11 Mar 2023 10:07:20.819,330.453
921,11 Mar 2023 11:36:34.351,11 Mar 2023 11:43:26.632,412.281
922,11 Mar 2023 22:19:26.792,11 Mar 2023 22:27:02.812,456.020
923,11 Mar 2023 23:57:27.822,12 Mar 2023 00:00:16.754,168.932
924,12 Mar 2023 09:58:34.475,12 Mar 2023 10:04:02.237,327.762
925,12 Mar 2023 11:33:16.719,12 Mar 2023 11:40:10.424,413.705
926,12 Mar 2023 22:16:10.227,12 Mar 2023 22:23:45.436,455.209
927,12 Mar 2023 23:54:07.194,12 Mar 2023 23:57:02.803,175.609
928,13 Mar 2023 09:55:18.605,13 Mar 2023 10:00:43.633,325.028
929,13 Mar 2023 11:29:59.095,13 Mar 2023 11:36:54.206,415.110
930,13 Mar 2023 22:12:53.669,13 Mar 2023 22:20:28.055,454.386
931,13 Mar 2023 23:50:46.708,13 Mar 2023 23:53:48.709,182.001
932,14 Mar 2023 09:52:02.756,14 Mar 2023 09:57:25.005,322.249
933,14 Mar 2023 11:26:41.479,14 Mar 2023 11:33:37.976,416.497
934,14 Mar 2023 22:09:37.120,14 Mar 2023 22:17:10.668,453.548
935,14 Mar 2023 23:47:26.351,14 Mar 2023 23:50:34.491,188.140
936,15 Mar 2023 09:48:46.928,15 Mar 2023 09:54:06.353,319.425
937,15 Mar 2023 11:23:23.871,15 Mar 2023 11:30:21.737,417.867
938,15 Mar 2023 22:06:20.579,15 Mar 2023 22:13:53.275,452.696
939,15 Mar 2023 23:44:06.110,15 Mar 2023 23:47:20.160,194.050
940,16 Mar 2023 09:45:31.122,16 Mar 2023 09:50:47.676,316.554
941,16 Mar 2023 11:20:06.269,16 Mar 2023 11:27:05.489,419.219
942,16 Mar 2023 22:03:04.046,16 Mar 2023 22:10:35.876,451.830
943,16 Mar 2023 23:40:45.975,16 Mar 2023 23:44:05.726,199.751
944,17 Mar 2023 09:42:15.334,17 Mar 2023 09:47:28.978,313.645
945,17 Mar 2023 11:16:48.676,17 Mar 2023 11:23:49.229,420.554
946,17 Mar 2023 21:59:47.522,17 Mar 2023 22:07:18.471,450.949
947,17 Mar 2023 23:37:25.937,17 Mar 2023 23:40:51.199,205.262
948,18 Mar 2023 09:38:59.574,18 Mar 2023 09:44:10.249,310.675
949,18 Mar 2023 11:13:31.089,18 Mar 2023 11:20:32.958,421.869
950,18 Mar 2023 21:56:31.006,18 Mar 2023 22:04:01.061,450.055
951,18 Mar 2023 23:34:05.990,18 Mar 2023 23:37:36.581,210.592
952,19 Mar 2023 09:35:43.839,19 Mar 2023 09:40:51.493,307.655
953,19 Mar 2023 11:10:13.511,19 Mar 2023 11:17:16.679,423.169
954,19 Mar 2023 21:53:14.499,19 Mar 2023 22:00:43.645,449.146
955,19 Mar 2023 23:30:46.126,19 Mar 2023 23:34:21.888,215.762
956,20 Mar 2023 09:32:28.125,20 Mar 2023 09:37:32.714,304.589
957,20 Mar 2023 11:06:55.939,20 Mar 2023 11:14:00.389,424.450
958,20 Mar 2023 21:49:58.001,20 Mar 2023 21:57:26.223,448.222
959,20 Mar 2023 23:27:26.340,20 Mar 2023 23:31:07.117,220.777
960,21 Mar 2023 09:29:12.440,21 Mar 2023 09:34:13.904,301.465
961,21 Mar 2023 11:03:38.375,21 Mar 2023 11:10:44.091,425.716
962,21 Mar 2023 21:46:41.511,21 Mar 2023 21:54:08.795,447.284
963,21 Mar 2023 23:24:06.626,21 Mar 2023 23:27:52.276,225.649
964,22 Mar 2023 09:25:56.778,22 Mar 2023 09:30:55.065,298.288
965,22 Mar 2023 11:00:20.818,22 Mar 2023 11:07:27.783,426.965
966,22 Mar 2023 21:43:25.030,22 Mar 2023 21:50:51.361,446.331
967,22 Mar 2023 23:20:46.981,22 Mar 2023 23:24:37.370,230.389
968,23 Mar 2023 09:22:41.145,23 Mar 2023 09:27:36.197,295.051
969,23 Mar 2023 10:57:03.268,23 Mar 2023 11:04:11.460,428.191
970,23 Mar 2023 21:40:08.558,23 Mar 2023 21:47:33.918,445.360
971,23 Mar 2023 23:17:27.399,23 Mar 2023 23:21:22.403,235.003
972,24 Mar 2023 09:19:25.540,24 Mar 2023 09:24:17.297,291.757
973,24 Mar 2023 10:53:45.726,24 Mar 2023 11:00:55.132,429.407
974,24 Mar 2023 21:36:52.095,24 Mar 2023 21:44:16.473,444.378
975,24 Mar 2023 23:14:07.881,24 Mar 2023 23:18:07.379,239.498
976,25 Mar 2023 09:16:09.964,25 Mar 2023 09:20:58.365,288.400
977,25 Mar 2023 10:50:28.190,25 Mar 2023 10:57:38.797,430.607
978,25 Mar 2023 21:33:35.640,25 Mar 2023 21:40:59.021,443.380
