data/Partner_Institute/Skyhopper_Partner-Cambridge_Access_1year.csv

"Access","Start Time (UTCG)","Stop Time (UTCG)","Duration (sec)"
1,1 Jun 2022 05:58:53.562,1 Jun 2022 06:04:45.763,352.201
2,1 Jun 2022 07:33:02.701,1 Jun 2022 07:40:51.402,468.701
3,1 Jun 2022 19:03:42.197,1 Jun 2022 19:11:35.925,473.728
4,1 Jun 2022 20:39:56.838,1 Jun 2022 20:45:29.119,332.280
5,2 Jun 2022 05:55:37.562,2 Jun 2022 06:01:28.063,350.502
6,2 Jun 2022 07:29:45.293,2 Jun 2022 07:37:34.488,469.195
7,2 Jun 2022 19:00:25.254,2 Jun 2022 19:08:18.572,473.318
8,2 Jun 2022 20:36:39.062,2 Jun 2022 20:42:13.223,334.161
9,3 Jun 2022 05:52:21.572,3 Jun 2022 05:58:10.357,348.785
10,3 Jun 2022 07:26:27.890,3 Jun 2022 07:34:17.571,469.680
11,3 Jun 2022 18:57:08.314,3 Jun 2022 19:05:01.215,472.901
12,3 Jun 2022 20:33:21.293,3 Jun 2022 20:38:57.316,336.023
13,4 Jun 2022 05:49:05.593,4 Jun 2022 05:54:52.644,347.050
14,4 Jun 2022 07:23:10.494,4 Jun 2022 07:31:00.651,470.157
15,4 Jun 2022 18:53:51.376,4 Jun 2022 19:01:43.851,472.475
16,4 Jun 2022 20:30:03.533,4 Jun 2022 20:35:41.399,337.866
17,5 Jun 2022 05:45:49.623,5 Jun 2022 05:51:34.923,345.300
18,5 Jun 2022 07:19:53.102,5 Jun 2022 07:27:43.728,470.625
19,5 Jun 2022 18:50:34.442,5 Jun 2022 18:58:26.483,472.041
20,5 Jun 2022 20:26:45.777,5 Jun 2022 20:32:25.472,339.695
21,6 Jun 2022 05:42:33.662,6 Jun 2022 05:48:17.197,343.535
22,6 Jun 2022 07:16:35.717,6 Jun 2022 07:24:26.802,471.085
23,6 Jun 2022 18:47:17.511,6 Jun 2022 18:55:09.109,471.598
24,6 Jun 2022 20:23:28.033,6 Jun 2022 20:29:09.534,341.501
25,7 Jun 2022 05:39:17.711,7 Jun 2022 05:44:59.459,341.748
26,7 Jun 2022 07:13:18.336,7 Jun 2022 07:21:09.873,471.537
27,7 Jun 2022 18:44:00.582,7 Jun 2022 18:51:51.729,471.147
28,7 Jun 2022 20:20:10.297,7 Jun 2022 20:25:53.585,343.288
29,8 Jun 2022 05:36:01.771,8 Jun 2022 05:41:41.716,339.945
30,8 Jun 2022 07:10:00.962,8 Jun 2022 07:17:52.942,471.980
31,8 Jun 2022 18:40:43.656,8 Jun 2022 18:48:34.344,470.688
32,8 Jun 2022 20:16:52.569,8 Jun 2022 20:22:37.627,345.058
33,9 Jun 2022 05:32:45.841,9 Jun 2022 05:38:23.965,338.124
34,9 Jun 2022 07:06:43.593,9 Jun 2022 07:14:36.008,472.415
35,9 Jun 2022 18:37:26.733,9 Jun 2022 18:45:16.954,470.221
36,9 Jun 2022 20:13:34.848,9 Jun 2022 20:19:21.658,346.811
37,10 Jun 2022 05:29:29.927,10 Jun 2022 05:35:06.206,336.279
38,10 Jun 2022 07:03:26.229,10 Jun 2022 07:11:19.071,472.842
39,10 Jun 2022 18:34:09.813,10 Jun 2022 18:41:59.559,469.746
40,10 Jun 2022 20:10:17.134,10 Jun 2022 20:16:05.680,348.546
41,11 Jun 2022 05:26:14.019,11 Jun 2022 05:31:48.439,334.420
42,11 Jun 2022 07:00:08.871,11 Jun 2022 07:08:02.132,473.261
43,11 Jun 2022 18:30:52.896,11 Jun 2022 18:38:42.158,469.262
44,11 Jun 2022 20:06:59.428,11 Jun 2022 20:12:49.691,350.263
45,12 Jun 2022 05:22:58.121,12 Jun 2022 05:28:30.663,332.542
46,12 Jun 2022 06:56:51.517,12 Jun 2022 07:04:45.189,473.672
47,12 Jun 2022 18:27:35.982,12 Jun 2022 18:35:24.751,468.769
48,12 Jun 2022 20:03:41.729,12 Jun 2022 20:09:33.693,351.964
49,13 Jun 2022 05:19:42.235,13 Jun 2022 05:25:12.879,330.644
50,13 Jun 2022 06:53:34.170,13 Jun 2022 07:01:28.244,474.074
51,13 Jun 2022 18:24:19.070,13 Jun 2022 18:32:07.338,468.268
52,13 Jun 2022 20:00:24.034,13 Jun 2022 20:06:17.686,353.652
53,14 Jun 2022 05:16:26.360,14 Jun 2022 05:21:55.086,328.726
54,14 Jun 2022 06:50:16.827,14 Jun 2022 06:58:11.296,474.468
55,14 Jun 2022 18:21:02.161,14 Jun 2022 18:28:49.920,467.759
56,14 Jun 2022 19:57:06.348,14 Jun 2022 20:03:01.669,355.321
57,15 Jun 2022 05:13:10.496,15 Jun 2022 05:18:37.284,326.788
58,15 Jun 2022 06:46:59.490,15 Jun 2022 06:54:54.344,474.855
59,15 Jun 2022 18:17:45.256,15 Jun 2022 18:25:32.494,467.238
60,15 Jun 2022 19:53:48.668,15 Jun 2022 19:59:45.643,356.975
61,16 Jun 2022 05:09:54.644,16 Jun 2022 05:15:19.473,324.829
62,16 Jun 2022 06:43:42.158,16 Jun 2022 06:51:37.390,475.232
63,16 Jun 2022 18:14:28.353,16 Jun 2022 18:22:15.065,466.712
64,16 Jun 2022 19:50:30.996,16 Jun 2022 19:56:29.608,358.612
65,17 Jun 2022 05:06:38.804,17 Jun 2022 05:12:01.654,322.850
66,17 Jun 2022 06:40:24.832,17 Jun 2022 06:48:20.434,475.602
67,17 Jun 2022 18:11:11.454,17 Jun 2022 18:18:57.630,466.176
68,17 Jun 2022 19:47:13.329,17 Jun 2022 19:53:13.564,360.235
69,18 Jun 2022 05:03:22.976,18 Jun 2022 05:08:43.825,320.849
70,18 Jun 2022 06:37:07.511,18 Jun 2022 06:45:03.475,475.964
71,18 Jun 2022 18:07:54.557,18 Jun 2022 18:15:40.189,465.632
72,18 Jun 2022 19:43:55.670,18 Jun 2022 19:49:57.511,361.841
73,19 Jun 2022 05:00:07.160,19 Jun 2022 05:05:25.986,318.826
74,19 Jun 2022 06:33:50.195,19 Jun 2022 06:41:46.513,476.317
75,19 Jun 2022 18:04:37.664,19 Jun 2022 18:12:22.743,465.080
76,19 Jun 2022 19:40:38.017,19 Jun 2022 19:46:41.448,363.432
77,20 Jun 2022 04:56:51.356,20 Jun 2022 05:02:08.138,316.781
78,20 Jun 2022 06:30:32.885,20 Jun 2022 06:38:29.548,476.663
79,20 Jun 2022 18:01:20.774,20 Jun 2022 18:09:05.292,464.518
80,20 Jun 2022 19:37:20.370,20 Jun 2022 19:43:25.377,365.007
81,21 Jun 2022 04:53:35.566,21 Jun 2022 04:58:50.280,314.714
82,21 Jun 2022 06:27:15.581,21 Jun 2022 06:35:12.581,477.001
83,21 Jun 2022 17:58:03.887,21 Jun 2022 18:05:47.832,463.946
84,21 Jun 2022 19:34:02.730,21 Jun 2022 19:40:09.296,366.567
85,22 Jun 2022 04:50:19.784,22 Jun 2022 04:55:32.416,312.632
86,22 Jun 2022 06:23:58.281,22 Jun 2022 06:31:55.613,477.331
87,22 Jun 2022 17:54:47.003,22 Jun 2022 18:02:30.370,463.367
88,22 Jun 2022 19:30:45.095,22 Jun 2022 19:36:53.205,368.109
89,23 Jun 2022 04:47:04.020,23 Jun 2022 04:52:14.537,310.517
90,23 Jun 2022 06:20:40.987,23 Jun 2022 06:28:38.639,477.652
91,23 Jun 2022 17:51:30.122,23 Jun 2022 17:59:12.901,462.780
92,23 Jun 2022 19:27:27.465,23 Jun 2022 19:33:37.107,369.642
93,24 Jun 2022 04:43:48.269,24 Jun 2022 04:48:56.647,308.378
94,24 Jun 2022 06:17:23.698,24 Jun 2022 06:25:21.665,477.967
95,24 Jun 2022 17:48:13.244,24 Jun 2022 17:55:55.426,462.182
96,24 Jun 2022 19:24:09.842,24 Jun 2022 19:30:21.000,371.158
97,25 Jun 2022 04:40:32.532,25 Jun 2022 04:45:38.746,306.215
98,25 Jun 2022 06:14:06.414,25 Jun 2022 06:22:04.687,478.273
99,25 Jun 2022 17:44:56.369,25 Jun 2022 17:52:37.946,461.577
100,25 Jun 2022 19:20:52.226,25 Jun 2022 19:27:04.885,372.659
101,26 Jun 2022 04:37:16.805,26 Jun 2022 04:42:20.835,304.030
102,26 Jun 2022 06:10:49.136,26 Jun 2022 06:18:47.708,478.572
103,26 Jun 2022 17:41:39.497,26 Jun 2022 17:49:20.458,460.961
104,26 Jun 2022 19:17:34.615,26 Jun 2022 19:23:48.761,374.146
105,27 Jun 2022 04:34:01.095,27 Jun 2022 04:39:02.913,301.818
106,27 Jun 2022 06:07:31.863,27 Jun 2022 06:15:30.726,478.863
107,27 Jun 2022 17:38:22.629,27 Jun 2022 17:46:02.965,460.336
108,27 Jun 2022 19:14:17.010,27 Jun 2022 19:20:32.629,375.619
109,28 Jun 2022 04:30:45.396,28 Jun 2022 04:35:44.979,299.582
110,28 Jun 2022 06:04:14.594,28 Jun 2022 06:12:13.735,479.141
111,28 Jun 2022 17:35:05.763,28 Jun 2022 17:42:45.466,459.703
112,28 Jun 2022 19:10:59.410,28 Jun 2022 19:17:16.491,377.081
113,29 Jun 2022 04:27:29.714,29 Jun 2022 04:32:27.032,297.318
114,29 Jun 2022 06:00:57.331,29 Jun 2022 06:08:56.748,479.416
115,29 Jun 2022 17:31:48.901,29 Jun 2022 17:39:27.962,459.061
116,29 Jun 2022 19:07:41.816,29 Jun 2022 19:14:00.343,378.527
117,30 Jun 2022 04:24:14.046,30 Jun 2022 04:29:09.074,295.027
118,30 Jun 2022 05:57:40.074,30 Jun 2022 06:05:39.758,479.684
119,30 Jun 2022 17:28:32.042,30 Jun 2022 17:36:10.452,458.409
120,30 Jun 2022 19:04:24.227,30 Jun 2022 19:10:44.188,379.961
121,1 Jul 2022 04:20:58.394,1 Jul 2022 04:25:51.103,292.709
122,1 Jul 2022 05:54:22.821,1 Jul 2022 06:02:22.766,479.945
123,1 Jul 2022 17:25:15.187,1 Jul 2022 17:32:52.936,457.749
124,1 Jul 2022 19:01:06.643,1 Jul 2022 19:07:28.025,381.382
125,2 Jul 2022 04:17:42.756,2 Jul 2022 04:22:33.119,290.363
126,2 Jul 2022 05:51:05.574,2 Jul 2022 05:59:05.770,480.196
127,2 Jul 2022 17:21:58.335,2 Jul 2022 17:29:35.414,457.079
128,2 Jul 2022 18:57:49.065,2 Jul 2022 19:04:11.854,382.789
129,3 Jul 2022 04:14:27.134,3 Jul 2022 04:19:15.123,287.989
130,3 Jul 2022 05:47:48.332,3 Jul 2022 05:55:48.771,480.439
131,3 Jul 2022 17:18:41.486,3 Jul 2022 17:26:17.886,456.400
132,3 Jul 2022 18:54:31.493,3 Jul 2022 19:00:55.676,384.183
133,4 Jul 2022 04:11:11.528,4 Jul 2022 04:15:57.113,285.585
134,4 Jul 2022 05:44:31.095,4 Jul 2022 05:52:31.769,480.674
135,4 Jul 2022 17:15:24.640,4 Jul 2022 17:23:00.352,455.712
136,4 Jul 2022 18:51:13.925,4 Jul 2022 18:57:39.489,385.564
137,5 Jul 2022 04:07:55.939,5 Jul 2022 04:12:39.089,283.150
138,5 Jul 2022 05:41:13.864,5 Jul 2022 05:49:14.765,480.901
139,5 Jul 2022 17:12:07.798,5 Jul 2022 17:19:42.812,455.014
140,5 Jul 2022 18:47:56.363,5 Jul 2022 18:54:23.290,386.927
141,6 Jul 2022 04:04:40.366,6 Jul 2022 04:09:21.051,280.685
142,6 Jul 2022 05:37:56.637,6 Jul 2022 05:45:57.758,481.121
143,6 Jul 2022 17:08:50.960,6 Jul 2022 17:16:25.267,454.307
144,6 Jul 2022 18:44:38.806,6 Jul 2022 18:51:07.088,388.282
145,7 Jul 2022 04:01:24.811,7 Jul 2022 04:06:02.998,278.187
146,7 Jul 2022 05:34:39.416,7 Jul 2022 05:42:40.749,481.333
147,7 Jul 2022 17:05:34.124,7 Jul 2022 17:13:07.715,453.591
148,7 Jul 2022 18:41:21.254,7 Jul 2022 18:47:50.879,389.624
149,8 Jul 2022 03:58:09.274,8 Jul 2022 04:02:44.931,275.657
150,8 Jul 2022 05:31:22.200,8 Jul 2022 05:39:23.738,481.537
151,8 Jul 2022 17:02:17.292,8 Jul 2022 17:09:50.158,452.866
152,8 Jul 2022 18:38:03.707,8 Jul 2022 18:44:34.662,390.955
153,9 Jul 2022 03:54:53.755,9 Jul 2022 03:59:26.848,273.094
154,9 Jul 2022 05:28:04.989,9 Jul 2022 05:36:06.722,481.733
155,9 Jul 2022 16:59:00.464,9 Jul 2022 17:06:32.594,452.131
156,9 Jul 2022 18:34:46.165,9 Jul 2022 18:41:18.439,392.274
157,10 Jul 2022 03:51:38.254,10 Jul 2022 03:56:08.752,270.498
158,10 Jul 2022 05:24:47.783,10 Jul 2022 05:32:49.705,481.921
159,10 Jul 2022 16:55:43.638,10 Jul 2022 17:03:15.024,451.386
160,10 Jul 2022 18:31:28.628,10 Jul 2022 18:38:02.207,393.579
161,11 Jul 2022 03:48:22.772,11 Jul 2022 03:52:50.632,267.860
162,11 Jul 2022 05:21:30.582,11 Jul 2022 05:29:32.685,482.103
163,11 Jul 2022 16:52:26.816,11 Jul 2022 16:59:57.448,450.632
164,11 Jul 2022 18:28:11.095,11 Jul 2022 18:34:45.967,394.872
165,12 Jul 2022 03:45:07.310,12 Jul 2022 03:49:32.501,265.191
166,12 Jul 2022 05:18:13.387,12 Jul 2022 05:26:15.662,482.276
167,12 Jul 2022 16:49:09.998,12 Jul 2022 16:56:39.863,449.865
168,12 Jul 2022 18:24:53.567,12 Jul 2022 18:31:29.719,396.152
169,13 Jul 2022 03:41:51.868,13 Jul 2022 03:46:14.348,262.480
170,13 Jul 2022 05:14:56.196,13 Jul 2022 05:22:58.637,482.442
171,13 Jul 2022 16:45:53.183,13 Jul 2022 16:53:22.274,449.091
172,13 Jul 2022 18:21:36.043,13 Jul 2022 18:28:13.465,397.421
173,14 Jul 2022 03:38:36.442,14 Jul 2022 03:42:56.180,259.738
174,14 Jul 2022 05:11:39.010,14 Jul 2022 05:19:41.610,482.600
175,14 Jul 2022 16:42:36.372,14 Jul 2022 16:50:04.679,448.307
176,14 Jul 2022 18:18:18.524,14 Jul 2022 18:24:57.203,398.679
177,15 Jul 2022 03:35:21.041,15 Jul 2022 03:39:37.993,256.952
178,15 Jul 2022 05:08:21.829,15 Jul 2022 05:16:24.580,482.750
179,15 Jul 2022 16:39:19.564,15 Jul 2022 16:46:47.078,447.514
180,15 Jul 2022 18:15:01.010,15 Jul 2022 18:21:40.934,399.924
181,16 Jul 2022 03:32:05.663,16 Jul 2022 03:36:19.787,254.125
182,16 Jul 2022 05:05:04.654,16 Jul 2022 05:13:07.547,482.893
183,16 Jul 2022 16:36:02.761,16 Jul 2022 16:43:29.471,446.710
184,16 Jul 2022 18:11:43.500,16 Jul 2022 18:18:24.656,401.156
185,17 Jul 2022 03:28:50.307,17 Jul 2022 03:33:01.561,251.254
186,17 Jul 2022 05:01:47.484,17 Jul 2022 05:09:50.512,483.029
187,17 Jul 2022 16:32:45.961,17 Jul 2022 16:40:11.857,445.897
188,17 Jul 2022 18:08:25.995,17 Jul 2022 18:15:08.373,402.378
189,18 Jul 2022 03:25:34.975,18 Jul 2022 03:29:43.315,248.340
190,18 Jul 2022 04:58:30.319,18 Jul 2022 05:06:33.475,483.156
191,18 Jul 2022 16:29:29.164,18 Jul 2022 16:36:54.237,445.073
192,18 Jul 2022 18:05:08.495,18 Jul 2022 18:11:52.083,403.588
193,19 Jul 2022 03:22:19.667,19 Jul 2022 03:26:25.046,245.379
194,19 Jul 2022 04:55:13.159,19 Jul 2022 05:03:16.436,483.277
195,19 Jul 2022 16:26:12.372,19 Jul 2022 16:33:36.609,444.237
196,19 Jul 2022 18:01:50.999,19 Jul 2022 18:08:35.786,404.787
197,20 Jul 2022 03:19:04.384,20 Jul 2022 03:23:06.755,242.371
198,20 Jul 2022 04:51:56.004,20 Jul 2022 04:59:59.393,483.389
199,20 Jul 2022 16:22:55.583,20 Jul 2022 16:30:18.977,443.394
200,20 Jul 2022 17:58:33.507,20 Jul 2022 18:05:19.481,405.974
201,21 Jul 2022 03:15:49.127,21 Jul 2022 03:19:48.441,239.314
202,21 Jul 2022 04:48:38.854,21 Jul 2022 04:56:42.349,483.494
203,21 Jul 2022 16:19:38.798,21 Jul 2022 16:27:01.338,442.540
204,21 Jul 2022 17:55:16.020,21 Jul 2022 18:02:03.173,407.153
205,22 Jul 2022 03:12:33.897,22 Jul 2022 03:16:30.106,236.209
206,22 Jul 2022 04:45:21.710,22 Jul 2022 04:53:25.302,483.592
207,22 Jul 2022 16:16:22.016,22 Jul 2022 16:23:43.693,441.677
208,22 Jul 2022 17:51:58.537,22 Jul 2022 17:58:46.855,408.318
209,23 Jul 2022 03:09:18.697,23 Jul 2022 03:13:11.743,233.046
210,23 Jul 2022 04:42:04.570,23 Jul 2022 04:50:08.252,483.682
211,23 Jul 2022 16:13:05.238,23 Jul 2022 16:20:26.043,440.805
212,23 Jul 2022 17:48:41.058,23 Jul 2022 17:55:30.530,409.472
213,24 Jul 2022 03:06:03.523,24 Jul 2022 03:09:53.353,229.830
214,24 Jul 2022 04:38:47.435,24 Jul 2022 04:46:51.202,483.767
215,24 Jul 2022 16:09:48.465,24 Jul 2022 16:17:08.384,439.919
216,24 Jul 2022 17:45:23.583,24 Jul 2022 17:52:14.199,410.616
217,25 Jul 2022 03:02:48.379,25 Jul 2022 03:06:34.935,226.556
218,25 Jul 2022 04:35:30.305,25 Jul 2022 04:43:34.148,483.842
219,25 Jul 2022 16:06:31.694,25 Jul 2022 16:13:50.718,439.024
220,25 Jul 2022 17:42:06.113,25 Jul 2022 17:48:57.861,411.748
221,26 Jul 2022 02:59:33.266,26 Jul 2022 03:03:16.488,223.221
222,26 Jul 2022 04:32:13.180,26 Jul 2022 04:40:17.091,483.910
223,26 Jul 2022 16:03:14.928,26 Jul 2022 16:10:33.046,438.117
224,26 Jul 2022 17:38:48.646,26 Jul 2022 17:45:41.516,412.870
225,27 Jul 2022 02:56:18.186,27 Jul 2022 02:59:58.009,219.823
226,27 Jul 2022 04:28:56.061,27 Jul 2022 04:37:00.031,483.970
227,27 Jul 2022 15:59:58.166,27 Jul 2022 16:07:15.367,437.200
228,27 Jul 2022 17:35:31.183,27 Jul 2022 17:42:25.165,413.981
229,28 Jul 2022 02:53:03.140,28 Jul 2022 02:56:39.500,216.360
230,28 Jul 2022 04:25:38.946,28 Jul 2022 04:33:42.969,484.023
231,28 Jul 2022 15:56:41.408,28 Jul 2022 16:03:57.681,436.273
232,28 Jul 2022 17:32:13.725,28 Jul 2022 17:39:08.809,415.085
233,29 Jul 2022 02:49:48.130,29 Jul 2022 02:53:20.962,212.832
234,29 Jul 2022 04:22:21.836,29 Jul 2022 04:30:25.904,484.068
235,29 Jul 2022 06:02:10.802,29 Jul 2022 06:02:50.311,39.509
236,29 Jul 2022 15:53:24.654,29 Jul 2022 16:00:39.989,435.334
237,29 Jul 2022 17:28:56.270,29 Jul 2022 17:35:52.445,416.175
238,30 Jul 2022 02:46:33.158,30 Jul 2022 02:50:02.384,209.227
239,30 Jul 2022 04:19:04.732,30 Jul 2022 04:27:08.838,484.106
240,30 Jul 2022 05:58:43.745,30 Jul 2022 05:59:42.527,58.782
241,30 Jul 2022 15:50:07.905,30 Jul 2022 15:57:22.288,434.384
242,30 Jul 2022 17:25:38.819,30 Jul 2022 17:32:36.074,417.255
243,31 Jul 2022 02:43:18.224,31 Jul 2022 02:46:43.772,205.548
244,31 Jul 2022 04:15:47.632,31 Jul 2022 04:23:51.768,484.137
245,31 Jul 2022 05:55:19.172,31 Jul 2022 05:56:32.258,73.086
246,31 Jul 2022 15:46:51.159,31 Jul 2022 15:54:04.580,433.421
247,31 Jul 2022 17:22:21.372,31 Jul 2022 17:29:19.697,418.325
248,1 Aug 2022 02:40:03.333,1 Aug 2022 02:43:25.122,201.789
249,1 Aug 2022 04:12:30.537,1 Aug 2022 04:20:34.697,484.159
250,1 Aug 2022 05:51:55.810,1 Aug 2022 05:53:20.786,84.976
251,1 Aug 2022 15:43:34.418,1 Aug 2022 15:50:46.866,432.449
252,1 Aug 2022 17:19:03.929,1 Aug 2022 17:26:03.314,419.384
253,2 Aug 2022 02:36:48.485,2 Aug 2022 02:40:06.430,197.946
254,2 Aug 2022 04:09:13.448,2 Aug 2022 04:17:17.623,484.175
255,2 Aug 2022 05:48:33.205,2 Aug 2022 05:50:08.560,95.355
256,2 Aug 2022 15:40:17.680,2 Aug 2022 15:47:29.151,431.471
257,2 Aug 2022 17:15:46.491,2 Aug 2022 17:22:46.924,420.433
258,3 Aug 2022 02:33:33.683,3 Aug 2022 02:36:47.696,194.012
259,3 Aug 2022 04:05:56.364,3 Aug 2022 04:14:00.547,484.183
260,3 Aug 2022 05:45:11.134,3 Aug 2022 05:46:55.803,104.669
261,3 Aug 2022 15:37:00.947,3 Aug 2022 15:44:11.425,430.477
262,3 Aug 2022 17:12:29.056,3 Aug 2022 17:19:30.528,421.472
263,4 Aug 2022 02:30:18.931,4 Aug 2022 02:33:28.915,189.984
264,4 Aug 2022 04:02:39.284,4 Aug 2022 04:10:43.468,484.184
265,4 Aug 2022 05:41:49.460,4 Aug 2022 05:43:42.649,113.189
266,4 Aug 2022 15:33:44.218,4 Aug 2022 15:40:53.690,429.472
267,4 Aug 2022 17:09:11.625,4 Aug 2022 17:16:14.126,422.501
268,5 Aug 2022 02:27:04.230,5 Aug 2022 02:30:10.084,185.854
269,5 Aug 2022 03:59:22.210,5 Aug 2022 04:07:26.387,484.177
270,5 Aug 2022 05:38:28.103,5 Aug 2022 05:40:29.182,121.079
271,5 Aug 2022 15:30:27.494,5 Aug 2022 15:37:35.949,428.455
272,5 Aug 2022 17:05:54.197,5 Aug 2022 17:12:57.718,423.521
273,6 Aug 2022 02:23:49.586,6 Aug 2022 02:26:51.201,181.616
274,6 Aug 2022 03:56:05.141,6 Aug 2022 04:04:09.303,484.163
275,6 Aug 2022 05:35:07.006,6 Aug 2022 05:37:15.457,128.451
276,6 Aug 2022 15:27:10.773,6 Aug 2022 15:34:18.200,427.427
277,6 Aug 2022 17:02:36.773,6 Aug 2022 17:09:41.301,424.527
278,7 Aug 2022 02:20:35.000,7 Aug 2022 02:23:32.260,177.260
279,7 Aug 2022 03:52:48.076,7 Aug 2022 04:00:52.217,484.141
280,7 Aug 2022 05:31:46.123,7 Aug 2022 05:34:01.525,135.402
281,7 Aug 2022 15:23:54.057,7 Aug 2022 15:31:00.447,426.389
282,7 Aug 2022 16:59:19.353,7 Aug 2022 17:06:24.880,425.527
283,8 Aug 2022 02:17:20.479,8 Aug 2022 02:20:13.257,172.779
284,8 Aug 2022 03:49:31.016,8 Aug 2022 03:57:35.128,484.112
285,8 Aug 2022 05:28:25.425,8 Aug 2022 05:30:47.408,141.982
286,8 Aug 2022 15:20:37.345,8 Aug 2022 15:27:42.684,425.338
287,8 Aug 2022 16:56:01.936,8 Aug 2022 17:03:08.454,426.517
288,9 Aug 2022 02:14:06.025,9 Aug 2022 02:16:54.189,168.163
289,9 Aug 2022 03:46:13.961,9 Aug 2022 03:54:18.037,484.076
290,9 Aug 2022 05:25:04.888,9 Aug 2022 05:27:33.132,148.243
291,9 Aug 2022 15:17:20.638,9 Aug 2022 15:24:24.914,424.276
292,9 Aug 2022 16:52:44.523,9 Aug 2022 16:59:52.019,427.495
293,10 Aug 2022 02:10:51.646,10 Aug 2022 02:13:35.048,163.402
294,10 Aug 2022 03:42:56.912,10 Aug 2022 03:51:00.943,484.032
295,10 Aug 2022 05:21:44.493,10 Aug 2022 05:24:18.718,154.225
296,10 Aug 2022 15:14:03.935,10 Aug 2022 15:21:07.139,423.204
297,10 Aug 2022 16:49:27.114,10 Aug 2022 16:56:35.580,428.467
298,11 Aug 2022 02:07:37.348,11 Aug 2022 02:10:15.830,158.483
299,11 Aug 2022 03:39:39.867,11 Aug 2022 03:47:43.847,483.980
300,11 Aug 2022 05:18:24.223,11 Aug 2022 05:21:04.181,159.957
301,11 Aug 2022 15:10:47.237,11 Aug 2022 15:17:49.355,422.118
302,11 Aug 2022 16:46:09.707,11 Aug 2022 16:53:19.135,429.428
303,12 Aug 2022 02:04:23.138,12 Aug 2022 02:06:56.527,153.389
304,12 Aug 2022 03:36:22.827,12 Aug 2022 03:44:26.749,483.922
305,12 Aug 2022 05:15:04.067,12 Aug 2022 05:17:49.534,165.467
306,12 Aug 2022 15:07:30.544,12 Aug 2022 15:14:31.563,421.020
307,12 Aug 2022 16:42:52.305,12 Aug 2022 16:50:02.684,430.379
308,13 Aug 2022 02:01:09.026,13 Aug 2022 02:03:37.129,148.103
309,13 Aug 2022 03:33:05.792,13 Aug 2022 03:41:09.648,483.856
310,13 Aug 2022 05:11:44.012,13 Aug 2022 05:14:34.789,170.776
311,13 Aug 2022 15:04:13.855,13 Aug 2022 15:11:13.766,419.911
312,13 Aug 2022 16:39:34.906,13 Aug 2022 16:46:46.227,431.320
313,14 Aug 2022 01:57:55.022,14 Aug 2022 02:00:17.625,142.603
314,14 Aug 2022 03:29:48.763,14 Aug 2022 03:37:52.545,483.782
315,14 Aug 2022 05:08:24.051,14 Aug 2022 05:11:19.954,175.903
316,14 Aug 2022 15:00:57.171,14 Aug 2022 15:07:55.960,418.789
317,14 Aug 2022 16:36:17.511,14 Aug 2022 16:43:29.758,432.247
318,15 Aug 2022 01:54:41.140,15 Aug 2022 01:56:57.998,136.858
319,15 Aug 2022 03:26:31.738,15 Aug 2022 03:34:35.440,483.702
320,15 Aug 2022 05:05:04.174,15 Aug 2022 05:08:05.037,180.863
321,15 Aug 2022 14:57:40.492,15 Aug 2022 15:04:38.148,417.656
322,15 Aug 2022 16:33:00.119,15 Aug 2022 16:40:13.290,433.171
323,16 Aug 2022 01:51:27.393,16 Aug 2022 01:53:38.244,130.851
324,16 Aug 2022 03:23:14.719,16 Aug 2022 03:31:18.332,483.614
325,16 Aug 2022 05:01:44.375,16 Aug 2022 05:04:50.044,185.668
326,16 Aug 2022 14:54:23.818,16 Aug 2022 15:01:20.328,416.510
327,16 Aug 2022 16:29:42.731,16 Aug 2022 16:36:56.817,434.085
328,17 Aug 2022 01:48:13.804,17 Aug 2022 01:50:18.334,124.530
329,17 Aug 2022 03:19:57.704,17 Aug 2022 03:28:01.222,483.518
330,17 Aug 2022 04:58:24.649,17 Aug 2022 05:01:34.982,190.333
331,17 Aug 2022 14:51:07.148,17 Aug 2022 14:58:02.498,415.350
332,17 Aug 2022 16:26:25.347,17 Aug 2022 16:33:40.335,434.988
333,18 Aug 2022 01:45:00.395,18 Aug 2022 01:46:58.241,117.846
334,18 Aug 2022 03:16:40.695,18 Aug 2022 03:24:44.107,483.413
335,18 Aug 2022 04:55:04.990,18 Aug 2022 04:58:19.856,194.866
336,18 Aug 2022 14:47:50.483,18 Aug 2022 14:54:44.662,414.179
337,18 Aug 2022 16:23:07.965,18 Aug 2022 16:30:23.847,435.882
338,19 Aug 2022 01:41:47.203,19 Aug 2022 01:43:37.940,110.738
339,19 Aug 2022 03:13:23.690,19 Aug 2022 03:21:26.992,483.302
340,19 Aug 2022 04:51:45.394,19 Aug 2022 04:55:04.671,199.277
341,19 Aug 2022 14:44:33.823,19 Aug 2022 14:51:26.820,412.996
342,19 Aug 2022 16:19:50.587,19 Aug 2022 16:27:07.353,436.766
343,20 Aug 2022 01:38:34.267,20 Aug 2022 01:40:17.386,103.119
344,20 Aug 2022 03:10:06.690,20 Aug 2022 03:18:09.875,483.185
345,20 Aug 2022 04:48:25.856,20 Aug 2022 04:51:49.430,203.574
346,20 Aug 2022 14:41:17.168,20 Aug 2022 14:48:08.969,411.801
347,20 Aug 2022 16:16:33.213,20 Aug 2022 16:23:50.853,437.641
348,21 Aug 2022 01:35:21.651,21 Aug 2022 01:36:56.513,94.862
349,21 Aug 2022 03:06:49.695,21 Aug 2022 03:14:52.755,483.060
350,21 Aug 2022 04:45:06.374,21 Aug 2022 04:48:34.137,207.764
351,21 Aug 2022 14:38:00.518,21 Aug 2022 14:44:51.110,410.592
352,21 Aug 2022 16:13:15.841,21 Aug 2022 16:20:34.347,438.506
353,22 Aug 2022 01:32:09.445,22 Aug 2022 01:33:35.229,85.784
354,22 Aug 2022 03:03:32.705,22 Aug 2022 03:11:35.633,482.927
355,22 Aug 2022 04:41:46.944,22 Aug 2022 04:45:18.794,211.850
356,22 Aug 2022 14:34:43.874,22 Aug 2022 14:41:33.244,409.370
357,22 Aug 2022 16:09:58.473,22 Aug 2022 16:17:17.836,439.363
358,23 Aug 2022 01:28:57.797,23 Aug 2022 01:30:13.392,75.595
359,23 Aug 2022 03:00:15.720,23 Aug 2022 03:08:18.508,482.788
360,23 Aug 2022 04:38:27.563,23 Aug 2022 04:42:03.407,215.844
361,23 Aug 2022 14:31:27.234,23 Aug 2022 14:38:15.369,408.135
362,23 Aug 2022 16:06:41.108,23 Aug 2022 16:14:01.316,440.209
363,24 Aug 2022 01:25:46.975,24 Aug 2022 01:26:50.733,63.758
364,24 Aug 2022 02:56:58.740,24 Aug 2022 03:05:01.381,482.640
365,24 Aug 2022 04:35:08.229,24 Aug 2022 04:38:47.977,219.748
366,24 Aug 2022 14:28:10.600,24 Aug 2022 14:34:57.484,406.884
367,24 Aug 2022 16:03:23.746,24 Aug 2022 16:10:44.792,441.047
368,25 Aug 2022 01:22:37.564,25 Aug 2022 01:23:26.662,49.097
369,25 Aug 2022 02:53:41.765,25 Aug 2022 03:01:44.251,482.486
370,25 Aug 2022 04:31:48.940,25 Aug 2022 04:35:32.503,223.563
371,25 Aug 2022 14:24:53.971,25 Aug 2022 14:31:39.594,405.623
372,25 Aug 2022 16:00:06.387,25 Aug 2022 16:07:28.263,441.876
373,26 Aug 2022 01:19:31.665,26 Aug 2022 01:19:59.082,27.417
374,26 Aug 2022 02:50:24.795,26 Aug 2022 02:58:27.119,482.324
375,26 Aug 2022 04:28:29.693,26 Aug 2022 04:32:16.989,227.297
376,26 Aug 2022 14:21:37.347,26 Aug 2022 14:28:21.695,404.348
377,26 Aug 2022 15:56:49.032,26 Aug 2022 16:04:11.728,442.696
378,27 Aug 2022 02:47:07.830,27 Aug 2022 02:55:09.985,482.155
379,27 Aug 2022 04:25:10.487,27 Aug 2022 04:29:01.439,230.952
380,27 Aug 2022 14:18:20.729,27 Aug 2022 14:25:03.789,403.059
381,27 Aug 2022 15:53:31.680,27 Aug 2022 16:00:55.187,443.507
382,28 Aug 2022 02:43:50.870,28 Aug 2022 02:51:52.848,481.978
383,28 Aug 2022 04:21:51.319,28 Aug 2022 04:25:45.853,234.534
384,28 Aug 2022 14:15:04.117,28 Aug 2022 14:21:45.874,401.757
385,28 Aug 2022 15:50:14.331,28 Aug 2022 15:57:38.643,444.312
386,29 Aug 2022 02:40:33.915,29 Aug 2022 02:48:35.709,481.794
387,29 Aug 2022 04:18:32.188,29 Aug 2022 04:22:30.233,238.046
388,29 Aug 2022 14:11:47.510,29 Aug 2022 14:18:27.953,400.442
389,29 Aug 2022 15:46:56.985,29 Aug 2022 15:54:22.092,445.106
390,30 Aug 2022 02:37:16.966,30 Aug 2022 02:45:18.568,481.602
391,30 Aug 2022 04:15:13.091,30 Aug 2022 04:19:14.582,241.491
392,30 Aug 2022 14:08:30.909,30 Aug 2022 14:15:10.021,399.112
393,30 Aug 2022 15:43:39.643,30 Aug 2022 15:51:05.534,445.891
394,31 Aug 2022 02:34:00.021,31 Aug 2022 02:42:01.424,481.403
395,31 Aug 2022 04:11:54.028,31 Aug 2022 04:15:58.900,244.872
396,31 Aug 2022 14:05:14.314,31 Aug 2022 14:11:52.080,397.767
397,31 Aug 2022 15:40:22.303,31 Aug 2022 15:47:48.971,446.667
398,1 Sep 2022 02:30:43.081,1 Sep 2022 02:38:44.278,481.197
399,1 Sep 2022 04:08:34.998,1 Sep 2022 04:12:43.189,248.191
400,1 Sep 2022 14:01:57.724,1 Sep 2022 14:08:34.132,396.408
401,1 Sep 2022 15:37:04.967,1 Sep 2022 15:44:32.402,447.435
402,2 Sep 2022 02:27:26.146,2 Sep 2022 02:35:27.130,480.984
403,2 Sep 2022 04:05:15.995,2 Sep 2022 04:09:27.445,251.450
404,2 Sep 2022 13:58:41.140,2 Sep 2022 14:05:16.174,395.034
405,2 Sep 2022 15:33:47.634,2 Sep 2022 15:41:15.827,448.193
406,3 Sep 2022 02:24:09.216,3 Sep 2022 02:32:09.979,480.763
407,3 Sep 2022 04:01:57.025,3 Sep 2022 04:06:11.678,254.654
408,3 Sep 2022 13:55:24.561,3 Sep 2022 14:01:58.208,393.646
409,3 Sep 2022 15:30:30.304,3 Sep 2022 15:37:59.249,448.945
410,4 Sep 2022 02:20:52.291,4 Sep 2022 02:28:52.825,480.534
411,4 Sep 2022 03:58:38.083,4 Sep 2022 04:02:55.886,257.802
412,4 Sep 2022 13:52:07.989,4 Sep 2022 13:58:40.231,392.242
413,4 Sep 2022 15:27:12.976,4 Sep 2022 15:34:42.663,449.687
414,5 Sep 2022 02:17:35.371,5 Sep 2022 02:25:35.668,480.298
415,5 Sep 2022 03:55:19.170,5 Sep 2022 03:59:40.068,260.897
416,5 Sep 2022 13:48:51.423,5 Sep 2022 13:55:22.245,390.823
417,5 Sep 2022 15:23:55.652,5 Sep 2022 15:31:26.072,450.420
418,6 Sep 2022 02:14:18.455,6 Sep 2022 02:22:18.509,480.054
419,6 Sep 2022 03:52:00.284,6 Sep 2022 03:56:24.226,263.942
420,6 Sep 2022 13:45:34.862,6 Sep 2022 13:52:04.251,389.389
421,6 Sep 2022 15:20:38.330,6 Sep 2022 15:28:09.475,451.144
422,7 Sep 2022 02:11:01.545,7 Sep 2022 02:19:01.348,479.803
423,7 Sep 2022 03:48:41.424,7 Sep 2022 03:53:08.363,266.938
424,7 Sep 2022 13:42:18.309,7 Sep 2022 13:48:46.248,387.940
425,7 Sep 2022 15:17:21.012,7 Sep 2022 15:24:52.872,451.860
426,8 Sep 2022 02:07:44.640,8 Sep 2022 02:15:44.184,479.544
427,8 Sep 2022 03:45:22.590,8 Sep 2022 03:49:52.474,269.884
428,8 Sep 2022 13:39:01.761,8 Sep 2022 13:45:28.241,386.480
429,8 Sep 2022 15:14:03.696,8 Sep 2022 15:21:36.264,452.568
430,9 Sep 2022 02:04:27.739,9 Sep 2022 02:12:27.018,479.278
431,9 Sep 2022 03:42:03.780,9 Sep 2022 03:46:36.562,272.782
432,9 Sep 2022 13:35:45.221,9 Sep 2022 13:42:10.217,384.996
433,9 Sep 2022 15:10:46.384,9 Sep 2022 15:18:19.651,453.267
434,10 Sep 2022 02:01:10.844,10 Sep 2022 02:09:09.847,479.003
435,10 Sep 2022 03:38:44.999,10 Sep 2022 03:43:20.632,275.633
436,10 Sep 2022 13:32:28.687,10 Sep 2022 13:38:52.187,383.501
437,10 Sep 2022 15:07:29.074,10 Sep 2022 15:15:03.032,453.958
438,11 Sep 2022 01:57:53.954,11 Sep 2022 02:05:52.675,478.720
439,11 Sep 2022 03:35:26.237,11 Sep 2022 03:40:04.682,278.445
440,11 Sep 2022 13:29:12.159,11 Sep 2022 13:35:34.149,381.990
441,11 Sep 2022 15:04:11.768,11 Sep 2022 15:11:46.409,454.641
442,12 Sep 2022 01:54:37.069,12 Sep 2022 02:02:35.500,478.431
443,12 Sep 2022 03:32:07.497,12 Sep 2022 03:36:48.713,281.216
444,12 Sep 2022 13:25:55.638,12 Sep 2022 13:32:16.101,380.462
445,12 Sep 2022 15:00:54.465,12 Sep 2022 15:08:29.779,455.315
446,13 Sep 2022 01:51:20.190,13 Sep 2022 01:59:18.329,478.139
447,13 Sep 2022 03:28:48.778,13 Sep 2022 03:33:32.725,283.946
448,13 Sep 2022 13:22:39.124,13 Sep 2022 13:28:58.043,378.919
449,13 Sep 2022 14:57:37.164,13 Sep 2022 15:05:13.145,455.981
450,14 Sep 2022 01:48:03.315,14 Sep 2022 01:56:01.150,477.835
451,14 Sep 2022 03:25:30.081,14 Sep 2022 03:30:16.718,286.637
452,14 Sep 2022 13:19:22.617,14 Sep 2022 13:25:39.976,377.359
453,14 Sep 2022 14:54:19.867,14 Sep 2022 15:01:56.505,456.638
454,15 Sep 2022 01:44:46.445,15 Sep 2022 01:52:43.967,477.522
455,15 Sep 2022 03:22:11.405,15 Sep 2022 03:27:00.694,289.289
456,15 Sep 2022 13:16:06.119,15 Sep 2022 13:22:21.897,375.778
457,15 Sep 2022 14:51:02.572,15 Sep 2022 14:58:39.859,457.287
458,16 Sep 2022 01:41:29.580,16 Sep 2022 01:49:26.784,477.204
459,16 Sep 2022 03:18:52.749,16 Sep 2022 03:23:44.653,291.904
460,16 Sep 2022 13:12:49.626,16 Sep 2022 13:19:03.810,374.184
461,16 Sep 2022 14:47:45.280,16 Sep 2022 14:55:23.208,457.928
462,17 Sep 2022 01:38:12.720,17 Sep 2022 01:46:09.596,476.876
463,17 Sep 2022 03:15:34.112,17 Sep 2022 03:20:28.595,294.483
464,17 Sep 2022 13:09:33.140,17 Sep 2022 13:15:45.713,372.573
465,17 Sep 2022 14:44:27.990,17 Sep 2022 14:52:06.552,458.561
466,18 Sep 2022 01:34:55.865,18 Sep 2022 01:42:52.409,476.544
467,18 Sep 2022 03:12:15.495,18 Sep 2022 03:17:12.520,297.025
468,18 Sep 2022 13:06:16.661,18 Sep 2022 13:12:27.606,370.945
469,18 Sep 2022 14:41:10.704,18 Sep 2022 14:48:49.890,459.186
470,19 Sep 2022 01:31:39.015,19 Sep 2022 01:39:35.217,476.202
471,19 Sep 2022 03:08:56.895,19 Sep 2022 03:13:56.428,299.533
472,19 Sep 2022 13:03:00.189,19 Sep 2022 13:09:09.488,369.299
473,19 Sep 2022 14:37:53.420,19 Sep 2022 14:45:33.223,459.802
474,20 Sep 2022 01:28:22.170,20 Sep 2022 01:36:18.023,475.853
475,20 Sep 2022 03:05:38.314,20 Sep 2022 03:10:40.319,302.004
476,20 Sep 2022 12:59:43.725,20 Sep 2022 13:05:51.363,367.637
477,20 Sep 2022 14:34:36.139,20 Sep 2022 14:42:16.554,460.415
478,21 Sep 2022 01:25:05.330,21 Sep 2022 01:33:00.827,475.497
479,21 Sep 2022 03:02:19.751,21 Sep 2022 03:07:24.197,304.446
480,21 Sep 2022 12:56:27.269,21 Sep 2022 13:02:33.224,365.954
481,21 Sep 2022 14:31:18.861,21 Sep 2022 14:38:59.877,461.016
482,22 Sep 2022 01:21:48.495,22 Sep 2022 01:29:43.629,475.133
483,22 Sep 2022 02:59:01.208,22 Sep 2022 03:04:08.059,306.850
484,22 Sep 2022 12:53:10.821,22 Sep 2022 12:59:15.074,364.253
485,22 Sep 2022 14:28:01.585,22 Sep 2022 14:35:43.191,461.605
486,23 Sep 2022 01:18:31.666,23 Sep 2022 01:26:26.428,474.762
487,23 Sep 2022 02:55:42.680,23 Sep 2022 03:00:51.909,309.229
488,23 Sep 2022 12:49:54.381,23 Sep 2022 12:55:56.914,362.533
489,23 Sep 2022 14:24:44.313,23 Sep 2022 14:32:26.502,462.189
490,24 Sep 2022 01:15:14.841,24 Sep 2022 01:23:09.225,474.384
491,24 Sep 2022 02:52:24.170,24 Sep 2022 02:57:35.745,311.574
492,24 Sep 2022 12:46:37.949,24 Sep 2022 12:52:38.742,360.793
493,24 Sep 2022 14:21:27.043,24 Sep 2022 14:29:09.807,462.764
494,25 Sep 2022 01:11:58.022,25 Sep 2022 01:19:52.019,473.997
495,25 Sep 2022 02:49:05.675,25 Sep 2022 02:54:19.567,313.893
496,25 Sep 2022 12:43:21.525,25 Sep 2022 12:49:20.559,359.033
497,25 Sep 2022 14:18:09.776,25 Sep 2022 14:25:53.110,463.334
498,26 Sep 2022 01:08:41.207,26 Sep 2022 01:16:34.811,473.603
499,26 Sep 2022 02:45:47.195,26 Sep 2022 02:51:03.377,316.181
500,26 Sep 2022 12:40:05.112,26 Sep 2022 12:46:02.365,357.252
501,26 Sep 2022 14:14:52.512,26 Sep 2022 14:22:36.406,463.894
502,27 Sep 2022 01:05:24.398,27 Sep 2022 01:13:17.600,473.202
503,27 Sep 2022 02:42:28.732,27 Sep 2022 02:47:47.174,318.442
504,27 Sep 2022 12:36:48.705,27 Sep 2022 12:42:44.160,355.455
505,27 Sep 2022 14:11:35.251,27 Sep 2022 14:19:19.696,464.446
506,28 Sep 2022 01:02:07.594,28 Sep 2022 01:10:00.386,472.792
507,28 Sep 2022 02:39:10.289,28 Sep 2022 02:44:30.953,320.664
508,28 Sep 2022 12:33:32.306,28 Sep 2022 12:39:25.943,353.637
509,28 Sep 2022 14:08:17.992,28 Sep 2022 14:16:02.981,464.989
510,29 Sep 2022 00:58:50.795,29 Sep 2022 01:06:43.170,472.375
511,29 Sep 2022 02:35:51.857,29 Sep 2022 02:41:14.724,322.868
512,29 Sep 2022 12:30:15.916,29 Sep 2022 12:36:07.715,351.799
513,29 Sep 2022 14:05:00.736,29 Sep 2022 14:12:46.261,465.525
514,30 Sep 2022 00:55:34.001,30 Sep 2022 01:03:25.952,471.951
515,30 Sep 2022 02:32:33.439,30 Sep 2022 02:37:58.484,325.045
516,30 Sep 2022 12:26:59.535,30 Sep 2022 12:32:49.476,349.941
517,30 Sep 2022 14:01:43.482,30 Sep 2022 14:09:29.535,466.053
518,1 Oct 2022 00:52:17.212,1 Oct 2022 01:00:08.731,471.518
519,1 Oct 2022 02:29:15.036,1 Oct 2022 02:34:42.231,327.195
520,1 Oct 2022 12:23:43.163,1 Oct 2022 12:29:31.224,348.061
521,1 Oct 2022 13:58:26.231,1 Oct 2022 14:06:12.807,466.576
522,2 Oct 2022 00:49:00.428,2 Oct 2022 00:56:51.507,471.078
523,2 Oct 2022 02:25:56.648,2 Oct 2022 02:31:25.967,329.319
524,2 Oct 2022 12:20:26.800,2 Oct 2022 12:26:12.960,346.160
525,2 Oct 2022 13:55:08.983,2 Oct 2022 14:02:56.071,467.088
526,3 Oct 2022 00:45:43.650,3 Oct 2022 00:53:34.280,470.631
527,3 Oct 2022 02:22:38.274,3 Oct 2022 02:28:09.691,331.417
528,3 Oct 2022 12:17:10.447,3 Oct 2022 12:22:54.686,344.239
529,3 Oct 2022 13:51:51.737,3 Oct 2022 13:59:39.330,467.592
530,4 Oct 2022 00:42:26.876,4 Oct 2022 00:50:17.051,470.176
531,4 Oct 2022 02:19:19.914,4 Oct 2022 02:24:53.404,333.490
532,4 Oct 2022 12:13:54.107,4 Oct 2022 12:19:36.395,342.289
533,4 Oct 2022 13:48:34.494,4 Oct 2022 13:56:22.583,468.089
534,5 Oct 2022 00:39:10.107,5 Oct 2022 00:46:59.820,469.713
535,5 Oct 2022 02:16:01.568,5 Oct 2022 02:21:37.106,335.538
536,5 Oct 2022 12:10:37.774,5 Oct 2022 12:16:18.094,340.320
537,5 Oct 2022 13:45:17.254,5 Oct 2022 13:53:05.832,468.578
538,6 Oct 2022 00:35:53.344,6 Oct 2022 00:43:42.586,469.242
539,6 Oct 2022 02:12:43.236,6 Oct 2022 02:18:20.797,337.561
540,6 Oct 2022 12:07:21.451,6 Oct 2022 12:12:59.780,338.329
541,6 Oct 2022 13:42:00.016,6 Oct 2022 13:49:49.075,469.059
542,7 Oct 2022 00:32:36.585,7 Oct 2022 00:40:25.349,468.764
543,7 Oct 2022 02:09:24.917,7 Oct 2022 02:15:04.478,339.561
544,7 Oct 2022 12:04:05.138,7 Oct 2022 12:09:41.452,336.314
545,7 Oct 2022 13:38:42.781,7 Oct 2022 13:46:32.313,469.533
546,8 Oct 2022 00:29:19.833,8 Oct 2022 00:37:08.110,468.278
547,8 Oct 2022 02:06:06.610,8 Oct 2022 02:11:48.152,341.542
548,8 Oct 2022 12:00:48.836,8 Oct 2022 12:06:23.112,334.276
549,8 Oct 2022 13:35:25.548,8 Oct 2022 13:43:15.547,469.999
550,9 Oct 2022 00:26:03.085,9 Oct 2022 00:33:50.869,467.784
551,9 Oct 2022 02:02:48.314,9 Oct 2022 02:08:31.811,343.497
552,9 Oct 2022 11:57:32.545,9 Oct 2022 12:03:04.758,332.213
553,9 Oct 2022 13:32:08.319,9 Oct 2022 13:39:58.775,470.457
554,10 Oct 2022 00:22:46.342,10 Oct 2022 00:30:33.625,467.282
555,10 Oct 2022 01:59:30.034,10 Oct 2022 02:05:15.463,345.429
556,10 Oct 2022 11:54:16.264,10 Oct 2022 11:59:46.390,330.126
557,10 Oct 2022 13:28:51.092,10 Oct 2022 13:36:41.999,470.907
558,11 Oct 2022 00:19:29.605,11 Oct 2022 00:27:16.375,466.770
559,11 Oct 2022 01:56:11.766,11 Oct 2022 02:01:59.106,347.339
560,11 Oct 2022 11:50:59.995,11 Oct 2022 11:56:28.009,328.013
561,11 Oct 2022 13:25:33.867,11 Oct 2022 13:33:25.217,471.350
562,12 Oct 2022 00:16:12.873,12 Oct 2022 00:23:59.126,466.253
563,12 Oct 2022 01:52:53.511,12 Oct 2022 01:58:42.739,349.228
564,12 Oct 2022 11:47:43.738,12 Oct 2022 11:53:09.613,325.875
565,12 Oct 2022 13:22:16.645,12 Oct 2022 13:30:08.430,471.785
566,13 Oct 2022 00:12:56.147,13 Oct 2022 00:20:41.874,465.727
567,13 Oct 2022 01:49:35.267,13 Oct 2022 01:55:26.363,351.096
568,13 Oct 2022 11:44:27.492,13 Oct 2022 11:49:51.202,323.710
569,13 Oct 2022 13:18:59.426,13 Oct 2022 13:26:51.638,472.212
570,14 Oct 2022 00:09:39.425,14 Oct 2022 00:17:24.619,465.194
571,14 Oct 2022 01:46:17.035,14 Oct 2022 01:52:09.978,352.943
572,14 Oct 2022 11:41:11.258,14 Oct 2022 11:46:32.776,321.518
573,14 Oct 2022 13:15:42.209,14 Oct 2022 13:23:34.841,472.632
574,15 Oct 2022 00:06:22.708,15 Oct 2022 00:14:07.361,464.653
575,15 Oct 2022 01:42:58.812,15 Oct 2022 01:48:53.585,354.772
576,15 Oct 2022 11:37:55.036,15 Oct 2022 11:43:14.340,319.304
577,15 Oct 2022 13:12:24.994,15 Oct 2022 13:20:18.038,473.044
578,16 Oct 2022 00:03:05.997,16 Oct 2022 00:10:50.101,464.104
579,16 Oct 2022 01:39:40.603,16 Oct 2022 01:45:37.182,356.579
580,16 Oct 2022 11:34:38.823,16 Oct 2022 11:39:55.883,317.061
581,16 Oct 2022 13:09:07.783,16 Oct 2022 13:17:01.231,473.448
582,16 Oct 2022 23:59:49.291,17 Oct 2022 00:07:32.835,463.545
583,17 Oct 2022 01:36:22.406,17 Oct 2022 01:42:20.771,358.366
584,17 Oct 2022 11:31:22.627,17 Oct 2022 11:36:37.411,314.784
585,17 Oct 2022 13:05:50.573,17 Oct 2022 13:13:44.418,473.845
586,17 Oct 2022 23:56:32.590,18 Oct 2022 00:04:15.570,462.980
587,18 Oct 2022 01:33:04.219,18 Oct 2022 01:39:04.352,360.133
588,18 Oct 2022 11:28:06.444,18 Oct 2022 11:33:18.922,312.478
589,18 Oct 2022 13:02:33.366,18 Oct 2022 13:10:27.601,474.235
590,18 Oct 2022 23:53:15.894,19 Oct 2022 00:00:58.301,462.407
591,19 Oct 2022 01:29:46.044,19 Oct 2022 01:35:47.924,361.880
592,19 Oct 2022 11:24:50.273,19 Oct 2022 11:30:00.417,310.144
593,19 Oct 2022 12:59:16.162,19 Oct 2022 13:07:10.778,474.616
594,19 Oct 2022 23:49:59.204,19 Oct 2022 23:57:41.030,461.826
595,20 Oct 2022 01:26:27.880,20 Oct 2022 01:32:31.486,363.606
596,20 Oct 2022 11:21:34.118,20 Oct 2022 11:26:41.900,307.782
597,20 Oct 2022 12:55:58.960,20 Oct 2022 13:03:53.950,474.990
598,20 Oct 2022 23:46:42.519,20 Oct 2022 23:54:23.756,461.237
599,21 Oct 2022 01:23:09.726,21 Oct 2022 01:29:15.041,365.314
600,21 Oct 2022 11:18:17.976,21 Oct 2022 11:23:23.362,305.386
601,21 Oct 2022 12:52:41.761,21 Oct 2022 13:00:37.117,475.357
602,21 Oct 2022 23:43:25.840,21 Oct 2022 23:51:06.480,460.640
603,22 Oct 2022 01:19:51.584,22 Oct 2022 01:25:58.588,367.004
604,22 Oct 2022 11:15:01.847,22 Oct 2022 11:20:04.807,302.960
605,22 Oct 2022 12:49:24.564,22 Oct 2022 12:57:20.280,475.716
606,22 Oct 2022 23:40:09.165,22 Oct 2022 23:47:49.200,460.034
607,23 Oct 2022 01:16:33.452,23 Oct 2022 01:22:42.127,368.675
608,23 Oct 2022 11:11:45.735,23 Oct 2022 11:16:46.235,300.500
609,23 Oct 2022 12:46:07.370,23 Oct 2022 12:54:03.437,476.067
610,23 Oct 2022 23:36:52.497,23 Oct 2022 23:44:31.916,459.420
611,24 Oct 2022 01:13:15.328,24 Oct 2022 01:19:25.659,370.331
612,24 Oct 2022 11:08:29.638,24 Oct 2022 11:13:27.644,298.006
613,24 Oct 2022 12:42:50.178,24 Oct 2022 12:50:46.589,476.411
614,24 Oct 2022 23:33:35.833,24 Oct 2022 23:41:14.630,458.797
615,25 Oct 2022 01:09:57.217,25 Oct 2022 01:16:09.184,371.967
616,25 Oct 2022 11:05:13.556,25 Oct 2022 11:10:09.034,295.478
617,25 Oct 2022 12:39:32.989,25 Oct 2022 12:47:29.736,476.747
618,25 Oct 2022 23:30:19.175,25 Oct 2022 23:37:57.342,458.167
619,26 Oct 2022 01:06:39.115,26 Oct 2022 01:12:52.701,373.586
620,26 Oct 2022 11:01:57.490,26 Oct 2022 11:06:50.406,292.916
621,26 Oct 2022 12:36:15.803,26 Oct 2022 12:44:12.879,477.076
622,26 Oct 2022 23:27:02.523,26 Oct 2022 23:34:40.051,457.528
623,27 Oct 2022 01:03:21.024,27 Oct 2022 01:09:36.211,375.187
624,27 Oct 2022 10:58:41.440,27 Oct 2022 11:03:31.757,290.317
625,27 Oct 2022 12:32:58.619,27 Oct 2022 12:40:56.017,477.399
626,27 Oct 2022 23:23:45.875,27 Oct 2022 23:31:22.757,456.882
627,28 Oct 2022 01:00:02.943,28 Oct 2022 01:06:19.714,376.771
628,28 Oct 2022 10:55:25.407,28 Oct 2022 11:00:13.089,287.682
629,28 Oct 2022 12:29:41.437,28 Oct 2022 12:37:39.149,477.712
630,28 Oct 2022 23:20:29.233,28 Oct 2022 23:28:05.460,456.226
631,29 Oct 2022 00:56:44.871,29 Oct 2022 01:03:03.209,378.338
632,29 Oct 2022 10:52:09.392,29 Oct 2022 10:56:54.400,285.008
633,29 Oct 2022 12:26:24.258,29 Oct 2022 12:34:22.275,478.017
634,29 Oct 2022 23:17:12.596,29 Oct 2022 23:24:48.160,455.564
635,30 Oct 2022 00:53:26.809,30 Oct 2022 00:59:46.700,379.891
636,30 Oct 2022 10:48:53.395,30 Oct 2022 10:53:35.690,282.295
637,30 Oct 2022 12:23:07.081,30 Oct 2022 12:31:05.399,478.318
638,30 Oct 2022 23:13:55.965,30 Oct 2022 23:21:30.857,454.892
639,31 Oct 2022 00:50:08.756,31 Oct 2022 00:56:30.182,381.426
640,31 Oct 2022 10:45:37.417,31 Oct 2022 10:50:16.958,279.542
641,31 Oct 2022 12:19:49.906,31 Oct 2022 12:27:48.517,478.611
642,31 Oct 2022 23:10:39.339,31 Oct 2022 23:18:13.552,454.213
643,1 Nov 2022 00:46:50.714,1 Nov 2022 00:53:13.657,382.943
644,1 Nov 2022 10:42:21.458,1 Nov 2022 10:46:58.205,276.747
645,1 Nov 2022 12:16:32.734,1 Nov 2022 12:24:31.624,478.890
646,1 Nov 2022 23:07:22.719,1 Nov 2022 23:14:56.244,453.525
647,2 Nov 2022 00:43:32.680,2 Nov 2022 00:49:57.125,384.444
648,2 Nov 2022 10:39:05.519,2 Nov 2022 10:43:39.429,273.910
649,2 Nov 2022 12:13:15.564,2 Nov 2022 12:21:14.731,479.167
650,2 Nov 2022 23:04:06.104,2 Nov 2022 23:11:38.933,452.829
651,3 Nov 2022 00:40:14.656,3 Nov 2022 00:46:40.586,385.929
652,3 Nov 2022 10:35:49.601,3 Nov 2022 10:40:20.631,271.031
653,3 Nov 2022 12:09:58.397,3 Nov 2022 12:17:57.835,479.438
654,3 Nov 2022 23:00:49.494,3 Nov 2022 23:08:21.619,452.124
655,4 Nov 2022 00:36:56.642,4 Nov 2022 00:43:24.042,387.400
656,4 Nov 2022 10:32:33.704,4 Nov 2022 10:37:01.805,268.101
657,4 Nov 2022 12:06:41.233,4 Nov 2022 12:14:40.934,479.702
658,4 Nov 2022 22:57:32.890,4 Nov 2022 23:05:04.302,451.411
659,5 Nov 2022 00:33:38.637,5 Nov 2022 00:40:07.492,388.855
660,5 Nov 2022 10:29:17.830,5 Nov 2022 10:33:42.956,265.126
661,5 Nov 2022 12:03:24.071,5 Nov 2022 12:11:24.026,479.956
662,5 Nov 2022 22:54:16.292,5 Nov 2022 23:01:46.982,450.690
663,6 Nov 2022 00:30:20.641,6 Nov 2022 00:36:50.936,390.295
664,6 Nov 2022 10:26:01.978,6 Nov 2022 10:30:24.081,262.103
665,6 Nov 2022 12:00:06.911,6 Nov 2022 12:08:07.113,480.202
666,6 Nov 2022 22:50:59.700,6 Nov 2022 22:58:29.657,449.957
667,7 Nov 2022 00:27:02.654,7 Nov 2022 00:33:34.375,391.721
668,7 Nov 2022 10:22:46.150,7 Nov 2022 10:27:05.180,259.030
669,7 Nov 2022 11:56:49.754,7 Nov 2022 12:04:50.196,480.441
670,7 Nov 2022 22:47:43.113,7 Nov 2022 22:55:12.331,449.219
671,8 Nov 2022 00:23:44.675,8 Nov 2022 00:30:17.806,393.131
672,8 Nov 2022 10:19:30.342,8 Nov 2022 10:23:46.251,255.909
673,8 Nov 2022 11:53:32.599,8 Nov 2022 12:01:33.273,480.673
674,8 Nov 2022 22:44:26.531,8 Nov 2022 22:51:55.003,448.471
675,9 Nov 2022 00:20:26.706,9 Nov 2022 00:27:01.231,394.525
676,9 Nov 2022 10:16:14.564,9 Nov 2022 10:20:27.294,252.730
677,9 Nov 2022 11:50:15.447,9 Nov 2022 11:58:16.345,480.897
678,9 Nov 2022 22:41:09.955,9 Nov 2022 22:48:37.671,447.715
679,10 Nov 2022 00:17:08.745,10 Nov 2022 00:23:44.650,395.905
680,10 Nov 2022 10:12:58.815,10 Nov 2022 10:17:08.312,249.497
681,10 Nov 2022 11:46:58.297,10 Nov 2022 11:54:59.412,481.114
682,10 Nov 2022 22:37:53.385,10 Nov 2022 22:45:20.336,446.951
683,11 Nov 2022 00:13:50.793,11 Nov 2022 00:20:28.063,397.270
684,11 Nov 2022 10:09:43.091,11 Nov 2022 10:13:49.295,246.203
685,11 Nov 2022 11:43:41.150,11 Nov 2022 11:51:42.474,481.324
686,11 Nov 2022 22:34:36.820,11 Nov 2022 22:42:02.997,446.177
687,12 Nov 2022 00:10:32.849,12 Nov 2022 00:17:11.468,398.619
688,12 Nov 2022 10:06:27.396,12 Nov 2022 10:10:30.245,242.849
689,12 Nov 2022 11:40:24.005,12 Nov 2022 11:48:25.531,481.526
690,12 Nov 2022 22:31:20.261,12 Nov 2022 22:38:45.656,445.395
691,13 Nov 2022 00:07:14.913,13 Nov 2022 00:13:54.869,399.956
692,13 Nov 2022 10:03:11.731,13 Nov 2022 10:07:11.162,239.432
693,13 Nov 2022 11:37:06.862,13 Nov 2022 11:45:08.583,481.720
694,13 Nov 2022 22:28:03.707,13 Nov 2022 22:35:28.309,444.602
695,14 Nov 2022 00:03:56.986,14 Nov 2022 00:10:38.264,401.278
696,14 Nov 2022 09:59:56.097,14 Nov 2022 10:03:52.045,235.948
697,14 Nov 2022 11:33:49.722,14 Nov 2022 11:41:51.629,481.908
698,14 Nov 2022 22:24:47.159,14 Nov 2022 22:32:10.961,443.802
699,15 Nov 2022 00:00:39.068,15 Nov 2022 00:07:21.653,402.585
700,15 Nov 2022 09:56:40.497,15 Nov 2022 10:00:32.892,232.395
701,15 Nov 2022 11:30:32.584,15 Nov 2022 11:38:34.669,482.085
702,15 Nov 2022 22:21:30.617,15 Nov 2022 22:28:53.611,442.994
703,15 Nov 2022 23:57:21.158,16 Nov 2022 00:04:05.037,403.879
704,16 Nov 2022 09:53:24.931,16 Nov 2022 09:57:13.700,228.769
705,16 Nov 2022 11:27:15.448,16 Nov 2022 11:35:17.705,482.257
706,16 Nov 2022 13:05:52.537,16 Nov 2022 13:06:01.550,9.013
707,16 Nov 2022 22:18:14.081,16 Nov 2022 22:25:36.257,442.177
708,16 Nov 2022 23:54:03.256,17 Nov 2022 00:00:48.416,405.160
709,17 Nov 2022 09:50:09.402,17 Nov 2022 09:53:54.470,225.068
710,17 Nov 2022 11:23:58.315,17 Nov 2022 11:32:00.737,482.422
711,17 Nov 2022 13:02:19.437,17 Nov 2022 13:03:01.173,41.736
712,17 Nov 2022 22:14:57.550,17 Nov 2022 22:22:18.900,441.350
713,17 Nov 2022 23:50:45.362,17 Nov 2022 23:57:31.788,406.426
714,18 Nov 2022 09:46:53.911,18 Nov 2022 09:50:35.196,221.285
715,18 Nov 2022 11:20:41.185,18 Nov 2022 11:28:43.764,482.579
716,18 Nov 2022 12:58:54.420,18 Nov 2022 12:59:52.715,58.295
717,18 Nov 2022 22:11:41.025,18 Nov 2022 22:19:01.540,440.515
718,18 Nov 2022 23:47:27.477,18 Nov 2022 23:54:15.156,407.680
719,19 Nov 2022 09:43:38.460,19 Nov 2022 09:47:15.879,217.418
720,19 Nov 2022 11:17:24.057,19 Nov 2022 11:25:26.786,482.729
721,19 Nov 2022 12:55:31.298,19 Nov 2022 12:56:42.355,71.057
722,19 Nov 2022 22:08:24.506,19 Nov 2022 22:15:44.177,439.671
723,19 Nov 2022 23:44:09.599,19 Nov 2022 23:50:58.519,408.920
724,20 Nov 2022 09:40:23.053,20 Nov 2022 09:43:56.521,213.468
725,20 Nov 2022 11:14:06.931,20 Nov 2022 11:22:09.803,482.872
726,20 Nov 2022 12:52:09.174,20 Nov 2022 12:53:30.995,81.822
727,20 Nov 2022 22:05:07.993,20 Nov 2022 22:12:26.811,438.818
728,20 Nov 2022 23:40:51.729,20 Nov 2022 23:47:41.879,410.149
729,21 Nov 2022 09:37:07.691,21 Nov 2022 09:40:37.109,209.419
730,21 Nov 2022 11:10:49.808,21 Nov 2022 11:18:52.815,483.007
731,21 Nov 2022 12:48:47.694,21 Nov 2022 12:50:18.994,91.300
732,21 Nov 2022 22:01:51.486,21 Nov 2022 22:09:09.441,437.955
733,21 Nov 2022 23:37:33.868,21 Nov 2022 23:44:25.231,411.364
734,22 Nov 2022 09:33:52.376,22 Nov 2022 09:37:17.650,205.274
735,22 Nov 2022 11:07:32.687,22 Nov 2022 11:15:35.822,483.135
736,22 Nov 2022 12:45:26.672,22 Nov 2022 12:47:06.529,99.857
737,22 Nov 2022 21:58:34.984,22 Nov 2022 22:05:52.069,437.084
738,22 Nov 2022 23:34:16.014,22 Nov 2022 23:41:08.579,412.565
739,23 Nov 2022 09:30:37.113,23 Nov 2022 09:33:58.138,201.025
740,23 Nov 2022 11:04:15.569,23 Nov 2022 11:12:18.827,483.258
741,23 Nov 2022 12:42:05.999,23 Nov 2022 12:43:53.709,107.711
742,23 Nov 2022 21:55:18.489,23 Nov 2022 22:02:34.692,436.203
743,23 Nov 2022 23:30:58.167,23 Nov 2022 23:37:51.921,413.754
744,24 Nov 2022 09:27:21.903,24 Nov 2022 09:30:38.568,196.665
745,24 Nov 2022 11:00:58.453,24 Nov 2022 11:09:01.825,483.371
746,24 Nov 2022 12:38:45.603,24 Nov 2022 12:40:40.612,115.009
747,24 Nov 2022 21:52:01.999,24 Nov 2022 21:59:17.311,435.312
748,24 Nov 2022 23:27:40.329,24 Nov 2022 23:34:35.258,414.930
749,25 Nov 2022 09:24:06.751,25 Nov 2022 09:27:18.937,192.186
750,25 Nov 2022 10:57:41.340,25 Nov 2022 11:05:44.817,483.477
751,25 Nov 2022 12:35:25.434,25 Nov 2022 12:37:27.280,121.846
752,25 Nov 2022 21:48:45.515,25 Nov 2022 21:55:59.927,434.412
753,25 Nov 2022 23:24:22.498,25 Nov 2022 23:31:18.591,416.093
754,26 Nov 2022 09:20:51.662,26 Nov 2022 09:23:59.241,187.579
755,26 Nov 2022 10:54:24.228,26 Nov 2022 11:02:27.804,483.576
756,26 Nov 2022 12:32:05.455,26 Nov 2022 12:34:13.763,128.309
757,26 Nov 2022 21:45:29.037,26 Nov 2022 21:52:42.540,433.502
758,26 Nov 2022 23:21:04.674,26 Nov 2022 23:28:01.918,417.244
759,27 Nov 2022 09:17:36.640,27 Nov 2022 09:20:39.475,182.835
760,27 Nov 2022 10:51:07.119,27 Nov 2022 10:59:10.786,483.667
761,27 Nov 2022 12:28:45.640,27 Nov 2022 12:31:00.076,134.436
762,27 Nov 2022 21:42:12.565,27 Nov 2022 21:49:25.148,432.583
763,27 Nov 2022 23:17:46.858,27 Nov 2022 23:24:45.243,418.385
764,28 Nov 2022 09:14:21.691,28 Nov 2022 09:17:19.632,177.941
765,28 Nov 2022 10:47:50.012,28 Nov 2022 10:55:53.763,483.750
766,28 Nov 2022 12:25:25.964,28 Nov 2022 12:27:46.243,140.279
767,28 Nov 2022 21:38:56.099,28 Nov 2022 21:46:07.751,431.653
768,28 Nov 2022 23:14:29.049,28 Nov 2022 23:21:28.560,419.511
769,29 Nov 2022 09:11:06.822,29 Nov 2022 09:13:59.706,172.884
770,29 Nov 2022 10:44:32.908,29 Nov 2022 10:52:36.735,483.827
771,29 Nov 2022 12:22:06.415,29 Nov 2022 12:24:32.290,145.875
772,29 Nov 2022 21:35:39.639,29 Nov 2022 21:42:50.353,430.714
773,29 Nov 2022 23:11:11.248,29 Nov 2022 23:18:11.873,420.625
774,30 Nov 2022 09:07:52.039,30 Nov 2022 09:10:39.690,167.652
775,30 Nov 2022 10:41:15.807,30 Nov 2022 10:49:19.702,483.896
776,30 Nov 2022 12:18:46.974,30 Nov 2022 12:21:18.220,151.246
777,30 Nov 2022 21:32:23.185,30 Nov 2022 21:39:32.956,429.771
778,30 Nov 2022 23:07:53.455,30 Nov 2022 23:14:55.182,421.727
779,1 Dec 2022 09:04:37.351,1 Dec 2022 09:07:19.577,162.226
780,1 Dec 2022 10:37:58.707,1 Dec 2022 10:46:02.665,483.957
781,1 Dec 2022 12:15:27.632,1 Dec 2022 12:18:04.048,156.416
782,1 Dec 2022 21:29:06.737,1 Dec 2022 21:36:15.551,428.814
783,1 Dec 2022 23:04:35.669,1 Dec 2022 23:11:38.484,422.815
784,2 Dec 2022 09:01:22.769,2 Dec 2022 09:03:59.356,156.588
785,2 Dec 2022 10:34:41.611,2 Dec 2022 10:42:45.623,484.012
786,2 Dec 2022 12:12:08.380,2 Dec 2022 12:14:49.785,161.405
787,2 Dec 2022 21:25:50.295,2 Dec 2022 21:32:58.142,427.847
788,2 Dec 2022 23:01:17.891,2 Dec 2022 23:08:21.784,423.894
789,3 Dec 2022 08:58:08.303,3 Dec 2022 09:00:39.016,150.713
790,3 Dec 2022 10:31:24.517,3 Dec 2022 10:39:28.575,484.058
791,3 Dec 2022 12:08:49.210,3 Dec 2022 12:11:35.438,166.228
792,3 Dec 2022 21:22:33.860,3 Dec 2022 21:29:40.730,426.869
793,3 Dec 2022 22:58:00.119,3 Dec 2022 23:05:05.080,424.961
794,4 Dec 2022 08:54:53.968,4 Dec 2022 08:57:18.542,144.573
795,4 Dec 2022 10:28:07.425,4 Dec 2022 10:36:11.523,484.098
796,4 Dec 2022 12:05:30.114,4 Dec 2022 12:08:21.013,170.899
797,4 Dec 2022 21:19:17.431,4 Dec 2022 21:26:23.313,425.882
798,4 Dec 2022 22:54:42.355,4 Dec 2022 23:01:48.370,426.015
799,5 Dec 2022 08:51:39.783,5 Dec 2022 08:53:57.915,138.133
800,5 Dec 2022 10:24:50.336,5 Dec 2022 10:32:54.466,484.130
801,5 Dec 2022 12:02:11.087,5 Dec 2022 12:05:06.518,175.431
802,5 Dec 2022 21:16:01.008,5 Dec 2022 21:23:05.895,424.887
803,5 Dec 2022 22:51:24.598,5 Dec 2022 22:58:31.658,427.060
804,6 Dec 2022 08:48:25.766,6 Dec 2022 08:50:37.113,131.347
805,6 Dec 2022 10:21:33.249,6 Dec 2022 10:29:37.404,484.155
806,6 Dec 2022 11:58:52.123,6 Dec 2022 12:01:51.957,179.834
807,6 Dec 2022 21:12:44.591,6 Dec 2022 21:19:48.472,423.880
808,6 Dec 2022 22:48:06.848,6 Dec 2022 22:55:14.941,428.093
809,7 Dec 2022 08:45:11.950,7 Dec 2022 08:47:16.113,124.163
810,7 Dec 2022 10:18:16.164,7 Dec 2022 10:26:20.336,484.172
811,7 Dec 2022 11:55:33.217,7 Dec 2022 11:58:37.334,184.117
812,7 Dec 2022 21:09:28.181,7 Dec 2022 21:16:31.047,422.866
813,7 Dec 2022 22:44:49.105,7 Dec 2022 22:51:58.219,429.114
814,8 Dec 2022 08:41:58.368,8 Dec 2022 08:43:54.867,116.499
815,8 Dec 2022 10:14:59.082,8 Dec 2022 10:23:03.264,484.182
816,8 Dec 2022 11:52:14.366,8 Dec 2022 11:55:22.653,188.287
817,8 Dec 2022 21:06:11.777,8 Dec 2022 21:13:13.616,421.839
818,8 Dec 2022 22:41:31.369,8 Dec 2022 22:48:41.493,430.123
819,9 Dec 2022 08:38:45.075,9 Dec 2022 08:40:33.339,108.264
820,9 Dec 2022 10:11:42.002,9 Dec 2022 10:19:46.187,484.184
821,9 Dec 2022 11:48:55.565,9 Dec 2022 11:52:07.919,192.354
822,9 Dec 2022 21:02:55.379,9 Dec 2022 21:09:56.182,420.803
823,9 Dec 2022 22:38:13.640,9 Dec 2022 22:45:24.757,431.117
824,10 Dec 2022 08:35:32.140,10 Dec 2022 08:37:11.446,99.306
825,10 Dec 2022 10:08:24.925,10 Dec 2022 10:16:29.104,484.179
826,10 Dec 2022 11:45:36.812,10 Dec 2022 11:48:53.136,196.324
827,10 Dec 2022 20:59:38.987,10 Dec 2022 21:06:38.744,419.757
828,10 Dec 2022 22:34:55.918,10 Dec 2022 22:42:08.022,432.104
829,11 Dec 2022 08:32:19.672,11 Dec 2022 08:33:49.083,89.411
830,11 Dec 2022 10:05:07.850,11 Dec 2022 10:13:12.017,484.167
831,11 Dec 2022 11:42:18.103,11 Dec 2022 11:45:38.306,200.203
832,11 Dec 2022 20:56:22.601,11 Dec 2022 21:03:21.303,418.701
833,11 Dec 2022 22:31:38.203,11 Dec 2022 22:38:51.284,433.082
834,12 Dec 2022 08:29:07.848,12 Dec 2022 08:30:26.072,78.224
835,12 Dec 2022 10:01:50.777,12 Dec 2022 10:09:54.924,484.147
836,12 Dec 2022 11:38:59.436,12 Dec 2022 11:42:23.431,203.995
837,12 Dec 2022 20:53:06.222,12 Dec 2022 21:00:03.857,417.635
838,12 Dec 2022 22:28:20.494,12 Dec 2022 22:35:34.542,434.048
839,13 Dec 2022 08:25:56.998,13 Dec 2022 08:27:02.081,65.083
840,13 Dec 2022 09:58:33.707,13 Dec 2022 10:06:37.827,484.120
841,13 Dec 2022 11:35:40.808,13 Dec 2022 11:39:08.514,207.706
842,13 Dec 2022 20:49:49.850,13 Dec 2022 20:56:46.406,416.556
843,13 Dec 2022 22:25:02.793,13 Dec 2022 22:32:17.793,435.001
844,14 Dec 2022 08:22:47.909,14 Dec 2022 08:23:36.327,48.419
845,14 Dec 2022 09:55:16.640,14 Dec 2022 10:03:20.725,484.085
846,14 Dec 2022 11:32:22.218,14 Dec 2022 11:35:53.558,211.339
847,14 Dec 2022 20:46:33.484,14 Dec 2022 20:53:28.953,415.469
848,14 Dec 2022 22:21:45.098,14 Dec 2022 22:29:01.041,435.943
849,15 Dec 2022 08:19:44.139,15 Dec 2022 08:20:05.256,21.117
850,15 Dec 2022 09:51:59.574,15 Dec 2022 10:00:03.617,484.043
851,15 Dec 2022 11:29:03.664,15 Dec 2022 11:32:38.563,214.899
852,15 Dec 2022 20:43:17.124,15 Dec 2022 20:50:11.496,414.372
853,15 Dec 2022 22:18:27.410,15 Dec 2022 22:25:44.285,436.875
854,16 Dec 2022 09:48:42.512,16 Dec 2022 09:56:46.505,483.993
855,16 Dec 2022 11:25:45.144,16 Dec 2022 11:29:23.537,218.393
856,16 Dec 2022 20:40:00.771,16 Dec 2022 20:46:54.035,413.264
857,16 Dec 2022 22:15:09.729,16 Dec 2022 22:22:27.525,437.796
858,17 Dec 2022 09:45:25.452,17 Dec 2022 09:53:29.388,483.936
859,17 Dec 2022 11:22:26.656,17 Dec 2022 11:26:08.467,221.811
860,17 Dec 2022 20:36:44.425,17 Dec 2022 20:43:36.571,412.145
861,17 Dec 2022 22:11:52.054,17 Dec 2022 22:19:10.759,438.705
862,18 Dec 2022 09:42:08.394,18 Dec 2022 09:50:12.266,483.872
863,18 Dec 2022 11:19:08.199,18 Dec 2022 11:22:53.370,225.171
864,18 Dec 2022 20:33:28.086,18 Dec 2022 20:40:19.102,411.016
865,18 Dec 2022 22:08:34.387,18 Dec 2022 22:15:53.991,439.604
866,19 Dec 2022 09:38:51.339,19 Dec 2022 09:46:55.139,483.800
867,19 Dec 2022 11:15:49.772,19 Dec 2022 11:19:38.241,228.470
868,19 Dec 2022 20:30:11.753,19 Dec 2022 20:37:01.629,409.875
869,19 Dec 2022 22:05:16.726,19 Dec 2022 22:12:37.219,440.493
870,20 Dec 2022 09:35:34.286,20 Dec 2022 09:43:38.006,483.720
871,20 Dec 2022 11:12:31.372,20 Dec 2022 11:16:23.080,231.708
872,20 Dec 2022 20:26:55.427,20 Dec 2022 20:33:44.151,408.724
873,20 Dec 2022 22:01:59.071,20 Dec 2022 22:09:20.443,441.372
874,21 Dec 2022 09:32:17.236,21 Dec 2022 09:40:20.869,483.633
875,21 Dec 2022 11:09:12.997,21 Dec 2022 11:13:07.888,234.890
876,21 Dec 2022 20:23:39.108,21 Dec 2022 20:30:26.667,407.559
877,21 Dec 2022 21:58:41.423,21 Dec 2022 22:06:03.663,442.240
878,22 Dec 2022 09:29:00.188,22 Dec 2022 09:37:03.727,483.539
879,22 Dec 2022 11:05:54.650,22 Dec 2022 11:09:52.668,238.018
880,22 Dec 2022 20:20:22.796,22 Dec 2022 20:27:09.182,406.386
881,22 Dec 2022 21:55:23.781,22 Dec 2022 22:02:46.879,443.098
882,23 Dec 2022 09:25:43.143,23 Dec 2022 09:33:46.577,483.434
883,23 Dec 2022 11:02:36.327,23 Dec 2022 11:06:37.421,241.095
884,23 Dec 2022 20:17:06.490,23 Dec 2022 20:23:51.691,405.201
885,23 Dec 2022 21:52:06.145,23 Dec 2022 21:59:30.091,443.946
886,24 Dec 2022 09:22:26.099,24 Dec 2022 09:30:29.424,483.325
887,24 Dec 2022 10:59:18.031,24 Dec 2022 11:03:22.145,244.114
888,24 Dec 2022 20:13:50.191,24 Dec 2022 20:20:34.197,404.006
889,24 Dec 2022 21:48:48.516,24 Dec 2022 21:56:13.300,444.783
890,25 Dec 2022 09:19:09.059,25 Dec 2022 09:27:12.267,483.208
891,25 Dec 2022 10:55:59.753,25 Dec 2022 11:00:06.846,247.093
892,25 Dec 2022 20:10:33.899,25 Dec 2022 20:17:16.698,402.799
893,25 Dec 2022 21:45:30.894,25 Dec 2022 21:52:56.504,445.610
894,26 Dec 2022 09:15:52.020,26 Dec 2022 09:23:55.104,483.083
895,26 Dec 2022 10:52:41.498,26 Dec 2022 10:56:51.524,250.026
896,26 Dec 2022 20:07:17.614,26 Dec 2022 20:13:59.194,401.580
897,26 Dec 2022 21:42:13.277,26 Dec 2022 21:49:39.707,446.430
898,27 Dec 2022 09:12:34.985,27 Dec 2022 09:20:37.936,482.951
899,27 Dec 2022 10:49:23.263,27 Dec 2022 10:53:36.178,252.914
900,27 Dec 2022 20:04:01.336,27 Dec 2022 20:10:41.686,400.351
901,27 Dec 2022 21:38:55.667,27 Dec 2022 21:46:22.905,447.237
902,28 Dec 2022 09:09:17.952,28 Dec 2022 09:17:20.763,482.812
903,28 Dec 2022 10:46:05.049,28 Dec 2022 10:50:20.809,255.760
904,28 Dec 2022 20:00:45.065,28 Dec 2022 20:07:24.174,399.109
905,28 Dec 2022 21:35:38.064,28 Dec 2022 21:43:06.098,448.034
906,29 Dec 2022 09:06:00.921,29 Dec 2022 09:14:03.586,482.664
907,29 Dec 2022 10:42:46.855,29 Dec 2022 10:47:05.418,258.563
908,29 Dec 2022 19:57:28.801,29 Dec 2022 20:04:06.658,397.856
909,29 Dec 2022 21:32:20.467,29 Dec 2022 21:39:49.289,448.822
910,30 Dec 2022 09:02:43.893,30 Dec 2022 09:10:46.406,482.512
911,30 Dec 2022 10:39:28.679,30 Dec 2022 10:43:50.005,261.326
912,30 Dec 2022 19:54:12.545,30 Dec 2022 20:00:49.137,396.593
913,30 Dec 2022 21:29:02.876,30 Dec 2022 21:36:32.476,449.599
914,31 Dec 2022 08:59:26.868,31 Dec 2022 09:07:29.217,482.349
915,31 Dec 2022 10:36:10.523,31 Dec 2022 10:40:34.572,264.049
916,31 Dec 2022 19:50:56.296,31 Dec 2022 19:57:31.611,395.316
917,31 Dec 2022 21:25:45.292,31 Dec 2022 21:33:15.659,450.367
918,1 Jan 2023 08:56:09.845,1 Jan 2023 09:04:12.024,482.179
919,1 Jan 2023 10:32:52.384,1 Jan 2023 10:37:19.118,266.735
920,1 Jan 2023 19:47:40.054,1 Jan 2023 19:54:14.080,394.026
921,1 Jan 2023 21:22:27.714,1 Jan 2023 21:29:58.839,451.125
922,2 Jan 2023 08:52:52.825,2 Jan 2023 09:00:54.826,482.001
923,2 Jan 2023 10:29:34.262,2 Jan 2023 10:34:03.644,269.382
924,2 Jan 2023 19:44:23.819,2 Jan 2023 19:50:56.544,392.725
925,2 Jan 2023 21:19:10.142,2 Jan 2023 21:26:42.018,451.876
926,3 Jan 2023 08:49:35.807,3 Jan 2023 08:57:37.623,481.815
927,3 Jan 2023 10:26:16.157,3 Jan 2023 10:30:48.152,271.995
928,3 Jan 2023 19:41:07.592,3 Jan 2023 19:47:39.004,391.411
929,3 Jan 2023 21:15:52.575,3 Jan 2023 21:23:25.190,452.615
930,4 Jan 2023 08:46:18.792,4 Jan 2023 08:54:20.414,481.622
931,4 Jan 2023 10:22:58.068,4 Jan 2023 10:27:32.643,274.575
932,4 Jan 2023 19:37:51.373,4 Jan 2023 19:44:21.456,390.084
933,4 Jan 2023 21:12:35.015,4 Jan 2023 21:20:08.360,453.344
934,5 Jan 2023 08:43:01.779,5 Jan 2023 08:51:03.200,481.421
935,5 Jan 2023 10:19:39.995,5 Jan 2023 10:24:17.108,277.113
936,5 Jan 2023 19:34:35.160,5 Jan 2023 19:41:03.904,388.744
937,5 Jan 2023 21:09:17.461,5 Jan 2023 21:16:51.526,454.064
938,6 Jan 2023 08:39:44.769,6 Jan 2023 08:47:45.981,481.213
939,6 Jan 2023 10:16:21.937,6 Jan 2023 10:21:01.560,279.623
940,6 Jan 2023 19:31:18.956,6 Jan 2023 19:37:46.347,387.392
941,6 Jan 2023 21:05:59.913,6 Jan 2023 21:13:34.688,454.775
942,7 Jan 2023 08:36:27.761,7 Jan 2023 08:44:28.757,480.996
943,7 Jan 2023 10:13:03.893,7 Jan 2023 10:17:45.995,282.101
944,7 Jan 2023 19:28:02.758,7 Jan 2023 19:34:28.786,386.028
945,7 Jan 2023 21:02:42.371,7 Jan 2023 21:10:17.847,455.475
946,8 Jan 2023 08:33:10.756,8 Jan 2023 08:41:11.528,480.772
947,8 Jan 2023 10:09:45.864,8 Jan 2023 10:14:30.412,284.548
948,8 Jan 2023 19:24:46.569,8 Jan 2023 19:31:11.225,384.656
949,8 Jan 2023 20:59:24.835,8 Jan 2023 21:07:01.002,456.167
950,9 Jan 2023 08:29:53.753,9 Jan 2023 08:37:54.293,480.540
951,9 Jan 2023 10:06:27.849,9 Jan 2023 10:11:14.813,286.965
952,9 Jan 2023 19:21:30.387,9 Jan 2023 19:27:53.653,383.266
953,9 Jan 2023 20:56:07.305,9 Jan 2023 21:03:44.154,456.849
954,10 Jan 2023 08:26:36.753,10 Jan 2023 08:34:37.053,480.300
955,10 Jan 2023 10:03:09.847,10 Jan 2023 10:07:59.199,289.351
956,10 Jan 2023 19:18:14.213,10 Jan 2023 19:24:36.077,381.864
957,10 Jan 2023 20:52:49.782,10 Jan 2023 21:00:27.303,457.522
958,11 Jan 2023 08:23:19.756,11 Jan 2023 08:31:19.806,480.050
959,11 Jan 2023 09:59:51.859,11 Jan 2023 10:04:43.568,291.709
960,11 Jan 2023 19:14:58.047,11 Jan 2023 19:21:18.495,380.448
961,11 Jan 2023 20:49:32.264,11 Jan 2023 20:57:10.449,458.185
962,12 Jan 2023 08:20:02.761,12 Jan 2023 08:28:02.555,479.794
963,12 Jan 2023 09:56:33.882,12 Jan 2023 10:01:27.922,294.039
964,12 Jan 2023 19:11:41.889,12 Jan 2023 19:18:00.907,379.018
965,12 Jan 2023 20:46:14.752,12 Jan 2023 20:53:53.592,458.840
966,13 Jan 2023 08:16:45.769,13 Jan 2023 08:24:45.304,479.535
967,13 Jan 2023 09:53:15.919,13 Jan 2023 09:58:12.261,296.342
968,13 Jan 2023 19:08:25.739,13 Jan 2023 19:14:43.312,377.573
969,13 Jan 2023 20:42:57.246,13 Jan 2023 20:50:36.731,459.486
970,14 Jan 2023 08:13:28.780,14 Jan 2023 08:21:28.043,479.264
971,14 Jan 2023 09:49:57.968,14 Jan 2023 09:54:56.585,298.617
972,14 Jan 2023 19:05:09.597,14 Jan 2023 19:11:25.715,376.118
973,14 Jan 2023 20:39:39.746,14 Jan 2023 20:47:19.869,460.123
974,15 Jan 2023 08:10:11.793,15 Jan 2023 08:18:10.776,478.984
975,15 Jan 2023 09:46:40.031,15 Jan 2023 09:51:40.894,300.863
976,15 Jan 2023 19:01:53.463,15 Jan 2023 19:08:08.112,374.649
977,15 Jan 2023 20:36:22.252,15 Jan 2023 20:44:03.003,460.751
978,16 Jan 2023 08:06:54.809,16 Jan 2023 08:14:53.504,478.695
