data/Partner_Institute/Skyhopper_Partner-Pingley_Access_1year.csv

"Access","Start Time (UTCG)","Stop Time (UTCG)","Duration (sec)"
1,1 Jun 2022 11:27:12.121,1 Jun 2022 11:35:10.929,478.807
2,1 Jun 2022 23:08:36.182,1 Jun 2022 23:16:10.395,454.214
3,2 Jun 2022 00:46:53.963,2 Jun 2022 00:47:47.268,53.304
4,2 Jun 2022 11:23:55.014,2 Jun 2022 11:31:53.932,478.919
5,2 Jun 2022 23:05:19.519,2 Jun 2022 23:12:52.834,453.315
6,3 Jun 2022 00:43:27.502,3 Jun 2022 00:44:40.111,72.609
7,3 Jun 2022 11:20:37.914,3 Jun 2022 11:28:36.930,479.016
8,3 Jun 2022 23:02:02.863,3 Jun 2022 23:09:35.263,452.399
9,4 Jun 2022 00:40:03.151,4 Jun 2022 00:41:30.848,87.698
10,4 Jun 2022 11:17:20.823,4 Jun 2022 11:25:19.922,479.098
11,4 Jun 2022 22:58:46.215,4 Jun 2022 23:06:17.681,451.466
12,5 Jun 2022 00:36:39.949,5 Jun 2022 00:38:20.430,100.481
13,5 Jun 2022 11:14:03.741,5 Jun 2022 11:22:02.907,479.167
14,5 Jun 2022 22:55:29.575,5 Jun 2022 23:03:00.090,450.515
15,6 Jun 2022 00:33:17.500,6 Jun 2022 00:35:09.255,111.755
16,6 Jun 2022 11:10:46.667,6 Jun 2022 11:18:45.887,479.221
17,6 Jun 2022 22:52:12.943,6 Jun 2022 22:59:42.489,449.546
18,7 Jun 2022 00:29:55.597,7 Jun 2022 00:31:57.532,121.935
19,7 Jun 2022 11:07:29.601,7 Jun 2022 11:15:28.862,479.261
20,7 Jun 2022 22:48:56.318,7 Jun 2022 22:56:24.877,448.559
21,8 Jun 2022 00:26:34.109,8 Jun 2022 00:28:45.387,131.278
22,8 Jun 2022 11:04:12.543,8 Jun 2022 11:12:11.830,479.287
23,8 Jun 2022 22:45:39.701,8 Jun 2022 22:53:07.256,447.555
24,9 Jun 2022 00:23:12.957,9 Jun 2022 00:25:32.914,139.957
25,9 Jun 2022 11:00:55.494,9 Jun 2022 11:08:54.792,479.299
26,9 Jun 2022 22:42:23.092,9 Jun 2022 22:49:49.624,446.532
27,10 Jun 2022 00:19:52.076,10 Jun 2022 00:22:20.159,148.083
28,10 Jun 2022 10:57:38.453,10 Jun 2022 11:05:37.749,479.296
29,10 Jun 2022 22:39:06.492,10 Jun 2022 22:46:31.983,445.491
30,11 Jun 2022 00:16:31.428,11 Jun 2022 00:19:07.170,155.743
31,11 Jun 2022 10:54:21.420,11 Jun 2022 11:02:20.700,479.280
32,11 Jun 2022 22:35:49.899,11 Jun 2022 22:43:14.330,444.432
33,12 Jun 2022 00:13:10.978,12 Jun 2022 00:15:53.980,163.003
34,12 Jun 2022 10:51:04.395,12 Jun 2022 10:59:03.644,479.249
35,12 Jun 2022 22:32:33.314,12 Jun 2022 22:39:56.665,443.351
36,13 Jun 2022 00:09:50.700,13 Jun 2022 00:12:40.615,169.914
37,13 Jun 2022 10:47:47.379,13 Jun 2022 10:55:46.583,479.204
38,13 Jun 2022 22:29:16.737,13 Jun 2022 22:36:38.991,442.254
39,14 Jun 2022 00:06:30.575,14 Jun 2022 00:09:27.094,176.519
40,14 Jun 2022 10:44:30.370,14 Jun 2022 10:52:29.516,479.145
41,14 Jun 2022 22:26:00.168,14 Jun 2022 22:33:21.307,441.139
42,15 Jun 2022 00:03:10.585,15 Jun 2022 00:06:13.434,182.849
43,15 Jun 2022 10:41:13.370,15 Jun 2022 10:49:12.442,479.072
44,15 Jun 2022 22:22:43.608,15 Jun 2022 22:30:03.612,440.004
45,15 Jun 2022 23:59:50.717,16 Jun 2022 00:02:59.649,188.932
46,16 Jun 2022 10:37:56.378,16 Jun 2022 10:45:55.363,478.985
47,16 Jun 2022 22:19:27.056,16 Jun 2022 22:26:45.906,438.850
48,16 Jun 2022 23:56:30.959,16 Jun 2022 23:59:45.751,194.793
49,17 Jun 2022 10:34:39.395,17 Jun 2022 10:42:38.278,478.884
50,17 Jun 2022 22:16:10.513,17 Jun 2022 22:23:28.187,437.674
51,17 Jun 2022 23:53:11.301,17 Jun 2022 23:56:31.751,200.450
52,18 Jun 2022 10:31:22.420,18 Jun 2022 10:39:21.188,478.768
53,18 Jun 2022 22:12:53.979,18 Jun 2022 22:20:10.463,436.484
54,18 Jun 2022 23:49:51.736,18 Jun 2022 23:53:17.657,205.921
55,19 Jun 2022 10:28:05.453,19 Jun 2022 10:36:04.091,478.639
56,19 Jun 2022 22:09:37.453,19 Jun 2022 22:16:52.724,435.270
57,19 Jun 2022 23:46:32.256,19 Jun 2022 23:50:03.479,211.223
58,20 Jun 2022 10:24:48.495,20 Jun 2022 10:32:46.989,478.495
59,20 Jun 2022 22:06:20.937,20 Jun 2022 22:13:34.974,434.037
60,20 Jun 2022 23:43:12.854,20 Jun 2022 23:46:49.213,216.359
61,21 Jun 2022 10:21:31.544,21 Jun 2022 10:29:29.881,478.337
62,21 Jun 2022 22:03:04.429,21 Jun 2022 22:10:17.212,432.783
63,21 Jun 2022 23:39:53.526,21 Jun 2022 23:43:34.878,221.352
64,22 Jun 2022 10:18:14.603,22 Jun 2022 10:26:12.768,478.165
65,22 Jun 2022 21:59:47.930,22 Jun 2022 22:06:59.439,431.509
66,22 Jun 2022 23:36:34.266,22 Jun 2022 23:40:20.467,226.201
67,23 Jun 2022 10:14:57.669,23 Jun 2022 10:22:55.648,477.979
68,23 Jun 2022 21:56:31.440,23 Jun 2022 22:03:41.655,430.215
69,23 Jun 2022 23:33:15.070,23 Jun 2022 23:37:05.991,230.922
70,24 Jun 2022 10:11:40.744,24 Jun 2022 10:19:38.520,477.776
71,24 Jun 2022 21:53:14.959,24 Jun 2022 22:00:23.857,428.898
72,24 Jun 2022 23:29:55.932,24 Jun 2022 23:33:51.453,235.520
73,25 Jun 2022 10:08:23.827,25 Jun 2022 10:16:21.388,477.562
74,25 Jun 2022 21:49:58.488,25 Jun 2022 21:57:06.047,427.559
75,25 Jun 2022 23:26:36.852,25 Jun 2022 23:30:36.851,239.999
76,26 Jun 2022 10:05:06.918,26 Jun 2022 10:13:04.251,477.333
77,26 Jun 2022 21:46:42.026,26 Jun 2022 21:53:48.232,426.206
78,26 Jun 2022 23:23:17.824,26 Jun 2022 23:27:22.197,244.374
79,27 Jun 2022 10:01:50.017,27 Jun 2022 10:09:47.108,477.090
80,27 Jun 2022 21:43:25.573,27 Jun 2022 21:50:30.399,424.826
81,27 Jun 2022 23:19:58.846,27 Jun 2022 23:24:07.490,248.645
82,28 Jun 2022 09:58:33.125,28 Jun 2022 10:06:29.958,476.833
83,28 Jun 2022 21:40:09.130,28 Jun 2022 21:47:12.554,423.424
84,28 Jun 2022 23:16:39.915,28 Jun 2022 23:20:52.734,252.818
85,29 Jun 2022 09:55:16.241,29 Jun 2022 10:03:12.803,476.562
86,29 Jun 2022 21:36:52.696,29 Jun 2022 21:43:54.696,422.000
87,29 Jun 2022 23:13:21.030,29 Jun 2022 23:17:37.929,256.898
88,30 Jun 2022 09:51:59.365,30 Jun 2022 09:59:55.643,476.278
89,30 Jun 2022 21:33:36.273,30 Jun 2022 21:40:36.829,420.556
90,30 Jun 2022 23:10:02.192,30 Jun 2022 23:14:23.078,260.886
91,1 Jul 2022 09:48:42.498,1 Jul 2022 09:56:38.476,475.978
92,1 Jul 2022 21:30:19.860,1 Jul 2022 21:37:18.948,419.088
93,1 Jul 2022 23:06:43.391,1 Jul 2022 23:11:08.185,264.794
94,2 Jul 2022 09:45:25.639,2 Jul 2022 09:53:21.302,475.663
95,2 Jul 2022 21:27:03.456,2 Jul 2022 21:34:01.057,417.600
96,2 Jul 2022 23:03:24.629,2 Jul 2022 23:07:53.252,268.623
97,3 Jul 2022 09:42:08.789,3 Jul 2022 09:50:04.123,475.334
98,3 Jul 2022 21:23:47.063,3 Jul 2022 21:30:43.151,416.087
99,3 Jul 2022 23:00:05.905,3 Jul 2022 23:04:38.272,272.367
100,4 Jul 2022 09:38:51.947,4 Jul 2022 09:46:46.938,474.991
101,4 Jul 2022 21:20:30.681,4 Jul 2022 21:27:25.232,414.552
102,4 Jul 2022 22:56:47.217,4 Jul 2022 23:01:23.258,276.041
103,5 Jul 2022 09:35:35.113,5 Jul 2022 09:43:29.746,474.633
104,5 Jul 2022 21:17:14.309,5 Jul 2022 21:24:07.302,412.993
105,5 Jul 2022 22:53:28.563,5 Jul 2022 22:58:08.206,279.644
106,6 Jul 2022 09:32:18.288,6 Jul 2022 09:40:12.549,474.261
107,6 Jul 2022 21:13:57.947,6 Jul 2022 21:20:49.359,411.411
108,6 Jul 2022 22:50:09.942,6 Jul 2022 22:54:53.119,283.177
109,7 Jul 2022 09:29:01.471,7 Jul 2022 09:36:55.343,473.872
110,7 Jul 2022 21:10:41.597,7 Jul 2022 21:17:31.402,409.805
111,7 Jul 2022 22:46:51.353,7 Jul 2022 22:51:37.998,286.645
112,8 Jul 2022 09:25:44.663,8 Jul 2022 09:33:38.132,473.469
113,8 Jul 2022 21:07:25.257,8 Jul 2022 21:14:13.432,408.175
114,8 Jul 2022 22:43:32.795,8 Jul 2022 22:48:22.843,290.048
115,9 Jul 2022 09:22:27.863,9 Jul 2022 09:30:20.921,473.058
116,9 Jul 2022 21:04:08.928,9 Jul 2022 21:10:55.446,406.518
117,9 Jul 2022 22:40:14.265,9 Jul 2022 22:45:07.656,293.391
118,10 Jul 2022 09:19:11.071,10 Jul 2022 09:27:03.697,472.626
119,10 Jul 2022 21:00:52.610,10 Jul 2022 21:07:37.449,404.839
120,10 Jul 2022 22:36:55.763,10 Jul 2022 22:41:52.437,296.674
121,11 Jul 2022 09:15:54.288,11 Jul 2022 09:23:46.468,472.180
122,11 Jul 2022 20:57:36.304,11 Jul 2022 21:04:19.438,403.134
123,11 Jul 2022 22:33:37.291,11 Jul 2022 22:38:37.188,299.898
124,12 Jul 2022 09:12:37.513,12 Jul 2022 09:20:29.235,471.722
125,12 Jul 2022 20:54:20.009,12 Jul 2022 21:01:01.413,401.404
126,12 Jul 2022 22:30:18.845,12 Jul 2022 22:35:21.910,303.065
127,13 Jul 2022 09:09:20.747,13 Jul 2022 09:17:11.993,471.246
128,13 Jul 2022 20:51:03.726,13 Jul 2022 20:57:43.371,399.645
129,13 Jul 2022 22:27:00.421,13 Jul 2022 22:32:06.603,306.182
130,14 Jul 2022 09:06:03.989,14 Jul 2022 09:13:54.747,470.758
131,14 Jul 2022 20:47:47.455,14 Jul 2022 20:54:25.317,397.863
132,14 Jul 2022 22:23:42.023,14 Jul 2022 22:28:51.264,309.241
133,15 Jul 2022 09:02:47.240,15 Jul 2022 09:10:37.495,470.255
134,15 Jul 2022 20:44:31.196,15 Jul 2022 20:51:07.252,396.056
135,15 Jul 2022 22:20:23.654,15 Jul 2022 22:25:35.904,312.250
136,16 Jul 2022 08:59:30.500,16 Jul 2022 09:07:20.237,469.737
137,16 Jul 2022 20:41:14.950,16 Jul 2022 20:47:49.169,394.219
138,16 Jul 2022 22:17:05.305,16 Jul 2022 22:22:20.517,315.213
139,17 Jul 2022 08:56:13.768,17 Jul 2022 09:04:02.972,469.204
140,17 Jul 2022 20:37:58.716,17 Jul 2022 20:44:31.071,392.355
141,17 Jul 2022 22:13:46.978,17 Jul 2022 22:19:05.105,318.127
142,18 Jul 2022 08:52:57.045,18 Jul 2022 09:00:45.702,468.657
143,18 Jul 2022 20:34:42.495,18 Jul 2022 20:41:12.957,390.463
144,18 Jul 2022 22:10:28.675,18 Jul 2022 22:15:49.668,320.994
145,19 Jul 2022 08:49:40.331,19 Jul 2022 08:57:28.425,468.094
146,19 Jul 2022 20:31:26.287,19 Jul 2022 20:37:54.829,388.542
147,19 Jul 2022 22:07:10.393,19 Jul 2022 22:12:34.207,323.814
148,20 Jul 2022 08:46:23.625,20 Jul 2022 08:54:11.142,467.517
149,20 Jul 2022 20:28:10.092,20 Jul 2022 20:34:36.683,386.592
150,20 Jul 2022 22:03:52.132,20 Jul 2022 22:09:18.722,326.590
151,21 Jul 2022 08:43:06.928,21 Jul 2022 08:50:53.852,466.924
152,21 Jul 2022 20:24:53.910,21 Jul 2022 20:31:18.521,384.611
153,21 Jul 2022 22:00:33.892,21 Jul 2022 22:06:03.214,329.322
154,22 Jul 2022 08:39:50.240,22 Jul 2022 08:47:36.557,466.317
155,22 Jul 2022 20:21:37.742,22 Jul 2022 20:28:00.344,382.602
156,22 Jul 2022 21:57:15.671,22 Jul 2022 22:02:47.684,332.012
157,23 Jul 2022 08:36:33.560,23 Jul 2022 08:44:19.255,465.694
158,23 Jul 2022 20:18:21.587,23 Jul 2022 20:24:42.156,380.569
159,23 Jul 2022 21:53:57.466,23 Jul 2022 21:59:32.131,334.665
160,24 Jul 2022 08:33:16.889,24 Jul 2022 08:41:01.946,465.057
161,24 Jul 2022 20:15:05.447,24 Jul 2022 20:21:23.946,378.500
162,24 Jul 2022 21:50:39.284,24 Jul 2022 21:56:16.557,337.274
163,25 Jul 2022 08:30:00.227,25 Jul 2022 08:37:44.631,464.404
164,25 Jul 2022 20:11:49.321,25 Jul 2022 20:18:05.717,376.396
165,25 Jul 2022 21:47:21.119,25 Jul 2022 21:53:00.963,339.843
166,26 Jul 2022 08:26:43.574,26 Jul 2022 08:34:27.310,463.736
167,26 Jul 2022 20:08:33.210,26 Jul 2022 20:14:47.474,374.264
168,26 Jul 2022 21:44:02.973,26 Jul 2022 21:49:45.348,342.375
169,27 Jul 2022 08:23:26.929,27 Jul 2022 08:31:09.983,463.053
170,27 Jul 2022 20:05:17.113,27 Jul 2022 20:11:29.214,372.101
171,27 Jul 2022 21:40:44.844,27 Jul 2022 21:46:29.713,344.869
172,28 Jul 2022 08:20:10.294,28 Jul 2022 08:27:52.649,462.355
173,28 Jul 2022 20:02:01.032,28 Jul 2022 20:08:10.936,369.904
174,28 Jul 2022 21:37:26.729,28 Jul 2022 21:43:14.058,347.329
175,29 Jul 2022 08:16:53.667,29 Jul 2022 08:24:35.309,461.641
176,29 Jul 2022 19:58:44.967,29 Jul 2022 20:04:52.638,367.671
177,29 Jul 2022 21:34:08.633,29 Jul 2022 21:39:58.385,349.752
178,30 Jul 2022 08:13:37.050,30 Jul 2022 08:21:17.959,460.910
179,30 Jul 2022 19:55:28.918,30 Jul 2022 20:01:34.325,365.407
180,30 Jul 2022 21:30:50.554,30 Jul 2022 21:36:42.694,352.140
181,31 Jul 2022 08:10:20.441,31 Jul 2022 08:18:00.606,460.165
182,31 Jul 2022 19:52:12.884,31 Jul 2022 19:58:15.995,363.111
183,31 Jul 2022 21:27:32.490,31 Jul 2022 21:33:26.984,354.494
184,1 Aug 2022 08:07:03.842,1 Aug 2022 08:14:43.247,459.405
185,1 Aug 2022 19:48:56.870,1 Aug 2022 19:54:57.644,360.773
186,1 Aug 2022 21:24:14.443,1 Aug 2022 21:30:11.256,356.813
187,2 Aug 2022 08:03:47.252,2 Aug 2022 08:11:25.881,458.629
188,2 Aug 2022 19:45:40.870,2 Aug 2022 19:51:39.272,358.402
189,2 Aug 2022 21:20:56.408,2 Aug 2022 21:26:55.508,359.101
190,3 Aug 2022 08:00:30.671,3 Aug 2022 08:08:08.505,457.834
191,3 Aug 2022 19:42:24.888,3 Aug 2022 19:48:20.881,355.993
192,3 Aug 2022 21:17:38.390,3 Aug 2022 21:23:39.743,361.354
193,4 Aug 2022 07:57:14.099,4 Aug 2022 08:04:51.126,457.027
194,4 Aug 2022 19:39:08.922,4 Aug 2022 19:45:02.469,353.547
195,4 Aug 2022 21:14:20.387,4 Aug 2022 21:20:23.961,363.574
196,5 Aug 2022 07:53:57.536,5 Aug 2022 08:01:33.740,456.203
197,5 Aug 2022 19:35:52.975,5 Aug 2022 19:41:44.036,351.061
198,5 Aug 2022 21:11:02.398,5 Aug 2022 21:17:08.158,365.760
199,6 Aug 2022 07:50:40.983,6 Aug 2022 07:58:16.347,455.364
200,6 Aug 2022 19:32:37.046,6 Aug 2022 19:38:25.583,348.536
201,6 Aug 2022 21:07:44.424,6 Aug 2022 21:13:52.341,367.918
202,7 Aug 2022 07:47:24.439,7 Aug 2022 07:54:58.944,454.506
203,7 Aug 2022 19:29:21.138,7 Aug 2022 19:35:07.108,345.970
204,7 Aug 2022 21:04:26.463,7 Aug 2022 21:10:36.510,370.048
205,8 Aug 2022 07:44:07.903,8 Aug 2022 07:51:41.535,453.632
206,8 Aug 2022 19:26:05.247,8 Aug 2022 19:31:48.612,343.365
207,8 Aug 2022 21:01:08.515,8 Aug 2022 21:07:20.660,372.145
208,9 Aug 2022 07:40:51.378,9 Aug 2022 07:48:24.120,452.743
209,9 Aug 2022 19:22:49.376,9 Aug 2022 19:28:30.093,340.717
210,9 Aug 2022 20:57:50.581,9 Aug 2022 21:04:04.797,374.216
211,10 Aug 2022 07:37:34.861,10 Aug 2022 07:45:06.699,451.837
212,10 Aug 2022 19:19:33.525,10 Aug 2022 19:25:11.552,338.027
213,10 Aug 2022 20:54:32.660,10 Aug 2022 21:00:48.918,376.258
214,11 Aug 2022 07:34:18.354,11 Aug 2022 07:41:49.270,450.915
215,11 Aug 2022 19:16:17.698,11 Aug 2022 19:21:52.987,335.289
216,11 Aug 2022 20:51:14.751,11 Aug 2022 20:57:33.023,378.272
217,12 Aug 2022 07:31:01.857,12 Aug 2022 07:38:31.834,449.977
218,12 Aug 2022 19:13:01.891,12 Aug 2022 19:18:34.398,332.507
219,12 Aug 2022 20:47:56.855,12 Aug 2022 20:54:17.113,380.257
220,13 Aug 2022 07:27:45.369,13 Aug 2022 07:35:14.391,449.022
221,13 Aug 2022 09:06:38.022,13 Aug 2022 09:07:27.802,49.780
222,13 Aug 2022 19:09:46.106,13 Aug 2022 19:15:15.785,329.680
223,13 Aug 2022 20:44:38.972,13 Aug 2022 20:51:01.182,382.210
224,14 Aug 2022 07:24:28.891,14 Aug 2022 07:31:56.942,448.050
225,14 Aug 2022 09:03:09.961,14 Aug 2022 09:04:21.345,71.383
226,14 Aug 2022 19:06:30.343,14 Aug 2022 19:11:57.148,326.804
227,14 Aug 2022 20:41:21.102,14 Aug 2022 20:47:45.243,384.141
228,15 Aug 2022 07:21:12.423,15 Aug 2022 07:28:39.485,447.062
229,15 Aug 2022 08:59:44.530,15 Aug 2022 09:01:12.263,87.733
230,15 Aug 2022 19:03:14.604,15 Aug 2022 19:08:38.484,323.880
231,15 Aug 2022 20:38:03.243,15 Aug 2022 20:44:29.289,386.046
232,16 Aug 2022 07:17:55.965,16 Aug 2022 07:25:22.021,446.057
233,16 Aug 2022 08:56:20.438,16 Aug 2022 08:58:01.846,101.408
234,16 Aug 2022 18:59:58.889,16 Aug 2022 19:05:19.793,320.904
235,16 Aug 2022 20:34:45.396,16 Aug 2022 20:41:13.322,387.926
236,17 Aug 2022 07:14:39.516,17 Aug 2022 07:22:04.550,445.034
237,17 Aug 2022 08:52:57.201,17 Aug 2022 08:54:50.572,113.371
238,17 Aug 2022 18:56:43.200,17 Aug 2022 19:02:01.075,317.876
239,17 Aug 2022 20:31:27.561,17 Aug 2022 20:37:57.339,389.777
240,18 Aug 2022 07:11:23.078,18 Aug 2022 07:18:47.072,443.994
241,18 Aug 2022 08:49:34.571,18 Aug 2022 08:51:38.695,124.124
242,18 Aug 2022 18:53:27.536,18 Aug 2022 18:58:42.334,314.798
243,18 Aug 2022 20:28:09.737,18 Aug 2022 20:34:41.341,391.603
244,19 Aug 2022 07:08:06.649,19 Aug 2022 07:15:29.583,442.935
245,19 Aug 2022 08:46:12.402,19 Aug 2022 08:48:26.358,133.956
246,19 Aug 2022 18:50:11.894,19 Aug 2022 18:55:23.559,311.665
247,19 Aug 2022 20:24:51.925,19 Aug 2022 20:31:25.329,393.404
248,20 Aug 2022 07:04:50.230,20 Aug 2022 07:12:12.090,441.860
249,20 Aug 2022 08:42:50.600,20 Aug 2022 08:45:13.657,143.057
250,20 Aug 2022 18:46:56.284,20 Aug 2022 18:52:04.753,308.469
251,20 Aug 2022 20:21:34.123,20 Aug 2022 20:28:09.304,395.180
252,21 Aug 2022 07:01:33.821,21 Aug 2022 07:08:54.589,440.768
253,21 Aug 2022 08:39:29.099,21 Aug 2022 08:42:00.658,151.559
254,21 Aug 2022 18:43:40.703,21 Aug 2022 18:48:45.920,305.217
255,21 Aug 2022 20:18:16.333,21 Aug 2022 20:24:53.265,396.932
256,22 Aug 2022 06:58:17.422,22 Aug 2022 07:05:37.080,439.658
257,22 Aug 2022 08:36:07.850,22 Aug 2022 08:38:47.409,159.559
258,22 Aug 2022 18:40:25.148,22 Aug 2022 18:45:27.054,301.906
259,22 Aug 2022 20:14:58.552,22 Aug 2022 20:21:37.208,398.656
260,23 Aug 2022 06:55:01.033,23 Aug 2022 07:02:19.563,438.530
261,23 Aug 2022 08:32:46.818,23 Aug 2022 08:35:33.945,167.127
262,23 Aug 2022 18:37:09.623,23 Aug 2022 18:42:08.154,298.532
263,23 Aug 2022 20:11:40.783,23 Aug 2022 20:18:21.142,400.359
264,24 Aug 2022 06:51:44.654,24 Aug 2022 06:59:02.037,437.383
265,24 Aug 2022 08:29:25.975,24 Aug 2022 08:32:20.296,174.321
266,24 Aug 2022 18:33:54.131,24 Aug 2022 18:38:49.222,295.090
267,24 Aug 2022 20:08:23.024,24 Aug 2022 20:15:05.065,402.041
268,25 Aug 2022 06:48:28.286,25 Aug 2022 06:55:44.505,436.219
269,25 Aug 2022 08:26:05.298,25 Aug 2022 08:29:06.480,181.183
270,25 Aug 2022 18:30:38.672,25 Aug 2022 18:35:30.254,291.582
271,25 Aug 2022 20:05:05.276,25 Aug 2022 20:11:48.974,403.698
272,26 Aug 2022 06:45:11.928,26 Aug 2022 06:52:26.965,435.038
273,26 Aug 2022 08:22:44.769,26 Aug 2022 08:25:52.520,187.751
274,26 Aug 2022 18:27:23.245,26 Aug 2022 18:32:11.249,288.004
275,26 Aug 2022 20:01:47.537,26 Aug 2022 20:08:32.869,405.332
276,27 Aug 2022 06:41:55.580,27 Aug 2022 06:49:09.418,433.837
277,27 Aug 2022 08:19:24.373,27 Aug 2022 08:22:38.431,194.057
278,27 Aug 2022 18:24:07.853,27 Aug 2022 18:28:52.207,284.354
279,27 Aug 2022 19:58:29.809,27 Aug 2022 20:05:16.752,406.943
280,28 Aug 2022 06:38:39.244,28 Aug 2022 06:45:51.864,432.620
281,28 Aug 2022 08:16:04.098,28 Aug 2022 08:19:24.224,200.125
282,28 Aug 2022 18:20:52.498,28 Aug 2022 18:25:33.126,280.628
283,28 Aug 2022 19:55:12.091,28 Aug 2022 20:02:00.625,408.534
284,29 Aug 2022 06:35:22.917,29 Aug 2022 06:42:34.299,431.382
285,29 Aug 2022 08:12:43.933,29 Aug 2022 08:16:09.909,205.976
286,29 Aug 2022 18:17:37.180,29 Aug 2022 18:22:14.005,276.825
287,29 Aug 2022 19:51:54.383,29 Aug 2022 19:58:44.483,410.101
288,30 Aug 2022 06:32:06.602,30 Aug 2022 06:39:16.727,430.125
289,30 Aug 2022 08:09:23.870,30 Aug 2022 08:12:55.500,211.630
290,30 Aug 2022 18:14:21.902,30 Aug 2022 18:18:54.842,272.940
291,30 Aug 2022 19:48:36.684,30 Aug 2022 19:55:28.330,411.646
292,31 Aug 2022 06:28:50.297,31 Aug 2022 06:35:59.146,428.849
293,31 Aug 2022 08:06:03.899,31 Aug 2022 08:09:40.999,217.100
294,31 Aug 2022 18:11:06.661,31 Aug 2022 18:15:35.636,268.975
295,31 Aug 2022 19:45:18.995,31 Aug 2022 19:52:12.164,413.168
296,1 Sep 2022 06:25:34.004,1 Sep 2022 06:32:41.556,427.552
297,1 Sep 2022 08:02:44.014,1 Sep 2022 08:06:26.412,222.398
298,1 Sep 2022 18:07:51.467,1 Sep 2022 18:12:16.386,264.919
299,1 Sep 2022 19:42:01.316,1 Sep 2022 19:48:55.985,414.670
300,2 Sep 2022 06:22:17.721,2 Sep 2022 06:29:23.956,426.235
301,2 Sep 2022 07:59:24.210,2 Sep 2022 08:03:11.748,227.538
302,2 Sep 2022 18:04:36.318,2 Sep 2022 18:08:57.086,260.767
303,2 Sep 2022 19:38:43.645,2 Sep 2022 19:45:39.796,416.151
304,3 Sep 2022 06:19:01.449,3 Sep 2022 06:26:06.354,424.905
305,3 Sep 2022 07:56:04.480,3 Sep 2022 07:59:57.011,232.530
306,3 Sep 2022 18:01:21.217,3 Sep 2022 18:05:37.734,256.517
307,3 Sep 2022 19:35:25.984,3 Sep 2022 19:42:23.595,417.611
308,4 Sep 2022 06:15:45.188,4 Sep 2022 06:22:48.738,423.550
309,4 Sep 2022 07:52:44.822,4 Sep 2022 07:56:42.201,237.380
310,4 Sep 2022 17:58:06.167,4 Sep 2022 18:02:18.332,252.165
311,4 Sep 2022 19:32:08.332,4 Sep 2022 19:39:07.383,419.051
312,5 Sep 2022 06:12:28.938,5 Sep 2022 06:19:31.113,422.174
313,5 Sep 2022 07:49:25.229,5 Sep 2022 07:53:27.333,242.104
314,5 Sep 2022 17:54:51.169,5 Sep 2022 17:58:58.874,247.705
315,5 Sep 2022 19:28:50.689,5 Sep 2022 19:35:51.157,420.468
316,6 Sep 2022 06:09:12.700,6 Sep 2022 06:16:13.478,420.778
317,6 Sep 2022 07:46:05.699,6 Sep 2022 07:50:12.403,246.705
318,6 Sep 2022 17:51:36.226,6 Sep 2022 17:55:39.357,243.130
319,6 Sep 2022 19:25:33.055,6 Sep 2022 19:32:34.922,421.868
320,7 Sep 2022 06:05:56.472,7 Sep 2022 06:12:55.837,419.365
321,7 Sep 2022 07:42:46.227,7 Sep 2022 07:46:57.418,251.190
322,7 Sep 2022 17:48:21.344,7 Sep 2022 17:52:19.779,238.435
323,7 Sep 2022 19:22:15.429,7 Sep 2022 19:29:18.675,423.246
324,8 Sep 2022 06:02:40.257,8 Sep 2022 06:09:38.186,417.929
325,8 Sep 2022 07:39:26.812,8 Sep 2022 07:43:42.378,255.566
326,8 Sep 2022 17:45:06.526,8 Sep 2022 17:49:00.139,233.613
327,8 Sep 2022 19:18:57.812,8 Sep 2022 19:26:02.418,424.606
328,9 Sep 2022 05:59:24.053,9 Sep 2022 06:06:20.528,416.475
329,9 Sep 2022 07:36:07.451,9 Sep 2022 07:40:27.290,259.839
330,9 Sep 2022 17:41:51.772,9 Sep 2022 17:45:40.426,228.654
331,9 Sep 2022 19:15:40.204,9 Sep 2022 19:22:46.149,425.945
332,10 Sep 2022 05:56:07.861,10 Sep 2022 06:03:02.859,414.999
333,10 Sep 2022 07:32:48.140,10 Sep 2022 07:37:12.155,264.015
334,10 Sep 2022 17:38:37.089,10 Sep 2022 17:42:20.639,223.549
335,10 Sep 2022 19:12:22.605,10 Sep 2022 19:19:29.864,427.260
336,11 Sep 2022 05:52:51.681,11 Sep 2022 05:59:45.182,413.502
337,11 Sep 2022 07:29:28.878,11 Sep 2022 07:33:56.967,268.089
338,11 Sep 2022 17:35:22.485,11 Sep 2022 17:39:00.773,218.288
339,11 Sep 2022 19:09:05.014,11 Sep 2022 19:16:13.576,428.562
340,12 Sep 2022 05:49:35.513,12 Sep 2022 05:56:27.496,411.983
341,12 Sep 2022 07:26:09.662,12 Sep 2022 07:30:41.741,272.079
342,12 Sep 2022 17:32:07.962,12 Sep 2022 17:35:40.818,212.856
343,12 Sep 2022 19:05:47.432,12 Sep 2022 19:12:57.275,429.844
344,13 Sep 2022 05:46:19.357,13 Sep 2022 05:53:09.800,410.443
345,13 Sep 2022 07:22:50.490,13 Sep 2022 07:27:26.473,275.983
346,13 Sep 2022 17:28:53.529,13 Sep 2022 17:32:20.775,207.246
347,13 Sep 2022 19:02:29.857,13 Sep 2022 19:09:40.962,431.105
348,14 Sep 2022 05:43:03.213,14 Sep 2022 05:49:52.091,408.878
349,14 Sep 2022 07:19:31.361,14 Sep 2022 07:24:11.165,279.804
350,14 Sep 2022 17:25:39.192,14 Sep 2022 17:29:00.634,201.442
351,14 Sep 2022 18:59:12.292,14 Sep 2022 19:06:24.638,432.347
352,15 Sep 2022 05:39:47.081,15 Sep 2022 05:46:34.376,407.295
353,15 Sep 2022 07:16:12.272,15 Sep 2022 07:20:55.819,283.547
354,15 Sep 2022 17:22:24.960,15 Sep 2022 17:25:40.385,195.425
355,15 Sep 2022 18:55:54.734,15 Sep 2022 19:03:08.304,433.570
356,16 Sep 2022 05:36:30.962,16 Sep 2022 05:43:16.650,405.688
357,16 Sep 2022 07:12:53.222,16 Sep 2022 07:17:40.437,287.215
358,16 Sep 2022 17:19:10.843,16 Sep 2022 17:22:20.018,189.175
359,16 Sep 2022 18:52:37.184,16 Sep 2022 18:59:51.959,434.775
360,17 Sep 2022 05:33:14.855,17 Sep 2022 05:39:58.915,404.059
361,17 Sep 2022 07:09:34.215,17 Sep 2022 07:14:25.018,290.803
362,17 Sep 2022 17:15:56.854,17 Sep 2022 17:18:59.522,182.668
363,17 Sep 2022 18:49:19.642,17 Sep 2022 18:56:35.603,435.961
364,18 Sep 2022 05:29:58.761,18 Sep 2022 05:36:41.169,402.407
365,18 Sep 2022 07:06:15.239,18 Sep 2022 07:11:09.565,294.326
366,18 Sep 2022 17:12:43.007,18 Sep 2022 17:15:38.882,175.875
367,18 Sep 2022 18:46:02.108,18 Sep 2022 18:53:19.233,437.125
368,19 Sep 2022 05:26:42.680,19 Sep 2022 05:33:23.410,400.730
369,19 Sep 2022 07:02:56.297,19 Sep 2022 07:07:54.079,297.782
370,19 Sep 2022 17:09:29.319,19 Sep 2022 17:12:18.078,168.758
371,19 Sep 2022 18:42:44.581,19 Sep 2022 18:50:02.858,438.277
372,20 Sep 2022 05:23:26.612,20 Sep 2022 05:30:05.644,399.032
373,20 Sep 2022 06:59:37.392,20 Sep 2022 07:04:38.557,301.165
374,20 Sep 2022 17:06:15.812,20 Sep 2022 17:08:57.091,161.278
375,20 Sep 2022 18:39:27.063,20 Sep 2022 18:46:46.471,439.409
376,21 Sep 2022 05:20:10.557,21 Sep 2022 05:26:47.867,397.310
377,21 Sep 2022 06:56:18.517,21 Sep 2022 07:01:23.011,304.495
378,21 Sep 2022 17:03:02.512,21 Sep 2022 17:05:35.894,153.381
379,21 Sep 2022 18:36:09.552,21 Sep 2022 18:43:30.074,440.522
380,22 Sep 2022 05:16:54.515,22 Sep 2022 05:23:30.079,395.564
381,22 Sep 2022 06:52:59.675,22 Sep 2022 06:58:07.436,307.761
382,22 Sep 2022 16:59:49.454,22 Sep 2022 17:02:14.453,144.999
383,22 Sep 2022 18:32:52.049,22 Sep 2022 18:40:13.667,441.618
384,23 Sep 2022 05:13:38.487,23 Sep 2022 05:20:12.282,393.795
385,23 Sep 2022 06:49:40.862,23 Sep 2022 06:54:51.832,310.970
386,23 Sep 2022 16:56:36.682,23 Sep 2022 16:58:52.724,136.042
387,23 Sep 2022 18:29:34.553,23 Sep 2022 18:36:57.251,442.698
388,24 Sep 2022 05:10:22.473,24 Sep 2022 05:16:54.472,391.999
389,24 Sep 2022 06:46:22.084,24 Sep 2022 06:51:36.201,314.116
390,24 Sep 2022 16:53:24.258,24 Sep 2022 16:55:30.645,126.387
391,24 Sep 2022 18:26:17.065,24 Sep 2022 18:33:40.824,443.759
392,25 Sep 2022 05:07:06.472,25 Sep 2022 05:13:36.651,390.179
393,25 Sep 2022 06:43:03.331,25 Sep 2022 06:48:20.538,317.206
394,25 Sep 2022 16:50:12.265,25 Sep 2022 16:52:08.129,115.864
395,25 Sep 2022 18:22:59.585,25 Sep 2022 18:30:24.387,444.803
396,26 Sep 2022 05:03:50.485,26 Sep 2022 05:10:18.818,388.332
397,26 Sep 2022 06:39:44.607,26 Sep 2022 06:45:04.854,320.247
398,26 Sep 2022 16:47:00.840,26 Sep 2022 16:48:45.046,104.205
399,26 Sep 2022 18:19:42.112,26 Sep 2022 18:27:07.941,445.829
400,27 Sep 2022 05:00:34.513,27 Sep 2022 05:07:00.973,386.460
401,27 Sep 2022 06:36:25.910,27 Sep 2022 06:41:49.144,323.234
402,27 Sep 2022 16:43:50.199,27 Sep 2022 16:45:21.177,90.978
403,27 Sep 2022 18:16:24.646,27 Sep 2022 18:23:51.484,446.838
404,28 Sep 2022 04:57:18.555,28 Sep 2022 05:03:43.115,384.560
405,28 Sep 2022 06:33:07.241,28 Sep 2022 06:38:33.411,326.170
406,28 Sep 2022 16:40:40.750,28 Sep 2022 16:41:56.106,75.356
407,28 Sep 2022 18:13:07.188,28 Sep 2022 18:20:35.018,447.830
408,29 Sep 2022 04:54:02.612,29 Sep 2022 05:00:25.245,382.633
409,29 Sep 2022 06:29:48.597,29 Sep 2022 06:35:17.654,329.057
410,29 Sep 2022 16:37:33.487,29 Sep 2022 16:38:28.854,55.367
411,29 Sep 2022 18:09:49.736,29 Sep 2022 18:17:18.542,448.806
412,30 Sep 2022 04:50:46.683,30 Sep 2022 04:57:07.364,380.681
413,30 Sep 2022 06:26:29.980,30 Sep 2022 06:32:01.874,331.894
414,30 Sep 2022 16:34:33.481,30 Sep 2022 16:34:54.337,20.856
415,30 Sep 2022 18:06:32.292,30 Sep 2022 18:14:02.057,449.765
416,1 Oct 2022 04:47:30.769,1 Oct 2022 04:53:49.475,378.706
417,1 Oct 2022 06:23:11.386,1 Oct 2022 06:28:46.072,334.686
418,1 Oct 2022 18:03:14.855,1 Oct 2022 18:10:45.562,450.707
419,2 Oct 2022 04:44:14.870,2 Oct 2022 04:50:31.569,376.699
420,2 Oct 2022 06:19:52.814,2 Oct 2022 06:25:30.251,337.437
421,2 Oct 2022 17:59:57.425,2 Oct 2022 18:07:29.057,451.632
422,3 Oct 2022 04:40:58.986,3 Oct 2022 04:47:13.650,374.663
423,3 Oct 2022 06:16:34.268,3 Oct 2022 06:22:14.403,340.135
424,3 Oct 2022 17:56:40.002,3 Oct 2022 18:04:12.543,452.541
425,4 Oct 2022 04:37:43.118,4 Oct 2022 04:43:55.717,372.599
426,4 Oct 2022 06:13:15.746,4 Oct 2022 06:18:58.538,342.792
427,4 Oct 2022 17:53:22.586,4 Oct 2022 18:00:56.019,453.434
428,5 Oct 2022 04:34:27.266,5 Oct 2022 04:40:37.772,370.506
429,5 Oct 2022 06:09:57.246,5 Oct 2022 06:15:42.653,345.407
430,5 Oct 2022 17:50:05.176,5 Oct 2022 17:57:39.486,454.310
431,6 Oct 2022 04:31:11.430,6 Oct 2022 04:37:19.812,368.382
432,6 Oct 2022 06:06:38.766,6 Oct 2022 06:12:26.748,347.983
433,6 Oct 2022 17:46:47.774,6 Oct 2022 17:54:22.948,455.175
434,7 Oct 2022 04:27:55.610,7 Oct 2022 04:34:01.841,366.230
435,7 Oct 2022 06:03:20.309,7 Oct 2022 06:09:10.825,350.516
436,7 Oct 2022 17:43:30.379,7 Oct 2022 17:51:06.397,456.019
437,8 Oct 2022 04:24:39.807,8 Oct 2022 04:30:43.856,364.048
438,8 Oct 2022 06:00:01.873,8 Oct 2022 06:05:54.884,353.011
439,8 Oct 2022 17:40:12.990,8 Oct 2022 17:47:49.833,456.843
440,9 Oct 2022 04:21:24.022,9 Oct 2022 04:27:25.856,361.835
441,9 Oct 2022 05:56:43.459,9 Oct 2022 06:02:38.925,355.466
442,9 Oct 2022 17:36:55.609,9 Oct 2022 17:44:33.262,457.654
443,10 Oct 2022 04:18:08.253,10 Oct 2022 04:24:07.844,359.591
444,10 Oct 2022 05:53:25.064,10 Oct 2022 05:59:22.947,357.883
445,10 Oct 2022 17:33:38.234,10 Oct 2022 17:41:16.685,458.451
446,11 Oct 2022 04:14:52.502,11 Oct 2022 04:20:49.815,357.313
447,11 Oct 2022 05:50:06.687,11 Oct 2022 05:56:06.951,360.265
448,11 Oct 2022 17:30:20.866,11 Oct 2022 17:38:00.096,459.231
449,12 Oct 2022 04:11:36.769,12 Oct 2022 04:17:31.770,355.001
450,12 Oct 2022 05:46:48.331,12 Oct 2022 05:52:50.936,362.605
451,12 Oct 2022 17:27:03.504,12 Oct 2022 17:34:43.498,459.994
452,13 Oct 2022 04:08:21.056,13 Oct 2022 04:14:13.708,352.652
453,13 Oct 2022 05:43:29.994,13 Oct 2022 05:49:34.907,364.912
454,13 Oct 2022 17:23:46.149,13 Oct 2022 17:31:26.894,460.745
455,14 Oct 2022 04:05:05.359,14 Oct 2022 04:10:55.630,350.271
456,14 Oct 2022 05:40:11.676,14 Oct 2022 05:46:18.860,367.184
457,14 Oct 2022 17:20:28.801,14 Oct 2022 17:28:10.278,461.477
458,15 Oct 2022 04:01:49.681,15 Oct 2022 04:07:37.536,347.855
459,15 Oct 2022 05:36:53.376,15 Oct 2022 05:43:02.798,369.422
460,15 Oct 2022 17:17:11.459,15 Oct 2022 17:24:53.653,462.194
461,16 Oct 2022 03:58:34.022,16 Oct 2022 04:04:19.426,345.404
462,16 Oct 2022 05:33:35.094,16 Oct 2022 05:39:46.723,371.629
463,16 Oct 2022 17:13:54.123,16 Oct 2022 17:21:37.019,462.896
464,17 Oct 2022 03:55:18.382,17 Oct 2022 04:01:01.300,342.917
465,17 Oct 2022 05:30:16.830,17 Oct 2022 05:36:30.630,373.800
466,17 Oct 2022 17:10:36.794,17 Oct 2022 17:18:20.376,463.582
467,18 Oct 2022 03:52:02.765,18 Oct 2022 03:57:43.156,340.391
468,18 Oct 2022 05:26:58.584,18 Oct 2022 05:33:14.522,375.939
469,18 Oct 2022 17:07:19.472,18 Oct 2022 17:15:03.725,464.254
470,19 Oct 2022 03:48:47.165,19 Oct 2022 03:54:24.995,337.830
471,19 Oct 2022 05:23:40.354,19 Oct 2022 05:29:58.403,378.049
472,19 Oct 2022 17:04:02.155,19 Oct 2022 17:11:47.065,464.910
473,20 Oct 2022 03:45:31.586,20 Oct 2022 03:51:06.815,335.229
474,20 Oct 2022 05:20:22.142,20 Oct 2022 05:26:42.262,380.120
475,20 Oct 2022 17:00:44.846,20 Oct 2022 17:08:30.397,465.551
476,21 Oct 2022 03:42:16.028,21 Oct 2022 03:47:48.617,332.589
477,21 Oct 2022 05:17:03.946,21 Oct 2022 05:23:26.112,382.166
478,21 Oct 2022 16:57:27.542,21 Oct 2022 17:05:13.719,466.177
479,22 Oct 2022 03:39:00.497,22 Oct 2022 03:44:30.400,329.903
480,22 Oct 2022 05:13:45.766,22 Oct 2022 05:20:09.949,384.182
481,22 Oct 2022 16:54:10.245,22 Oct 2022 17:01:57.033,466.788
482,23 Oct 2022 03:35:44.984,23 Oct 2022 03:41:12.164,327.180
483,23 Oct 2022 05:10:27.603,23 Oct 2022 05:16:53.773,386.170
484,23 Oct 2022 16:50:52.955,23 Oct 2022 16:58:40.338,467.384
485,24 Oct 2022 03:32:29.494,24 Oct 2022 03:37:53.907,324.413
486,24 Oct 2022 05:07:09.456,24 Oct 2022 05:13:37.581,388.125
487,24 Oct 2022 16:47:35.671,24 Oct 2022 16:55:23.635,467.964
488,25 Oct 2022 03:29:14.028,25 Oct 2022 03:34:35.630,321.602
489,25 Oct 2022 05:03:51.324,25 Oct 2022 05:10:21.376,390.052
490,25 Oct 2022 16:44:18.393,25 Oct 2022 16:52:06.923,468.530
491,26 Oct 2022 03:25:58.586,26 Oct 2022 03:31:17.331,318.745
492,26 Oct 2022 05:00:33.208,26 Oct 2022 05:07:05.159,391.951
493,26 Oct 2022 16:41:01.121,26 Oct 2022 16:48:50.202,469.081
494,27 Oct 2022 03:22:43.169,27 Oct 2022 03:27:59.010,315.841
495,27 Oct 2022 04:57:15.106,27 Oct 2022 05:03:48.928,393.822
496,27 Oct 2022 16:37:43.856,27 Oct 2022 16:45:33.473,469.617
497,28 Oct 2022 03:19:27.778,28 Oct 2022 03:24:40.666,312.888
498,28 Oct 2022 04:53:57.020,28 Oct 2022 05:00:32.682,395.662
499,28 Oct 2022 16:34:26.596,28 Oct 2022 16:42:16.734,470.138
500,29 Oct 2022 03:16:12.413,29 Oct 2022 03:21:22.298,309.885
501,29 Oct 2022 04:50:38.948,29 Oct 2022 04:57:16.426,397.478
502,29 Oct 2022 16:31:09.343,29 Oct 2022 16:38:59.987,470.644
503,30 Oct 2022 03:12:57.070,30 Oct 2022 03:18:03.910,306.840
504,30 Oct 2022 04:47:20.891,30 Oct 2022 04:54:00.157,399.266
505,30 Oct 2022 16:27:52.095,30 Oct 2022 16:35:43.231,471.136
506,31 Oct 2022 03:09:41.760,31 Oct 2022 03:14:45.493,303.734
507,31 Oct 2022 04:44:02.848,31 Oct 2022 04:50:43.877,401.028
508,31 Oct 2022 16:24:34.854,31 Oct 2022 16:32:26.467,471.613
509,1 Nov 2022 03:06:26.475,1 Nov 2022 03:11:27.054,300.579
510,1 Nov 2022 04:40:44.820,1 Nov 2022 04:47:27.587,402.767
511,1 Nov 2022 16:21:17.619,1 Nov 2022 16:29:09.695,472.076
512,2 Nov 2022 03:03:11.222,2 Nov 2022 03:08:08.586,297.365
513,2 Nov 2022 04:37:26.805,2 Nov 2022 04:44:11.283,404.478
514,2 Nov 2022 16:18:00.390,2 Nov 2022 16:25:52.913,472.523
515,3 Nov 2022 02:59:55.995,3 Nov 2022 03:04:50.091,294.096
516,3 Nov 2022 04:34:08.804,3 Nov 2022 04:40:54.967,406.163
517,3 Nov 2022 16:14:43.167,3 Nov 2022 16:22:36.124,472.956
518,4 Nov 2022 02:56:40.802,4 Nov 2022 03:01:31.568,290.766
519,4 Nov 2022 04:30:50.818,4 Nov 2022 04:37:38.641,407.823
520,4 Nov 2022 16:11:25.951,4 Nov 2022 16:19:19.329,473.378
521,5 Nov 2022 02:53:25.640,5 Nov 2022 02:58:13.015,287.375
522,5 Nov 2022 04:27:32.845,5 Nov 2022 04:34:22.303,409.458
523,5 Nov 2022 16:08:08.740,5 Nov 2022 16:16:02.524,473.784
524,6 Nov 2022 02:50:10.511,6 Nov 2022 02:54:54.432,283.920
525,6 Nov 2022 04:24:14.885,6 Nov 2022 04:31:05.957,411.072
526,6 Nov 2022 16:04:51.536,6 Nov 2022 16:12:45.705,474.170
527,7 Nov 2022 02:46:55.417,7 Nov 2022 02:51:35.817,280.400
528,7 Nov 2022 04:20:56.939,7 Nov 2022 04:27:49.598,412.660
529,7 Nov 2022 16:01:34.337,7 Nov 2022 16:09:28.885,474.548
530,8 Nov 2022 02:43:40.353,8 Nov 2022 02:48:17.169,276.816
531,8 Nov 2022 04:17:39.005,8 Nov 2022 04:24:33.228,414.223
532,8 Nov 2022 15:58:17.145,8 Nov 2022 16:06:12.055,474.910
533,9 Nov 2022 02:40:25.331,9 Nov 2022 02:44:58.488,273.157
534,9 Nov 2022 04:14:21.085,9 Nov 2022 04:21:16.849,415.764
535,9 Nov 2022 15:54:59.959,9 Nov 2022 16:02:55.215,475.257
536,10 Nov 2022 02:37:10.347,10 Nov 2022 02:41:39.771,269.424
537,10 Nov 2022 04:11:03.177,10 Nov 2022 04:18:00.459,417.282
538,10 Nov 2022 15:51:42.778,10 Nov 2022 15:59:38.367,475.589
539,11 Nov 2022 02:33:55.403,11 Nov 2022 02:38:21.021,265.618
540,11 Nov 2022 04:07:45.282,11 Nov 2022 04:14:44.057,418.775
541,11 Nov 2022 15:48:25.603,11 Nov 2022 15:56:21.510,475.907
542,12 Nov 2022 02:30:40.500,12 Nov 2022 02:35:02.225,261.725
543,12 Nov 2022 04:04:27.399,12 Nov 2022 04:11:27.647,420.249
544,12 Nov 2022 15:45:08.435,12 Nov 2022 15:53:04.645,476.210
545,13 Nov 2022 02:27:25.641,13 Nov 2022 02:31:43.390,257.749
546,13 Nov 2022 04:01:09.528,13 Nov 2022 04:08:11.226,421.698
547,13 Nov 2022 15:41:51.272,13 Nov 2022 15:49:47.771,476.500
548,14 Nov 2022 02:24:10.827,14 Nov 2022 02:28:24.514,253.687
549,14 Nov 2022 03:57:51.670,14 Nov 2022 04:04:54.797,423.127
550,14 Nov 2022 15:38:34.115,14 Nov 2022 15:46:30.889,476.775
551,15 Nov 2022 02:20:56.060,15 Nov 2022 02:25:05.593,249.533
552,15 Nov 2022 03:54:33.824,15 Nov 2022 04:01:38.357,424.533
553,15 Nov 2022 15:35:16.964,15 Nov 2022 15:43:13.999,477.035
554,16 Nov 2022 02:17:41.343,16 Nov 2022 02:21:46.625,245.282
555,16 Nov 2022 03:51:15.990,16 Nov 2022 03:58:21.902,425.912
556,16 Nov 2022 15:31:59.819,16 Nov 2022 15:39:57.101,477.282
557,17 Nov 2022 02:14:26.679,17 Nov 2022 02:18:27.608,240.929
558,17 Nov 2022 03:47:58.168,17 Nov 2022 03:55:05.444,427.276
559,17 Nov 2022 15:28:42.680,17 Nov 2022 15:36:40.190,477.510
560,18 Nov 2022 02:11:12.070,18 Nov 2022 02:15:08.539,236.469
561,18 Nov 2022 03:44:40.358,18 Nov 2022 03:51:48.978,428.620
562,18 Nov 2022 15:25:25.547,18 Nov 2022 15:33:23.274,477.727
563,19 Nov 2022 02:07:57.519,19 Nov 2022 02:11:49.417,231.898
564,19 Nov 2022 03:41:22.560,19 Nov 2022 03:48:32.500,429.940
565,19 Nov 2022 15:22:08.420,19 Nov 2022 15:30:06.353,477.933
566,20 Nov 2022 02:04:43.030,20 Nov 2022 02:08:30.233,227.203
567,20 Nov 2022 03:38:04.773,20 Nov 2022 03:45:16.012,431.239
568,20 Nov 2022 15:18:51.299,20 Nov 2022 15:26:49.421,478.123
569,21 Nov 2022 02:01:28.606,21 Nov 2022 02:05:10.987,222.381
570,21 Nov 2022 03:34:46.998,21 Nov 2022 03:41:59.516,432.517
571,21 Nov 2022 15:15:34.183,21 Nov 2022 15:23:32.481,478.298
572,22 Nov 2022 01:58:14.252,22 Nov 2022 02:01:51.673,217.421
573,22 Nov 2022 03:31:29.235,22 Nov 2022 03:38:43.010,433.775
574,22 Nov 2022 15:12:17.074,22 Nov 2022 15:20:15.533,478.459
575,23 Nov 2022 01:54:59.974,23 Nov 2022 01:58:32.283,212.309
576,23 Nov 2022 03:28:11.482,23 Nov 2022 03:35:26.493,435.011
577,23 Nov 2022 15:08:59.971,23 Nov 2022 15:16:58.577,478.606
578,24 Nov 2022 01:51:45.775,24 Nov 2022 01:55:12.822,207.046
579,24 Nov 2022 03:24:53.741,24 Nov 2022 03:32:09.969,436.229
580,24 Nov 2022 15:05:42.873,24 Nov 2022 15:13:41.612,478.739
581,25 Nov 2022 01:48:31.663,25 Nov 2022 01:51:53.271,201.608
582,25 Nov 2022 03:21:36.011,25 Nov 2022 03:28:53.437,437.426
583,25 Nov 2022 15:02:25.781,25 Nov 2022 15:10:24.639,478.858
584,26 Nov 2022 01:45:17.644,26 Nov 2022 01:48:33.633,195.990
585,26 Nov 2022 03:18:18.291,26 Nov 2022 03:25:36.895,438.604
586,26 Nov 2022 14:59:08.695,26 Nov 2022 15:07:07.657,478.962
587,27 Nov 2022 01:42:03.726,27 Nov 2022 01:45:13.897,190.171
588,27 Nov 2022 03:15:00.582,27 Nov 2022 03:22:20.347,439.765
589,27 Nov 2022 14:55:51.614,27 Nov 2022 15:03:50.667,479.053
590,28 Nov 2022 01:38:49.919,28 Nov 2022 01:41:54.054,184.135
591,28 Nov 2022 03:11:42.885,28 Nov 2022 03:19:03.789,440.904
592,28 Nov 2022 14:52:34.540,28 Nov 2022 15:00:33.669,479.129
593,29 Nov 2022 01:35:36.234,29 Nov 2022 01:38:34.092,177.858
594,29 Nov 2022 03:08:25.198,29 Nov 2022 03:15:47.221,442.024
595,29 Nov 2022 14:49:17.471,29 Nov 2022 14:57:16.663,479.191
596,30 Nov 2022 01:32:22.684,30 Nov 2022 01:35:13.996,171.312
597,30 Nov 2022 03:05:07.521,30 Nov 2022 03:12:30.646,443.125
598,30 Nov 2022 14:46:00.409,30 Nov 2022 14:53:59.648,479.240
599,1 Dec 2022 01:29:09.286,1 Dec 2022 01:31:53.752,164.466
600,1 Dec 2022 03:01:49.856,1 Dec 2022 03:09:14.063,444.207
601,1 Dec 2022 14:42:43.352,1 Dec 2022 14:50:42.628,479.276
602,2 Dec 2022 01:25:56.058,2 Dec 2022 01:28:33.339,157.281
603,2 Dec 2022 02:58:32.201,2 Dec 2022 03:05:57.474,445.273
604,2 Dec 2022 14:39:26.302,2 Dec 2022 14:47:25.598,479.296
605,3 Dec 2022 01:22:43.027,3 Dec 2022 01:25:12.734,149.708
606,3 Dec 2022 02:55:14.557,3 Dec 2022 03:02:40.875,446.318
607,3 Dec 2022 14:36:09.257,3 Dec 2022 14:44:08.559,479.302
608,4 Dec 2022 01:19:30.222,4 Dec 2022 01:21:51.906,141.684
609,4 Dec 2022 02:51:56.923,4 Dec 2022 02:59:24.268,447.345
610,4 Dec 2022 14:32:52.218,4 Dec 2022 14:40:51.509,479.291
611,5 Dec 2022 01:16:17.685,5 Dec 2022 01:18:30.813,133.128
612,5 Dec 2022 02:48:39.299,5 Dec 2022 02:56:07.652,448.353
613,5 Dec 2022 14:29:35.186,5 Dec 2022 14:37:34.454,479.268
614,6 Dec 2022 01:13:05.470,6 Dec 2022 01:15:09.397,123.926
615,6 Dec 2022 02:45:21.686,6 Dec 2022 02:52:51.029,449.343
616,6 Dec 2022 14:26:18.159,6 Dec 2022 14:34:17.390,479.232
617,7 Dec 2022 01:09:53.653,7 Dec 2022 01:11:47.590,113.937
618,7 Dec 2022 02:42:04.083,7 Dec 2022 02:49:34.399,450.316
619,7 Dec 2022 14:23:01.138,7 Dec 2022 14:31:00.318,479.181
620,8 Dec 2022 01:06:42.353,8 Dec 2022 01:08:25.267,102.914
621,8 Dec 2022 02:38:46.490,8 Dec 2022 02:46:17.761,451.271
622,8 Dec 2022 14:19:44.122,8 Dec 2022 14:27:43.238,479.116
623,9 Dec 2022 01:03:31.757,9 Dec 2022 01:05:02.244,90.487
624,9 Dec 2022 02:35:28.906,9 Dec 2022 02:43:01.115,452.208
625,9 Dec 2022 14:16:27.113,9 Dec 2022 14:24:26.149,479.036
626,10 Dec 2022 01:00:22.205,10 Dec 2022 01:01:38.173,75.968
627,10 Dec 2022 02:32:11.333,10 Dec 2022 02:39:44.461,453.128
628,10 Dec 2022 14:13:10.109,10 Dec 2022 14:21:09.053,478.943
629,11 Dec 2022 00:57:14.474,11 Dec 2022 00:58:12.290,57.815
630,11 Dec 2022 02:28:53.770,11 Dec 2022 02:36:27.800,454.030
631,11 Dec 2022 14:09:53.112,11 Dec 2022 14:17:51.947,478.835
632,12 Dec 2022 00:54:11.572,12 Dec 2022 00:54:41.584,30.011
633,12 Dec 2022 02:25:36.216,12 Dec 2022 02:33:11.132,454.916
634,12 Dec 2022 14:06:36.120,12 Dec 2022 14:14:34.834,478.713
635,13 Dec 2022 02:22:18.672,13 Dec 2022 02:29:54.454,455.782
636,13 Dec 2022 14:03:19.135,13 Dec 2022 14:11:17.712,478.577
637,14 Dec 2022 02:19:01.138,14 Dec 2022 02:26:37.773,456.635
638,14 Dec 2022 14:00:02.155,14 Dec 2022 14:08:00.582,478.427
639,15 Dec 2022 02:15:43.614,15 Dec 2022 02:23:21.081,457.467
640,15 Dec 2022 13:56:45.181,15 Dec 2022 14:04:43.443,478.262
641,16 Dec 2022 02:12:26.100,16 Dec 2022 02:20:04.382,458.283
642,16 Dec 2022 13:53:28.214,16 Dec 2022 14:01:26.296,478.082
643,17 Dec 2022 02:09:08.595,17 Dec 2022 02:16:47.678,459.084
644,17 Dec 2022 13:50:11.252,17 Dec 2022 13:58:09.139,477.887
645,18 Dec 2022 02:05:51.099,18 Dec 2022 02:13:30.965,459.866
646,18 Dec 2022 13:46:54.297,18 Dec 2022 13:54:51.976,477.679
647,19 Dec 2022 02:02:33.614,19 Dec 2022 02:10:14.245,460.632
648,19 Dec 2022 13:43:37.348,19 Dec 2022 13:51:34.808,477.460
649,20 Dec 2022 01:59:16.138,20 Dec 2022 02:06:57.518,461.381
650,20 Dec 2022 13:40:20.405,20 Dec 2022 13:48:17.627,477.223
651,21 Dec 2022 01:55:58.671,21 Dec 2022 02:03:40.787,462.116
652,21 Dec 2022 13:37:03.467,21 Dec 2022 13:45:00.438,476.971
653,22 Dec 2022 01:52:41.213,22 Dec 2022 02:00:24.046,462.833
654,22 Dec 2022 13:33:46.536,22 Dec 2022 13:41:43.241,476.705
655,23 Dec 2022 01:49:23.765,23 Dec 2022 01:57:07.298,463.533
656,23 Dec 2022 13:30:29.611,23 Dec 2022 13:38:26.035,476.424
657,24 Dec 2022 01:46:06.325,24 Dec 2022 01:53:50.543,464.217
658,24 Dec 2022 13:27:12.691,24 Dec 2022 13:35:08.820,476.129
659,25 Dec 2022 01:42:48.895,25 Dec 2022 01:50:33.781,464.886
660,25 Dec 2022 13:23:55.778,25 Dec 2022 13:31:51.597,475.819
661,26 Dec 2022 01:39:31.474,26 Dec 2022 01:47:17.012,465.538
662,26 Dec 2022 13:20:38.871,26 Dec 2022 13:28:34.365,475.494
663,27 Dec 2022 01:36:14.062,27 Dec 2022 01:44:00.236,466.174
664,27 Dec 2022 13:17:21.970,27 Dec 2022 13:25:17.125,475.155
665,28 Dec 2022 01:32:56.659,28 Dec 2022 01:40:43.454,466.795
666,28 Dec 2022 13:14:05.076,28 Dec 2022 13:21:59.873,474.797
667,29 Dec 2022 01:29:39.266,29 Dec 2022 01:37:26.666,467.400
668,29 Dec 2022 13:10:48.188,29 Dec 2022 13:18:42.614,474.427
669,30 Dec 2022 01:26:21.882,30 Dec 2022 01:34:09.871,467.989
670,30 Dec 2022 13:07:31.306,30 Dec 2022 13:15:25.353,474.047
671,31 Dec 2022 01:23:04.507,31 Dec 2022 01:30:53.069,468.563
672,31 Dec 2022 13:04:14.430,31 Dec 2022 13:12:08.076,473.646
673,1 Jan 2023 01:19:47.140,1 Jan 2023 01:27:36.261,469.121
674,1 Jan 2023 13:00:57.561,1 Jan 2023 13:08:50.793,473.232
675,2 Jan 2023 01:16:29.783,2 Jan 2023 01:24:19.447,469.664
676,2 Jan 2023 12:57:40.698,2 Jan 2023 13:05:33.502,472.804
677,3 Jan 2023 01:13:12.435,3 Jan 2023 01:21:02.625,470.191
678,3 Jan 2023 12:54:23.842,3 Jan 2023 13:02:16.200,472.358
679,4 Jan 2023 01:09:55.095,4 Jan 2023 01:17:45.798,470.703
680,4 Jan 2023 12:51:06.991,4 Jan 2023 12:58:58.891,471.899
681,5 Jan 2023 01:06:37.764,5 Jan 2023 01:14:28.963,471.199
682,5 Jan 2023 12:47:50.147,5 Jan 2023 12:55:41.573,471.426
683,6 Jan 2023 01:03:20.442,6 Jan 2023 01:11:12.122,471.680
684,6 Jan 2023 12:44:33.310,6 Jan 2023 12:52:24.246,470.937
685,7 Jan 2023 01:00:03.128,7 Jan 2023 01:07:55.276,472.148
686,7 Jan 2023 12:41:16.478,7 Jan 2023 12:49:06.910,470.432
687,8 Jan 2023 00:56:45.824,8 Jan 2023 01:04:38.422,472.598
688,8 Jan 2023 12:37:59.653,8 Jan 2023 12:45:49.566,469.912
689,9 Jan 2023 00:53:28.528,9 Jan 2023 01:01:21.562,473.034
690,9 Jan 2023 12:34:42.835,9 Jan 2023 12:42:32.212,469.377
691,10 Jan 2023 00:50:11.240,10 Jan 2023 00:58:04.698,473.458
692,10 Jan 2023 12:31:26.024,10 Jan 2023 12:39:14.850,468.826
693,11 Jan 2023 00:46:53.962,11 Jan 2023 00:54:47.826,473.864
694,11 Jan 2023 12:28:09.218,11 Jan 2023 12:35:57.479,468.260
695,12 Jan 2023 00:43:36.692,12 Jan 2023 00:51:30.943,474.252
696,12 Jan 2023 12:24:52.420,12 Jan 2023 12:32:40.099,467.678
697,13 Jan 2023 00:40:19.431,13 Jan 2023 00:48:14.061,474.631
698,13 Jan 2023 12:21:35.629,13 Jan 2023 12:29:22.710,467.081
699,14 Jan 2023 00:37:02.178,14 Jan 2023 00:44:57.171,474.993
700,14 Jan 2023 12:18:18.844,14 Jan 2023 12:26:05.311,466.468
701,15 Jan 2023 00:33:44.934,15 Jan 2023 00:41:40.273,475.339
702,15 Jan 2023 12:15:02.066,15 Jan 2023 12:22:47.904,465.839
703,16 Jan 2023 00:30:27.699,16 Jan 2023 00:38:23.370,475.671
704,16 Jan 2023 12:11:45.294,16 Jan 2023 12:19:30.488,465.194
705,17 Jan 2023 00:27:10.472,17 Jan 2023 00:35:06.460,475.988
706,17 Jan 2023 12:08:28.530,17 Jan 2023 12:16:13.063,464.533
707,18 Jan 2023 00:23:53.254,18 Jan 2023 00:31:49.544,476.290
708,18 Jan 2023 12:05:11.772,18 Jan 2023 12:12:55.629,463.857
709,19 Jan 2023 00:20:36.044,19 Jan 2023 00:28:32.622,476.578
710,19 Jan 2023 12:01:55.020,19 Jan 2023 12:09:38.185,463.165
711,20 Jan 2023 00:17:18.842,20 Jan 2023 00:25:15.691,476.849
712,20 Jan 2023 11:58:38.276,20 Jan 2023 12:06:20.733,462.456
713,21 Jan 2023 00:14:01.649,21 Jan 2023 00:21:58.756,477.107
714,21 Jan 2023 11:55:21.539,21 Jan 2023 12:03:03.270,461.732
715,22 Jan 2023 00:10:44.464,22 Jan 2023 00:18:41.815,477.350
716,22 Jan 2023 11:52:04.808,22 Jan 2023 11:59:45.796,460.988
717,23 Jan 2023 00:07:27.288,23 Jan 2023 00:15:24.867,477.580
718,23 Jan 2023 11:48:48.085,23 Jan 2023 11:56:28.315,460.230
719,24 Jan 2023 00:04:10.120,24 Jan 2023 00:12:07.914,477.794
720,24 Jan 2023 11:45:31.369,24 Jan 2023 11:53:10.825,459.456
721,25 Jan 2023 00:00:52.960,25 Jan 2023 00:08:50.955,477.994
722,25 Jan 2023 11:42:14.660,25 Jan 2023 11:49:53.325,458.666
723,25 Jan 2023 23:57:35.810,26 Jan 2023 00:05:33.990,478.180
724,26 Jan 2023 11:38:57.958,26 Jan 2023 11:46:35.814,457.856
725,26 Jan 2023 23:54:18.667,27 Jan 2023 00:02:17.021,478.354
726,27 Jan 2023 11:35:41.264,27 Jan 2023 11:43:18.299,457.035
727,27 Jan 2023 23:51:01.533,27 Jan 2023 23:59:00.044,478.511
728,28 Jan 2023 11:32:24.577,28 Jan 2023 11:40:00.767,456.190
729,28 Jan 2023 23:47:44.408,28 Jan 2023 23:55:43.062,478.654
730,29 Jan 2023 11:29:07.897,29 Jan 2023 11:36:43.227,455.330
731,29 Jan 2023 23:44:27.290,29 Jan 2023 23:52:26.073,478.783
732,30 Jan 2023 11:25:51.225,30 Jan 2023 11:33:25.678,454.453
733,30 Jan 2023 13:04:12.369,30 Jan 2023 13:04:59.066,46.698
734,30 Jan 2023 23:41:10.181,30 Jan 2023 23:49:09.079,478.897
735,31 Jan 2023 11:22:34.560,31 Jan 2023 11:30:08.120,453.560
736,31 Jan 2023 13:00:44.946,31 Jan 2023 13:01:52.877,67.930
737,31 Jan 2023 23:37:53.081,31 Jan 2023 23:45:52.078,478.997
738,1 Feb 2023 11:19:17.903,1 Feb 2023 11:26:50.552,452.649
739,1 Feb 2023 12:57:20.165,1 Feb 2023 12:58:44.045,83.879
740,1 Feb 2023 23:34:35.988,1 Feb 2023 23:42:35.071,479.083
741,2 Feb 2023 11:16:01.253,2 Feb 2023 11:23:32.973,451.721
742,2 Feb 2023 12:53:56.705,2 Feb 2023 12:55:33.888,97.182
743,2 Feb 2023 23:31:18.904,2 Feb 2023 23:39:18.059,479.155
744,3 Feb 2023 11:12:44.611,3 Feb 2023 11:20:15.385,450.774
745,3 Feb 2023 12:50:34.079,3 Feb 2023 12:52:22.891,108.812
746,3 Feb 2023 23:28:01.828,3 Feb 2023 23:36:01.040,479.212
747,4 Feb 2023 11:09:27.976,4 Feb 2023 11:16:57.786,449.811
748,4 Feb 2023 12:47:12.045,4 Feb 2023 12:49:11.302,119.257
749,4 Feb 2023 23:24:44.760,4 Feb 2023 23:32:44.015,479.255
750,5 Feb 2023 11:06:11.349,5 Feb 2023 11:13:40.178,448.829
751,5 Feb 2023 12:43:50.454,5 Feb 2023 12:45:59.261,128.807
752,5 Feb 2023 23:21:27.701,5 Feb 2023 23:29:26.985,479.284
753,6 Feb 2023 11:02:54.730,6 Feb 2023 11:10:22.559,447.829
754,6 Feb 2023 12:40:29.218,6 Feb 2023 12:42:46.871,137.653
755,6 Feb 2023 23:18:10.649,6 Feb 2023 23:26:09.949,479.299
756,7 Feb 2023 10:59:38.119,7 Feb 2023 11:07:04.930,446.811
757,7 Feb 2023 12:37:08.268,7 Feb 2023 12:39:34.187,145.919
758,7 Feb 2023 23:14:53.607,7 Feb 2023 23:22:52.907,479.300
759,8 Feb 2023 10:56:21.516,8 Feb 2023 11:03:47.292,445.776
760,8 Feb 2023 12:33:47.560,8 Feb 2023 12:36:21.258,153.699
761,8 Feb 2023 23:11:36.572,8 Feb 2023 23:19:35.859,479.287
762,9 Feb 2023 10:53:04.921,9 Feb 2023 11:00:29.642,444.721
763,9 Feb 2023 12:30:27.058,9 Feb 2023 12:33:08.120,161.062
764,9 Feb 2023 23:08:19.546,9 Feb 2023 23:16:18.805,479.259
765,10 Feb 2023 10:49:48.334,10 Feb 2023 10:57:11.983,443.648
766,10 Feb 2023 12:27:06.736,10 Feb 2023 12:29:54.801,168.065
767,10 Feb 2023 23:05:02.528,10 Feb 2023 23:13:01.746,479.217
768,11 Feb 2023 10:46:31.756,11 Feb 2023 10:53:54.310,442.554
769,11 Feb 2023 12:23:46.572,11 Feb 2023 12:26:41.321,174.749
770,11 Feb 2023 23:01:45.519,11 Feb 2023 23:09:44.680,479.162
771,12 Feb 2023 10:43:15.186,12 Feb 2023 10:50:36.629,441.443
772,12 Feb 2023 12:20:26.548,12 Feb 2023 12:23:27.698,181.150
773,12 Feb 2023 22:58:28.518,12 Feb 2023 23:06:27.609,479.092
774,13 Feb 2023 10:39:58.624,13 Feb 2023 10:47:18.938,440.314
775,13 Feb 2023 12:17:06.649,13 Feb 2023 12:20:13.946,187.297
776,13 Feb 2023 22:55:11.525,13 Feb 2023 23:03:10.532,479.008
777,14 Feb 2023 10:36:42.070,14 Feb 2023 10:44:01.236,439.165
778,14 Feb 2023 12:13:46.864,14 Feb 2023 12:17:00.078,193.214
779,14 Feb 2023 22:51:54.540,14 Feb 2023 22:59:53.449,478.909
780,15 Feb 2023 10:33:25.525,15 Feb 2023 10:40:43.520,437.995
781,15 Feb 2023 12:10:27.181,15 Feb 2023 12:13:46.105,198.924
782,15 Feb 2023 22:48:37.563,15 Feb 2023 22:56:36.360,478.797
783,16 Feb 2023 10:30:08.989,16 Feb 2023 10:37:25.797,436.808
784,16 Feb 2023 12:07:07.593,16 Feb 2023 12:10:32.035,204.442
785,16 Feb 2023 22:45:20.595,16 Feb 2023 22:53:19.266,478.670
786,17 Feb 2023 10:26:52.461,17 Feb 2023 10:34:08.064,435.604
787,17 Feb 2023 12:03:48.091,17 Feb 2023 12:07:17.878,209.787
788,17 Feb 2023 22:42:03.635,17 Feb 2023 22:50:02.165,478.530
789,18 Feb 2023 10:23:35.941,18 Feb 2023 10:30:50.317,434.376
790,18 Feb 2023 12:00:28.669,18 Feb 2023 12:04:03.635,214.965
791,18 Feb 2023 22:38:46.683,18 Feb 2023 22:46:45.058,478.375
792,19 Feb 2023 10:20:19.431,19 Feb 2023 10:27:32.558,433.128
793,19 Feb 2023 11:57:09.322,19 Feb 2023 12:00:49.319,219.997
794,19 Feb 2023 22:35:29.739,19 Feb 2023 22:43:27.945,478.206
795,20 Feb 2023 10:17:02.929,20 Feb 2023 10:24:14.789,431.859
796,20 Feb 2023 11:53:50.044,20 Feb 2023 11:57:34.928,224.884
797,20 Feb 2023 22:32:12.804,20 Feb 2023 22:40:10.827,478.023
798,21 Feb 2023 10:13:46.437,21 Feb 2023 10:20:57.007,430.571
799,21 Feb 2023 11:50:30.830,21 Feb 2023 11:54:20.470,229.640
800,21 Feb 2023 22:28:55.877,21 Feb 2023 22:36:53.700,477.823
801,22 Feb 2023 10:10:29.954,22 Feb 2023 10:17:39.214,429.261
802,22 Feb 2023 11:47:11.677,22 Feb 2023 11:51:05.948,234.271
803,22 Feb 2023 22:25:38.958,22 Feb 2023 22:33:36.570,477.612
804,23 Feb 2023 10:07:13.480,23 Feb 2023 10:14:21.407,427.927
805,23 Feb 2023 11:43:52.582,23 Feb 2023 11:47:51.363,238.782
806,23 Feb 2023 22:22:22.048,23 Feb 2023 22:30:19.435,477.387
807,24 Feb 2023 10:03:57.016,24 Feb 2023 10:11:03.595,426.579
808,24 Feb 2023 11:40:33.540,24 Feb 2023 11:44:36.725,243.185
809,24 Feb 2023 22:19:05.146,24 Feb 2023 22:27:02.293,477.147
810,25 Feb 2023 10:00:40.561,25 Feb 2023 10:07:45.767,425.206
811,25 Feb 2023 11:37:14.550,25 Feb 2023 11:41:22.033,247.483
812,25 Feb 2023 22:15:48.253,25 Feb 2023 22:23:45.146,476.893
813,26 Feb 2023 09:57:24.116,26 Feb 2023 10:04:27.926,423.810
814,26 Feb 2023 11:33:55.608,26 Feb 2023 11:38:07.290,251.682
815,26 Feb 2023 22:12:31.368,26 Feb 2023 22:20:27.993,476.625
816,27 Feb 2023 09:54:07.681,27 Feb 2023 10:01:10.072,422.392
817,27 Feb 2023 11:30:36.711,27 Feb 2023 11:34:52.498,255.787
818,27 Feb 2023 22:09:14.491,27 Feb 2023 22:17:10.835,476.344
819,28 Feb 2023 09:50:51.255,28 Feb 2023 09:57:52.209,420.955
820,28 Feb 2023 11:27:17.859,28 Feb 2023 11:31:37.660,259.801
821,28 Feb 2023 22:05:57.622,28 Feb 2023 22:13:53.669,476.047
822,1 Mar 2023 09:47:34.839,1 Mar 2023 09:54:34.332,419.493
823,1 Mar 2023 11:23:59.052,1 Mar 2023 11:28:22.778,263.726
824,1 Mar 2023 22:02:40.762,1 Mar 2023 22:10:36.498,475.736
825,2 Mar 2023 09:44:18.433,2 Mar 2023 09:51:16.444,418.012
826,2 Mar 2023 11:20:40.280,2 Mar 2023 11:25:07.856,267.576
827,2 Mar 2023 21:59:23.910,2 Mar 2023 22:07:19.320,475.410
828,3 Mar 2023 09:41:02.037,3 Mar 2023 09:47:58.542,416.505
829,3 Mar 2023 11:17:21.546,3 Mar 2023 11:21:52.888,271.341
830,3 Mar 2023 21:56:07.066,3 Mar 2023 22:04:02.136,475.070
831,4 Mar 2023 09:37:45.651,4 Mar 2023 09:44:40.627,414.976
832,4 Mar 2023 11:14:02.849,4 Mar 2023 11:18:37.884,275.035
833,4 Mar 2023 21:52:50.231,4 Mar 2023 22:00:44.946,474.715
834,5 Mar 2023 09:34:29.276,5 Mar 2023 09:41:22.700,413.424
835,5 Mar 2023 11:10:44.186,5 Mar 2023 11:15:22.842,278.657
836,5 Mar 2023 21:49:33.404,5 Mar 2023 21:57:27.750,474.346
837,6 Mar 2023 09:31:12.912,6 Mar 2023 09:38:04.761,411.849
838,6 Mar 2023 11:07:25.556,6 Mar 2023 11:12:07.765,282.209
839,6 Mar 2023 21:46:16.585,6 Mar 2023 21:54:10.546,473.960
840,7 Mar 2023 09:27:56.558,7 Mar 2023 09:34:46.808,410.249
841,7 Mar 2023 11:04:06.959,7 Mar 2023 11:08:52.653,285.694
842,7 Mar 2023 21:42:59.775,7 Mar 2023 21:50:53.336,473.560
843,8 Mar 2023 09:24:40.216,8 Mar 2023 09:31:28.842,408.626
844,8 Mar 2023 11:00:48.392,8 Mar 2023 11:05:37.508,289.115
845,8 Mar 2023 21:39:42.974,8 Mar 2023 21:47:36.126,473.152
846,9 Mar 2023 09:21:23.884,9 Mar 2023 09:28:10.860,406.976
847,9 Mar 2023 10:57:29.855,9 Mar 2023 11:02:22.330,292.475
848,9 Mar 2023 21:36:26.181,9 Mar 2023 21:44:18.905,472.724
849,10 Mar 2023 09:18:07.564,10 Mar 2023 09:24:52.867,405.303
850,10 Mar 2023 10:54:11.346,10 Mar 2023 10:59:07.120,295.774
851,10 Mar 2023 21:33:09.397,10 Mar 2023 21:41:01.678,472.281
852,11 Mar 2023 09:14:51.256,11 Mar 2023 09:21:34.861,403.605
853,11 Mar 2023 10:50:52.867,11 Mar 2023 10:55:51.881,299.013
854,11 Mar 2023 21:29:52.621,11 Mar 2023 21:37:44.447,471.826
855,12 Mar 2023 09:11:34.958,12 Mar 2023 09:18:16.840,401.882
856,12 Mar 2023 10:47:34.415,12 Mar 2023 10:52:36.611,302.196
857,12 Mar 2023 21:26:35.854,12 Mar 2023 21:34:27.207,471.353
858,13 Mar 2023 09:08:18.673,13 Mar 2023 09:14:58.804,400.131
859,13 Mar 2023 10:44:15.986,13 Mar 2023 10:49:21.312,305.326
860,13 Mar 2023 21:23:19.095,13 Mar 2023 21:31:09.963,470.868
861,14 Mar 2023 09:05:02.399,14 Mar 2023 09:11:40.755,398.357
862,14 Mar 2023 10:40:57.582,14 Mar 2023 10:46:05.986,308.404
863,14 Mar 2023 21:20:02.345,14 Mar 2023 21:27:52.713,470.368
864,15 Mar 2023 09:01:46.137,15 Mar 2023 09:08:22.695,396.558
865,15 Mar 2023 10:37:39.208,15 Mar 2023 10:42:50.628,311.421
866,15 Mar 2023 21:16:45.603,15 Mar 2023 21:24:35.456,469.853
867,16 Mar 2023 08:58:29.887,16 Mar 2023 09:05:04.616,394.729
868,16 Mar 2023 10:34:20.853,16 Mar 2023 10:39:35.249,314.397
869,16 Mar 2023 21:13:28.870,16 Mar 2023 21:21:18.193,469.324
870,17 Mar 2023 08:55:13.649,17 Mar 2023 09:01:46.522,392.873
871,17 Mar 2023 10:31:02.521,17 Mar 2023 10:36:19.844,317.323
872,17 Mar 2023 21:10:12.145,17 Mar 2023 21:18:00.924,468.779
873,18 Mar 2023 08:51:57.424,18 Mar 2023 08:58:28.413,390.989
874,18 Mar 2023 10:27:44.211,18 Mar 2023 10:33:04.413,320.203
875,18 Mar 2023 21:06:55.429,18 Mar 2023 21:14:43.649,468.220
876,19 Mar 2023 08:48:41.212,19 Mar 2023 08:55:10.289,389.077
877,19 Mar 2023 10:24:25.923,19 Mar 2023 10:29:48.959,323.036
878,19 Mar 2023 21:03:38.721,19 Mar 2023 21:11:26.367,467.646
879,20 Mar 2023 08:45:25.014,20 Mar 2023 08:51:52.149,387.135
880,20 Mar 2023 10:21:07.656,20 Mar 2023 10:26:33.480,325.824
881,20 Mar 2023 21:00:22.023,20 Mar 2023 21:08:09.079,467.057
882,21 Mar 2023 08:42:08.829,21 Mar 2023 08:48:33.991,385.162
883,21 Mar 2023 10:17:49.411,21 Mar 2023 10:23:17.979,328.568
884,21 Mar 2023 20:57:05.333,21 Mar 2023 21:04:51.785,466.452
885,22 Mar 2023 08:38:52.657,22 Mar 2023 08:45:15.818,383.161
886,22 Mar 2023 10:14:31.185,22 Mar 2023 10:20:02.455,331.270
887,22 Mar 2023 20:53:48.652,22 Mar 2023 21:01:34.485,465.833
888,23 Mar 2023 08:35:36.499,23 Mar 2023 08:41:57.635,381.136
889,23 Mar 2023 10:11:12.975,23 Mar 2023 10:16:46.910,333.935
890,23 Mar 2023 20:50:31.980,23 Mar 2023 20:58:17.178,465.199
891,24 Mar 2023 08:32:20.356,24 Mar 2023 08:38:39.431,379.075
892,24 Mar 2023 10:07:54.788,24 Mar 2023 10:13:31.342,336.554
893,24 Mar 2023 20:47:15.316,24 Mar 2023 20:54:59.866,464.549
894,25 Mar 2023 08:29:04.227,25 Mar 2023 08:35:21.210,376.984
895,25 Mar 2023 10:04:36.620,25 Mar 2023 10:10:15.754,339.134
896,25 Mar 2023 20:43:58.662,25 Mar 2023 20:51:42.547,463.885
897,26 Mar 2023 08:25:48.112,26 Mar 2023 08:32:02.970,374.858
898,26 Mar 2023 10:01:18.470,26 Mar 2023 10:07:00.145,341.675
899,26 Mar 2023 20:40:42.016,26 Mar 2023 20:48:25.222,463.205
900,27 Mar 2023 08:22:32.012,27 Mar 2023 08:28:44.715,372.704
901,27 Mar 2023 09:58:00.337,27 Mar 2023 10:03:44.516,344.179
902,27 Mar 2023 20:37:25.380,27 Mar 2023 20:45:07.890,462.510
903,28 Mar 2023 08:19:15.927,28 Mar 2023 08:25:26.444,370.517
904,28 Mar 2023 09:54:42.219,28 Mar 2023 10:00:28.868,346.649
905,28 Mar 2023 20:34:08.752,28 Mar 2023 20:41:50.551,461.799
906,29 Mar 2023 08:15:59.857,29 Mar 2023 08:22:08.151,368.294
907,29 Mar 2023 09:51:24.119,29 Mar 2023 09:57:13.200,349.081
908,29 Mar 2023 20:30:52.133,29 Mar 2023 20:38:33.206,461.073
909,30 Mar 2023 08:12:43.803,30 Mar 2023 08:18:49.843,366.040
910,30 Mar 2023 09:48:06.036,30 Mar 2023 09:53:57.514,351.478
911,30 Mar 2023 20:27:35.523,30 Mar 2023 20:35:15.852,460.330
912,31 Mar 2023 08:09:27.765,31 Mar 2023 08:15:31.520,363.754
913,31 Mar 2023 09:44:47.969,31 Mar 2023 09:50:41.809,353.841
914,31 Mar 2023 20:24:18.922,31 Mar 2023 20:31:58.494,459.573
915,1 Apr 2023 08:06:11.746,1 Apr 2023 08:12:13.173,361.427
916,1 Apr 2023 09:41:29.917,1 Apr 2023 09:47:26.086,356.170
917,1 Apr 2023 20:21:02.330,1 Apr 2023 20:28:41.130,458.800
918,2 Apr 2023 08:02:55.742,2 Apr 2023 08:08:54.808,359.066
919,2 Apr 2023 09:38:11.880,2 Apr 2023 09:44:10.344,358.464
920,2 Apr 2023 20:17:45.747,2 Apr 2023 20:25:23.756,458.009
921,3 Apr 2023 07:59:39.754,3 Apr 2023 08:05:36.423,356.668
922,3 Apr 2023 09:34:53.856,3 Apr 2023 09:40:54.584,360.728
923,3 Apr 2023 20:14:29.173,3 Apr 2023 20:22:06.378,457.205
924,4 Apr 2023 07:56:23.784,4 Apr 2023 08:02:18.016,354.232
925,4 Apr 2023 09:31:35.849,4 Apr 2023 09:37:38.807,362.958
926,4 Apr 2023 20:11:12.609,4 Apr 2023 20:18:48.994,456.385
927,5 Apr 2023 07:53:07.832,5 Apr 2023 07:58:59.590,351.757
928,5 Apr 2023 09:28:17.857,5 Apr 2023 09:34:23.009,365.152
929,5 Apr 2023 20:07:56.054,5 Apr 2023 20:15:31.602,455.549
930,6 Apr 2023 07:49:51.899,6 Apr 2023 07:55:41.142,349.243
931,6 Apr 2023 09:24:59.879,6 Apr 2023 09:31:07.198,367.319
932,6 Apr 2023 20:04:39.508,6 Apr 2023 20:12:14.203,454.695
933,7 Apr 2023 07:46:35.987,7 Apr 2023 07:52:22.675,346.688
934,7 Apr 2023 09:21:41.915,7 Apr 2023 09:27:51.372,369.457
935,7 Apr 2023 20:01:22.972,7 Apr 2023 20:08:56.796,453.824
936,8 Apr 2023 07:43:20.091,8 Apr 2023 07:49:04.185,344.094
937,8 Apr 2023 09:18:23.965,8 Apr 2023 09:24:35.528,371.564
938,8 Apr 2023 19:58:06.445,8 Apr 2023 20:05:39.383,452.939
939,9 Apr 2023 07:40:04.215,9 Apr 2023 07:45:45.674,341.459
940,9 Apr 2023 09:15:06.028,9 Apr 2023 09:21:19.669,373.641
941,9 Apr 2023 19:54:49.927,9 Apr 2023 20:02:21.964,452.037
942,10 Apr 2023 07:36:48.359,10 Apr 2023 07:42:27.140,338.782
943,10 Apr 2023 09:11:48.104,10 Apr 2023 09:18:03.795,375.690
944,10 Apr 2023 19:51:33.419,10 Apr 2023 19:59:04.537,451.118
945,11 Apr 2023 07:33:32.523,11 Apr 2023 07:39:08.583,336.060
946,11 Apr 2023 09:08:30.193,11 Apr 2023 09:14:47.905,377.711
947,11 Apr 2023 19:48:16.921,11 Apr 2023 19:55:47.104,450.183
948,12 Apr 2023 07:30:16.713,12 Apr 2023 07:35:50.002,333.289
949,12 Apr 2023 09:05:12.295,12 Apr 2023 09:11:31.999,379.704
950,12 Apr 2023 19:45:00.432,12 Apr 2023 19:52:29.663,449.231
951,12 Apr 2023 21:23:56.324,12 Apr 2023 21:24:40.032,43.709
952,13 Apr 2023 07:27:00.921,13 Apr 2023 07:32:31.397,330.476
953,13 Apr 2023 09:01:54.409,13 Apr 2023 09:08:16.078,381.669
954,13 Apr 2023 19:41:43.952,13 Apr 2023 19:49:12.215,448.263
955,13 Apr 2023 21:20:27.257,13 Apr 2023 21:21:34.577,67.320
956,14 Apr 2023 07:23:45.152,14 Apr 2023 07:29:12.766,327.615
957,14 Apr 2023 08:58:36.535,14 Apr 2023 09:05:00.137,383.602
958,14 Apr 2023 19:38:27.482,14 Apr 2023 19:45:54.760,447.278
959,14 Apr 2023 21:17:01.419,14 Apr 2023 21:18:25.906,84.488
960,15 Apr 2023 07:20:29.406,15 Apr 2023 07:25:54.110,324.704
961,15 Apr 2023 08:55:18.673,15 Apr 2023 09:01:44.188,385.515
962,15 Apr 2023 19:35:11.021,15 Apr 2023 19:42:37.298,446.276
963,15 Apr 2023 21:13:37.092,15 Apr 2023 21:15:15.720,98.628
964,16 Apr 2023 07:17:13.684,16 Apr 2023 07:22:35.427,321.743
965,16 Apr 2023 08:52:00.823,16 Apr 2023 08:58:28.225,387.402
966,16 Apr 2023 19:31:54.571,16 Apr 2023 19:39:19.828,445.257
967,16 Apr 2023 21:10:13.697,16 Apr 2023 21:12:04.604,110.907
968,17 Apr 2023 07:13:57.988,17 Apr 2023 07:19:16.717,318.730
969,17 Apr 2023 08:48:42.985,17 Apr 2023 08:55:12.246,389.261
970,17 Apr 2023 19:28:38.130,17 Apr 2023 19:36:02.352,444.221
971,17 Apr 2023 21:06:50.951,17 Apr 2023 21:08:52.842,121.891
972,18 Apr 2023 07:10:42.317,18 Apr 2023 07:15:57.979,315.663
973,18 Apr 2023 08:45:25.159,18 Apr 2023 08:51:56.253,391.094
974,18 Apr 2023 19:25:21.700,18 Apr 2023 19:32:44.865,443.166
975,18 Apr 2023 21:03:28.693,18 Apr 2023 21:05:40.595,131.901
976,19 Apr 2023 07:07:26.668,19 Apr 2023 07:12:39.218,312.550
977,19 Apr 2023 08:42:07.343,19 Apr 2023 08:48:40.245,392.902
978,19 Apr 2023 19:22:05.279,19 Apr 2023 19:29:27.374,442.095
