data/Partner_Institute/Skyhopper_Partner-Milan_Access_1year.csv

"Access","Start Time (UTCG)","Stop Time (UTCG)","Duration (sec)"
1,1 Jun 2022 05:56:04.185,1 Jun 2022 06:03:19.872,435.686
2,1 Jun 2022 07:32:13.427,1 Jun 2022 07:38:11.694,358.267
3,1 Jun 2022 17:31:41.545,1 Jun 2022 17:35:19.481,217.935
4,1 Jun 2022 19:05:21.394,1 Jun 2022 19:13:12.130,470.736
5,2 Jun 2022 05:52:47.755,2 Jun 2022 06:00:02.426,434.671
6,2 Jun 2022 07:28:55.157,2 Jun 2022 07:34:55.434,360.276
7,2 Jun 2022 17:28:26.477,2 Jun 2022 17:31:59.874,213.396
8,2 Jun 2022 19:02:04.153,2 Jun 2022 19:09:55.365,471.213
9,3 Jun 2022 05:49:31.331,3 Jun 2022 05:56:44.975,433.644
10,3 Jun 2022 07:25:36.902,3 Jun 2022 07:31:39.160,362.258
11,3 Jun 2022 17:25:11.470,3 Jun 2022 17:28:40.205,208.735
12,3 Jun 2022 18:58:46.915,3 Jun 2022 19:06:38.595,471.680
13,4 Jun 2022 05:46:14.916,4 Jun 2022 05:53:27.520,432.604
14,4 Jun 2022 07:22:18.661,4 Jun 2022 07:28:22.877,364.216
15,4 Jun 2022 17:21:56.528,4 Jun 2022 17:25:20.468,203.940
16,4 Jun 2022 18:55:29.682,4 Jun 2022 19:03:21.818,472.136
17,5 Jun 2022 05:42:58.508,5 Jun 2022 05:50:10.059,431.551
18,5 Jun 2022 07:19:00.430,5 Jun 2022 07:25:06.582,366.152
19,5 Jun 2022 17:18:41.655,5 Jun 2022 17:22:00.658,199.003
20,5 Jun 2022 18:52:12.452,5 Jun 2022 19:00:05.035,472.583
21,6 Jun 2022 05:39:42.108,6 Jun 2022 05:46:52.592,430.484
22,6 Jun 2022 07:15:42.216,6 Jun 2022 07:21:50.277,368.061
23,6 Jun 2022 17:15:26.858,6 Jun 2022 17:18:40.771,193.913
24,6 Jun 2022 18:48:55.226,6 Jun 2022 18:56:48.245,473.019
25,7 Jun 2022 05:36:25.716,7 Jun 2022 05:43:35.120,429.404
26,7 Jun 2022 07:12:24.016,7 Jun 2022 07:18:33.962,369.946
27,7 Jun 2022 17:12:12.142,7 Jun 2022 17:15:20.800,188.658
28,7 Jun 2022 18:45:38.004,7 Jun 2022 18:53:31.450,473.446
29,8 Jun 2022 05:33:09.331,8 Jun 2022 05:40:17.643,428.312
30,8 Jun 2022 07:09:05.828,8 Jun 2022 07:15:17.636,371.808
31,8 Jun 2022 17:08:57.514,8 Jun 2022 17:12:00.738,183.223
32,8 Jun 2022 18:42:20.785,8 Jun 2022 18:50:14.647,473.862
33,9 Jun 2022 05:29:52.955,9 Jun 2022 05:37:00.167,427.212
34,9 Jun 2022 07:05:47.653,9 Jun 2022 07:12:01.300,373.647
35,9 Jun 2022 17:05:42.984,9 Jun 2022 17:08:40.576,177.592
36,9 Jun 2022 18:39:03.570,9 Jun 2022 18:46:57.839,474.268
37,10 Jun 2022 05:26:36.586,10 Jun 2022 05:33:42.680,426.094
38,10 Jun 2022 07:02:29.492,10 Jun 2022 07:08:44.957,375.465
39,10 Jun 2022 17:02:28.559,10 Jun 2022 17:05:20.303,171.744
40,10 Jun 2022 18:35:46.359,10 Jun 2022 18:43:41.024,474.665
41,11 Jun 2022 05:23:20.225,11 Jun 2022 05:30:25.188,424.962
42,11 Jun 2022 06:59:11.342,11 Jun 2022 07:05:28.602,377.260
43,11 Jun 2022 16:59:14.252,11 Jun 2022 17:01:59.909,165.657
44,11 Jun 2022 18:32:29.152,11 Jun 2022 18:40:24.203,475.051
45,12 Jun 2022 05:20:03.873,12 Jun 2022 05:27:07.689,423.816
46,12 Jun 2022 06:55:53.205,12 Jun 2022 07:02:12.237,379.032
47,12 Jun 2022 16:56:00.077,12 Jun 2022 16:58:39.381,159.304
48,12 Jun 2022 18:29:11.948,12 Jun 2022 18:37:07.377,475.429
49,13 Jun 2022 05:16:47.528,13 Jun 2022 05:23:50.188,422.660
50,13 Jun 2022 06:52:35.080,13 Jun 2022 06:58:55.862,380.782
51,13 Jun 2022 16:52:46.050,13 Jun 2022 16:55:18.701,152.651
52,13 Jun 2022 18:25:54.747,13 Jun 2022 18:33:50.542,475.794
53,14 Jun 2022 05:13:31.191,14 Jun 2022 05:20:32.679,421.488
54,14 Jun 2022 06:49:16.968,14 Jun 2022 06:55:39.478,382.511
55,14 Jun 2022 16:49:32.192,14 Jun 2022 16:51:57.850,145.658
56,14 Jun 2022 18:22:37.550,14 Jun 2022 18:30:33.703,476.153
57,15 Jun 2022 05:10:14.862,15 Jun 2022 05:17:15.168,420.306
58,15 Jun 2022 06:45:58.867,15 Jun 2022 06:52:23.084,384.218
59,15 Jun 2022 16:46:18.529,15 Jun 2022 16:48:36.800,138.270
60,15 Jun 2022 18:19:20.357,15 Jun 2022 18:27:16.857,476.500
61,16 Jun 2022 05:06:58.541,16 Jun 2022 05:13:57.649,419.107
62,16 Jun 2022 06:42:40.778,16 Jun 2022 06:49:06.683,385.905
63,16 Jun 2022 16:43:05.095,16 Jun 2022 16:45:15.515,130.419
64,16 Jun 2022 18:16:03.167,16 Jun 2022 18:24:00.006,476.839
65,17 Jun 2022 05:03:42.229,17 Jun 2022 05:10:40.125,417.896
66,17 Jun 2022 06:39:22.701,17 Jun 2022 06:45:50.273,387.572
67,17 Jun 2022 16:39:51.931,17 Jun 2022 16:41:53.961,122.030
68,17 Jun 2022 18:12:45.981,17 Jun 2022 18:20:43.143,477.162
69,18 Jun 2022 05:00:25.925,18 Jun 2022 05:07:22.595,416.671
70,18 Jun 2022 06:36:04.636,18 Jun 2022 06:42:33.855,389.220
71,18 Jun 2022 16:36:39.101,18 Jun 2022 16:38:32.066,112.966
72,18 Jun 2022 18:09:28.799,18 Jun 2022 18:17:26.279,477.480
73,19 Jun 2022 04:57:09.629,19 Jun 2022 05:04:05.061,415.432
74,19 Jun 2022 06:32:46.582,19 Jun 2022 06:39:17.428,390.846
75,19 Jun 2022 16:33:26.694,19 Jun 2022 16:35:09.751,103.057
76,19 Jun 2022 18:06:11.620,19 Jun 2022 18:14:09.410,477.789
77,20 Jun 2022 04:53:53.342,20 Jun 2022 05:00:47.518,414.176
78,20 Jun 2022 06:29:28.539,20 Jun 2022 06:36:00.991,392.452
79,20 Jun 2022 16:30:14.846,20 Jun 2022 16:31:46.873,92.027
80,20 Jun 2022 18:02:54.445,20 Jun 2022 18:10:52.534,478.089
81,21 Jun 2022 04:50:37.064,21 Jun 2022 04:57:29.972,412.908
82,21 Jun 2022 06:26:10.508,21 Jun 2022 06:32:44.546,394.038
83,21 Jun 2022 16:27:03.786,21 Jun 2022 16:28:23.198,79.412
84,21 Jun 2022 17:59:37.274,21 Jun 2022 18:07:35.650,478.376
85,22 Jun 2022 04:47:20.794,22 Jun 2022 04:54:12.420,411.626
86,22 Jun 2022 06:22:52.488,22 Jun 2022 06:29:28.093,395.605
87,22 Jun 2022 16:23:53.978,22 Jun 2022 16:24:58.273,64.295
88,22 Jun 2022 17:56:20.106,22 Jun 2022 18:04:18.761,478.654
89,23 Jun 2022 04:44:04.532,23 Jun 2022 04:50:54.862,410.329
90,23 Jun 2022 06:19:34.479,23 Jun 2022 06:26:11.630,397.152
91,23 Jun 2022 16:20:46.674,23 Jun 2022 16:21:30.835,44.161
92,23 Jun 2022 17:53:02.942,23 Jun 2022 18:01:01.865,478.922
93,24 Jun 2022 04:40:48.280,24 Jun 2022 04:47:37.298,409.018
94,24 Jun 2022 06:16:16.480,24 Jun 2022 06:22:55.161,398.681
95,24 Jun 2022 17:49:45.782,24 Jun 2022 17:57:44.962,479.181
96,25 Jun 2022 04:37:32.036,25 Jun 2022 04:44:19.727,407.692
97,25 Jun 2022 06:12:58.493,25 Jun 2022 06:19:38.683,400.191
98,25 Jun 2022 17:46:28.625,25 Jun 2022 17:54:28.054,479.429
99,26 Jun 2022 04:34:15.801,26 Jun 2022 04:41:02.151,406.350
100,26 Jun 2022 06:09:40.515,26 Jun 2022 06:16:22.198,401.683
101,26 Jun 2022 17:43:11.471,26 Jun 2022 17:51:11.139,479.668
102,27 Jun 2022 04:30:59.574,27 Jun 2022 04:37:44.566,404.992
103,27 Jun 2022 06:06:22.548,27 Jun 2022 06:13:05.705,403.157
104,27 Jun 2022 17:39:54.321,27 Jun 2022 17:47:54.218,479.897
105,28 Jun 2022 04:27:43.357,28 Jun 2022 04:34:26.977,403.621
106,28 Jun 2022 06:03:04.591,28 Jun 2022 06:09:49.204,404.612
107,28 Jun 2022 17:36:37.174,28 Jun 2022 17:44:37.291,480.116
108,29 Jun 2022 04:24:27.148,29 Jun 2022 04:31:09.382,402.234
109,29 Jun 2022 05:59:46.645,29 Jun 2022 06:06:32.695,406.050
110,29 Jun 2022 17:33:20.031,29 Jun 2022 17:41:20.357,480.326
111,30 Jun 2022 04:21:10.949,30 Jun 2022 04:27:51.781,400.832
112,30 Jun 2022 05:56:28.709,30 Jun 2022 06:03:16.182,407.473
113,30 Jun 2022 17:30:02.892,30 Jun 2022 17:38:03.414,480.523
114,1 Jul 2022 04:17:54.758,1 Jul 2022 04:24:34.173,399.414
115,1 Jul 2022 05:53:10.783,1 Jul 2022 05:59:59.659,408.876
116,1 Jul 2022 17:26:45.756,1 Jul 2022 17:34:46.468,480.712
117,2 Jul 2022 04:14:38.577,2 Jul 2022 04:21:16.558,397.981
118,2 Jul 2022 05:49:52.867,2 Jul 2022 05:56:43.128,410.261
119,2 Jul 2022 17:23:28.624,2 Jul 2022 17:31:29.516,480.892
120,3 Jul 2022 04:11:22.406,3 Jul 2022 04:17:58.937,396.532
121,3 Jul 2022 05:46:34.961,3 Jul 2022 05:53:26.591,411.630
122,3 Jul 2022 17:20:11.495,3 Jul 2022 17:28:12.557,481.063
123,4 Jul 2022 04:08:06.244,4 Jul 2022 04:14:41.311,395.067
124,4 Jul 2022 05:43:17.065,4 Jul 2022 05:50:10.047,412.982
125,4 Jul 2022 17:16:54.370,4 Jul 2022 17:24:55.593,481.223
126,5 Jul 2022 04:04:50.091,5 Jul 2022 04:11:23.676,393.585
127,5 Jul 2022 05:39:59.179,5 Jul 2022 05:46:53.495,414.317
128,5 Jul 2022 17:13:37.248,5 Jul 2022 17:21:38.625,481.377
129,6 Jul 2022 04:01:33.948,6 Jul 2022 04:08:06.035,392.086
130,6 Jul 2022 05:36:41.302,6 Jul 2022 05:43:36.940,415.638
131,6 Jul 2022 17:10:20.130,6 Jul 2022 17:18:21.648,481.518
132,7 Jul 2022 03:58:17.815,7 Jul 2022 04:04:48.386,390.571
133,7 Jul 2022 05:33:23.435,7 Jul 2022 05:40:20.375,416.940
134,7 Jul 2022 17:07:03.016,7 Jul 2022 17:15:04.666,481.650
135,8 Jul 2022 03:55:01.692,8 Jul 2022 04:01:30.730,389.038
136,8 Jul 2022 05:30:05.577,8 Jul 2022 05:37:03.804,418.227
137,8 Jul 2022 17:03:45.905,8 Jul 2022 17:11:47.677,481.772
138,9 Jul 2022 03:51:45.578,9 Jul 2022 03:58:13.065,387.486
139,9 Jul 2022 05:26:47.729,9 Jul 2022 05:33:47.227,419.498
140,9 Jul 2022 17:00:28.798,9 Jul 2022 17:08:30.682,481.884
141,10 Jul 2022 03:48:29.475,10 Jul 2022 03:54:55.393,385.918
142,10 Jul 2022 05:23:29.890,10 Jul 2022 05:30:30.640,420.751
143,10 Jul 2022 16:57:11.694,10 Jul 2022 17:05:13.680,481.986
144,11 Jul 2022 03:45:13.381,11 Jul 2022 03:51:37.714,384.333
145,11 Jul 2022 05:20:12.060,11 Jul 2022 05:27:14.051,421.991
146,11 Jul 2022 16:53:54.593,11 Jul 2022 17:01:56.672,482.079
147,12 Jul 2022 03:41:57.297,12 Jul 2022 03:48:20.033,382.736
148,12 Jul 2022 05:16:54.239,12 Jul 2022 05:23:57.454,423.216
149,12 Jul 2022 16:50:37.496,12 Jul 2022 16:58:39.658,482.162
150,13 Jul 2022 03:38:41.224,13 Jul 2022 03:45:02.339,381.116
151,13 Jul 2022 05:13:36.427,13 Jul 2022 05:20:40.850,424.423
152,13 Jul 2022 16:47:20.402,13 Jul 2022 16:55:22.638,482.236
153,14 Jul 2022 03:35:25.161,14 Jul 2022 03:41:44.638,379.478
154,14 Jul 2022 05:10:18.624,14 Jul 2022 05:17:24.241,425.617
155,14 Jul 2022 16:44:03.312,14 Jul 2022 16:52:05.612,482.300
156,15 Jul 2022 03:32:09.108,15 Jul 2022 03:38:26.929,377.821
157,15 Jul 2022 05:07:00.830,15 Jul 2022 05:14:07.626,426.796
158,15 Jul 2022 16:40:46.226,15 Jul 2022 16:48:48.580,482.354
159,16 Jul 2022 03:28:53.066,16 Jul 2022 03:35:09.212,376.146
160,16 Jul 2022 05:03:43.046,16 Jul 2022 05:10:51.004,427.959
161,16 Jul 2022 16:37:29.143,16 Jul 2022 16:45:31.541,482.398
162,17 Jul 2022 03:25:37.035,17 Jul 2022 03:31:51.486,374.451
163,17 Jul 2022 05:00:25.270,17 Jul 2022 05:07:34.371,429.102
164,17 Jul 2022 16:34:12.064,17 Jul 2022 16:42:14.497,482.433
165,18 Jul 2022 03:22:21.015,18 Jul 2022 03:28:33.754,372.739
166,18 Jul 2022 04:57:07.503,18 Jul 2022 05:04:17.738,430.236
167,18 Jul 2022 16:30:54.989,18 Jul 2022 16:38:57.446,482.458
168,19 Jul 2022 03:19:05.006,19 Jul 2022 03:25:16.014,371.008
169,19 Jul 2022 04:53:49.745,19 Jul 2022 05:01:01.101,431.356
170,19 Jul 2022 16:27:37.917,19 Jul 2022 16:35:40.390,482.473
171,20 Jul 2022 03:15:49.008,20 Jul 2022 03:21:58.266,369.258
172,20 Jul 2022 04:50:31.995,20 Jul 2022 04:57:44.456,432.461
173,20 Jul 2022 16:24:20.849,20 Jul 2022 16:32:23.327,482.478
174,21 Jul 2022 03:12:33.022,21 Jul 2022 03:18:40.509,367.487
175,21 Jul 2022 04:47:14.254,21 Jul 2022 04:54:27.804,433.551
176,21 Jul 2022 16:21:03.784,21 Jul 2022 16:29:06.258,482.474
177,22 Jul 2022 03:09:17.047,22 Jul 2022 03:15:22.743,365.697
178,22 Jul 2022 04:43:56.521,22 Jul 2022 04:51:11.147,434.626
179,22 Jul 2022 16:17:46.722,22 Jul 2022 16:25:49.183,482.460
180,23 Jul 2022 03:06:01.083,23 Jul 2022 03:12:04.968,363.885
181,23 Jul 2022 04:40:38.797,23 Jul 2022 04:47:54.484,435.687
182,23 Jul 2022 16:14:29.664,23 Jul 2022 16:22:32.101,482.437
183,24 Jul 2022 03:02:45.131,24 Jul 2022 03:08:47.185,362.054
184,24 Jul 2022 04:37:21.081,24 Jul 2022 04:44:37.815,436.734
185,24 Jul 2022 16:11:12.610,24 Jul 2022 16:19:15.013,482.403
186,25 Jul 2022 02:59:29.191,25 Jul 2022 03:05:29.393,360.202
187,25 Jul 2022 04:34:03.373,25 Jul 2022 04:41:21.139,437.765
188,25 Jul 2022 16:07:55.559,25 Jul 2022 16:15:57.919,482.360
189,26 Jul 2022 02:56:13.265,26 Jul 2022 03:02:11.590,358.325
190,26 Jul 2022 04:30:45.674,26 Jul 2022 04:38:04.458,438.784
191,26 Jul 2022 16:04:38.512,26 Jul 2022 16:12:40.819,482.307
192,27 Jul 2022 02:52:57.348,27 Jul 2022 02:58:53.777,356.429
193,27 Jul 2022 04:27:27.983,27 Jul 2022 04:34:47.772,439.789
194,27 Jul 2022 16:01:21.468,27 Jul 2022 16:09:23.713,482.244
195,28 Jul 2022 02:49:41.444,28 Jul 2022 02:55:35.954,354.510
196,28 Jul 2022 04:24:10.300,28 Jul 2022 04:31:31.080,440.780
197,28 Jul 2022 15:58:04.428,28 Jul 2022 16:06:06.600,482.172
198,29 Jul 2022 02:46:25.553,29 Jul 2022 02:52:18.122,352.570
199,29 Jul 2022 04:20:52.625,29 Jul 2022 04:28:14.383,441.758
200,29 Jul 2022 15:54:47.392,29 Jul 2022 16:02:49.481,482.089
201,30 Jul 2022 02:43:09.674,30 Jul 2022 02:49:00.281,350.607
202,30 Jul 2022 04:17:34.958,30 Jul 2022 04:24:57.680,442.722
203,30 Jul 2022 15:51:30.359,30 Jul 2022 15:59:32.356,481.997
204,31 Jul 2022 02:39:53.808,31 Jul 2022 02:45:42.429,348.621
205,31 Jul 2022 04:14:17.300,31 Jul 2022 04:21:40.975,443.675
206,31 Jul 2022 15:48:13.330,31 Jul 2022 15:56:15.225,481.895
207,1 Aug 2022 02:36:37.955,1 Aug 2022 02:42:24.568,346.613
208,1 Aug 2022 04:10:59.649,1 Aug 2022 04:18:24.262,444.612
209,1 Aug 2022 15:44:56.304,1 Aug 2022 15:52:58.088,481.783
210,2 Aug 2022 02:33:22.118,2 Aug 2022 02:39:06.696,344.578
211,2 Aug 2022 04:07:42.007,2 Aug 2022 04:15:07.544,445.537
212,2 Aug 2022 15:41:39.283,2 Aug 2022 15:49:40.944,481.662
213,3 Aug 2022 02:30:06.291,3 Aug 2022 02:35:48.813,342.521
214,3 Aug 2022 04:04:24.372,3 Aug 2022 04:11:50.821,446.449
215,3 Aug 2022 15:38:22.265,3 Aug 2022 15:46:23.792,481.528
216,4 Aug 2022 02:26:50.479,4 Aug 2022 02:32:30.919,340.441
217,4 Aug 2022 04:01:06.746,4 Aug 2022 04:08:34.093,447.347
218,4 Aug 2022 15:35:05.250,4 Aug 2022 15:43:06.636,481.386
219,4 Aug 2022 17:13:38.542,4 Aug 2022 17:14:08.653,30.111
220,5 Aug 2022 02:23:34.680,5 Aug 2022 02:29:13.014,338.334
221,5 Aug 2022 03:57:49.127,5 Aug 2022 04:05:17.360,448.233
222,5 Aug 2022 15:31:48.239,5 Aug 2022 15:39:49.474,481.235
223,5 Aug 2022 17:10:10.057,5 Aug 2022 17:11:03.621,53.564
224,6 Aug 2022 02:20:18.895,6 Aug 2022 02:25:55.098,336.203
225,6 Aug 2022 03:54:31.516,6 Aug 2022 04:02:00.622,449.106
226,6 Aug 2022 15:28:31.232,6 Aug 2022 15:36:32.306,481.074
227,6 Aug 2022 17:06:45.353,6 Aug 2022 17:07:54.806,69.452
228,7 Aug 2022 02:17:03.130,7 Aug 2022 02:22:37.170,334.040
229,7 Aug 2022 03:51:13.912,7 Aug 2022 03:58:43.881,449.969
230,7 Aug 2022 15:25:14.228,7 Aug 2022 15:33:15.131,480.903
231,7 Aug 2022 17:03:22.177,7 Aug 2022 17:04:44.459,82.282
232,8 Aug 2022 02:13:47.374,8 Aug 2022 02:19:19.230,331.856
233,8 Aug 2022 03:47:56.316,8 Aug 2022 03:55:27.132,450.817
234,8 Aug 2022 15:21:57.227,8 Aug 2022 15:29:57.952,480.725
235,8 Aug 2022 16:59:59.894,8 Aug 2022 17:01:33.221,93.327
236,9 Aug 2022 02:10:31.633,9 Aug 2022 02:16:01.278,329.645
237,9 Aug 2022 03:44:38.727,9 Aug 2022 03:52:10.379,451.652
238,9 Aug 2022 15:18:40.231,9 Aug 2022 15:26:40.764,480.534
239,9 Aug 2022 16:56:38.214,9 Aug 2022 16:58:21.373,103.159
240,10 Aug 2022 02:07:15.907,10 Aug 2022 02:12:43.314,327.406
241,10 Aug 2022 03:41:21.146,10 Aug 2022 03:48:53.621,452.474
242,10 Aug 2022 15:15:23.237,10 Aug 2022 15:23:23.570,480.333
243,10 Aug 2022 16:53:16.979,10 Aug 2022 16:55:09.077,112.098
244,11 Aug 2022 02:04:00.197,11 Aug 2022 02:09:25.337,325.139
245,11 Aug 2022 03:38:03.573,11 Aug 2022 03:45:36.857,453.284
246,11 Aug 2022 15:12:06.248,11 Aug 2022 15:20:06.369,480.121
247,11 Aug 2022 16:49:56.088,11 Aug 2022 16:51:56.432,120.344
248,12 Aug 2022 02:00:44.503,12 Aug 2022 02:06:07.347,322.843
249,12 Aug 2022 03:34:46.007,12 Aug 2022 03:42:20.089,454.082
250,12 Aug 2022 15:08:49.263,12 Aug 2022 15:16:49.162,479.900
251,12 Aug 2022 16:46:35.478,12 Aug 2022 16:48:43.509,128.031
252,13 Aug 2022 01:57:28.826,13 Aug 2022 02:02:49.344,320.518
253,13 Aug 2022 03:31:28.449,13 Aug 2022 03:39:03.317,454.867
254,13 Aug 2022 15:05:32.281,13 Aug 2022 15:13:31.949,479.668
255,13 Aug 2022 16:43:15.096,13 Aug 2022 16:45:30.349,135.253
256,14 Aug 2022 01:54:13.165,14 Aug 2022 01:59:31.327,318.162
257,14 Aug 2022 03:28:10.899,14 Aug 2022 03:35:46.540,455.641
258,14 Aug 2022 15:02:15.303,14 Aug 2022 15:10:14.730,479.427
259,14 Aug 2022 16:39:54.913,14 Aug 2022 16:42:16.994,142.082
260,15 Aug 2022 01:50:57.521,15 Aug 2022 01:56:13.296,315.775
261,15 Aug 2022 03:24:53.356,15 Aug 2022 03:32:29.758,456.402
262,15 Aug 2022 14:58:58.329,15 Aug 2022 15:06:57.504,479.175
263,15 Aug 2022 16:36:34.896,15 Aug 2022 16:39:03.466,148.571
264,16 Aug 2022 01:47:41.894,16 Aug 2022 01:52:55.251,313.357
265,16 Aug 2022 03:21:35.820,16 Aug 2022 03:29:12.972,457.152
266,16 Aug 2022 14:55:41.359,16 Aug 2022 15:03:40.272,478.913
267,16 Aug 2022 16:33:15.026,16 Aug 2022 16:35:49.788,154.762
268,17 Aug 2022 01:44:26.280,17 Aug 2022 01:49:37.195,310.915
269,17 Aug 2022 03:18:18.292,17 Aug 2022 03:25:56.182,457.890
270,17 Aug 2022 14:52:24.392,17 Aug 2022 15:00:23.034,478.641
271,17 Aug 2022 16:29:55.287,17 Aug 2022 16:32:35.977,160.690
272,18 Aug 2022 01:41:10.690,18 Aug 2022 01:46:19.120,308.430
273,18 Aug 2022 03:15:00.771,18 Aug 2022 03:22:39.387,458.617
274,18 Aug 2022 14:49:07.429,18 Aug 2022 14:57:05.787,478.358
275,18 Aug 2022 16:26:35.664,18 Aug 2022 16:29:22.047,166.383
276,19 Aug 2022 01:37:55.117,19 Aug 2022 01:43:01.029,305.912
277,19 Aug 2022 03:11:43.257,19 Aug 2022 03:19:22.586,459.329
278,19 Aug 2022 14:45:50.470,19 Aug 2022 14:53:48.533,478.063
279,19 Aug 2022 16:23:16.145,19 Aug 2022 16:26:08.010,171.865
280,20 Aug 2022 01:34:39.561,20 Aug 2022 01:39:42.923,303.362
281,20 Aug 2022 03:08:25.750,20 Aug 2022 03:16:05.781,460.031
282,20 Aug 2022 14:42:33.514,20 Aug 2022 14:50:31.279,477.764
283,20 Aug 2022 16:19:56.720,20 Aug 2022 16:22:53.876,177.155
284,21 Aug 2022 01:31:24.026,21 Aug 2022 01:36:24.802,300.776
285,21 Aug 2022 03:05:08.251,21 Aug 2022 03:12:48.973,460.723
286,21 Aug 2022 14:39:16.563,21 Aug 2022 14:47:14.014,477.452
287,21 Aug 2022 16:16:37.382,21 Aug 2022 16:19:39.652,182.271
288,22 Aug 2022 01:28:08.507,22 Aug 2022 01:33:06.663,298.156
289,22 Aug 2022 03:01:50.758,22 Aug 2022 03:09:32.159,461.401
290,22 Aug 2022 14:35:59.615,22 Aug 2022 14:43:56.742,477.127
291,22 Aug 2022 16:13:18.122,22 Aug 2022 16:16:25.346,187.224
292,23 Aug 2022 01:24:53.010,23 Aug 2022 01:29:48.506,295.496
293,23 Aug 2022 02:58:33.273,23 Aug 2022 03:06:15.340,462.067
294,23 Aug 2022 14:32:42.670,23 Aug 2022 14:40:39.462,476.791
295,23 Aug 2022 16:09:58.934,23 Aug 2022 16:13:10.965,192.030
296,24 Aug 2022 01:21:37.534,24 Aug 2022 01:26:30.332,292.798
297,24 Aug 2022 02:55:15.795,24 Aug 2022 03:02:58.516,462.721
298,24 Aug 2022 14:29:25.730,24 Aug 2022 14:37:22.178,476.448
299,24 Aug 2022 16:06:39.814,24 Aug 2022 16:09:56.514,196.699
300,25 Aug 2022 01:18:22.078,25 Aug 2022 01:23:12.140,290.062
301,25 Aug 2022 02:51:58.324,25 Aug 2022 02:59:41.691,463.367
302,25 Aug 2022 14:26:08.794,25 Aug 2022 14:34:04.889,476.095
303,25 Aug 2022 16:03:20.757,25 Aug 2022 16:06:41.998,201.241
304,26 Aug 2022 01:15:06.643,26 Aug 2022 01:19:53.930,287.286
305,26 Aug 2022 02:48:40.860,26 Aug 2022 02:56:24.859,463.999
306,26 Aug 2022 14:22:51.861,26 Aug 2022 14:30:47.591,475.730
307,26 Aug 2022 16:00:01.757,26 Aug 2022 16:03:27.421,205.664
308,27 Aug 2022 01:11:51.231,27 Aug 2022 01:16:35.700,284.469
309,27 Aug 2022 02:45:23.404,27 Aug 2022 02:53:08.023,464.619
310,27 Aug 2022 14:19:34.933,27 Aug 2022 14:27:30.287,475.355
311,27 Aug 2022 15:56:42.813,27 Aug 2022 16:00:12.787,209.975
312,28 Aug 2022 01:08:35.841,28 Aug 2022 01:13:17.450,281.610
313,28 Aug 2022 02:42:05.954,28 Aug 2022 02:49:51.182,465.228
314,28 Aug 2022 14:16:18.008,28 Aug 2022 14:24:12.977,474.969
315,28 Aug 2022 15:53:23.919,28 Aug 2022 15:56:58.100,214.181
316,29 Aug 2022 01:05:20.474,29 Aug 2022 01:09:59.180,278.706
317,29 Aug 2022 02:38:48.512,29 Aug 2022 02:46:34.337,465.826
318,29 Aug 2022 14:13:01.087,29 Aug 2022 14:20:55.661,474.574
319,29 Aug 2022 15:50:05.074,29 Aug 2022 15:53:43.361,218.287
320,30 Aug 2022 01:02:05.132,30 Aug 2022 01:06:40.889,275.758
321,30 Aug 2022 02:35:31.076,30 Aug 2022 02:43:17.491,466.415
322,30 Aug 2022 14:09:44.171,30 Aug 2022 14:17:38.339,474.168
323,30 Aug 2022 15:46:46.276,30 Aug 2022 15:50:28.576,222.300
324,31 Aug 2022 00:58:49.814,31 Aug 2022 01:03:22.576,272.762
325,31 Aug 2022 02:32:13.647,31 Aug 2022 02:40:00.638,466.990
326,31 Aug 2022 14:06:27.258,31 Aug 2022 14:14:21.009,473.751
327,31 Aug 2022 15:43:27.520,31 Aug 2022 15:47:13.746,226.226
328,1 Sep 2022 00:55:34.522,1 Sep 2022 01:00:04.245,269.723
329,1 Sep 2022 02:28:56.226,1 Sep 2022 02:36:43.780,467.555
330,1 Sep 2022 14:03:10.349,1 Sep 2022 14:11:03.673,473.324
331,1 Sep 2022 15:40:08.804,1 Sep 2022 15:43:58.869,230.065
332,2 Sep 2022 00:52:19.252,2 Sep 2022 00:56:45.883,266.631
333,2 Sep 2022 02:25:38.811,2 Sep 2022 02:33:26.919,468.108
334,2 Sep 2022 13:59:53.444,2 Sep 2022 14:07:46.330,472.886
335,2 Sep 2022 15:36:50.126,2 Sep 2022 15:40:43.951,233.824
336,3 Sep 2022 00:49:04.013,3 Sep 2022 00:53:27.499,263.486
337,3 Sep 2022 02:22:21.403,3 Sep 2022 02:30:10.053,468.650
338,3 Sep 2022 13:56:36.543,3 Sep 2022 14:04:28.980,472.437
339,3 Sep 2022 15:33:31.486,3 Sep 2022 15:37:28.993,237.507
340,4 Sep 2022 00:45:48.803,4 Sep 2022 00:50:09.088,260.285
341,4 Sep 2022 02:19:04.001,4 Sep 2022 02:26:53.183,469.181
342,4 Sep 2022 13:53:19.646,4 Sep 2022 14:01:11.624,471.978
343,4 Sep 2022 15:30:12.880,4 Sep 2022 15:34:13.994,241.114
344,5 Sep 2022 00:42:33.622,5 Sep 2022 00:46:50.652,257.030
345,5 Sep 2022 02:15:46.607,5 Sep 2022 02:23:36.309,469.702
346,5 Sep 2022 13:50:02.753,5 Sep 2022 13:57:54.261,471.508
347,5 Sep 2022 15:26:54.308,5 Sep 2022 15:30:58.962,244.654
348,6 Sep 2022 00:39:18.470,6 Sep 2022 00:43:32.189,253.719
349,6 Sep 2022 02:12:29.219,6 Sep 2022 02:20:19.430,470.211
350,6 Sep 2022 13:46:45.864,6 Sep 2022 13:54:36.891,471.027
351,6 Sep 2022 15:23:35.771,6 Sep 2022 15:27:43.896,248.125
352,7 Sep 2022 00:36:03.350,7 Sep 2022 00:40:13.698,250.348
353,7 Sep 2022 02:09:11.838,7 Sep 2022 02:17:02.548,470.710
354,7 Sep 2022 13:43:28.979,7 Sep 2022 13:51:19.514,470.536
355,7 Sep 2022 15:20:17.261,7 Sep 2022 15:24:28.796,251.535
356,8 Sep 2022 00:32:48.262,8 Sep 2022 00:36:55.177,246.914
357,8 Sep 2022 02:05:54.464,8 Sep 2022 02:13:45.661,471.198
358,8 Sep 2022 13:40:12.098,8 Sep 2022 13:48:02.131,470.033
359,8 Sep 2022 15:16:58.780,8 Sep 2022 15:21:13.665,254.885
360,9 Sep 2022 00:29:33.208,9 Sep 2022 00:33:36.625,243.417
361,9 Sep 2022 02:02:37.096,9 Sep 2022 02:10:28.771,471.675
362,9 Sep 2022 13:36:55.221,9 Sep 2022 13:44:44.741,469.520
363,9 Sep 2022 15:13:40.327,9 Sep 2022 15:17:58.503,258.176
364,10 Sep 2022 00:26:18.190,10 Sep 2022 00:30:18.041,239.852
365,10 Sep 2022 01:59:19.736,10 Sep 2022 02:07:11.877,472.141
366,10 Sep 2022 13:33:38.349,10 Sep 2022 13:41:27.344,468.995
367,10 Sep 2022 15:10:21.901,10 Sep 2022 15:14:43.311,261.410
368,11 Sep 2022 00:23:03.208,11 Sep 2022 00:26:59.423,236.215
369,11 Sep 2022 01:56:02.382,11 Sep 2022 02:03:54.978,472.597
370,11 Sep 2022 13:30:21.480,11 Sep 2022 13:38:09.940,468.460
371,11 Sep 2022 15:07:03.501,11 Sep 2022 15:11:28.090,264.589
372,12 Sep 2022 00:19:48.265,12 Sep 2022 00:23:40.773,232.508
373,12 Sep 2022 01:52:45.035,12 Sep 2022 02:00:38.076,473.042
374,12 Sep 2022 13:27:04.617,12 Sep 2022 13:34:52.531,467.914
375,12 Sep 2022 15:03:45.127,12 Sep 2022 15:08:12.842,267.716
376,13 Sep 2022 00:16:33.363,13 Sep 2022 00:20:22.083,228.720
377,13 Sep 2022 01:49:27.694,13 Sep 2022 01:57:21.170,473.476
378,13 Sep 2022 13:23:47.757,13 Sep 2022 13:31:35.114,467.357
379,13 Sep 2022 15:00:26.777,13 Sep 2022 15:04:57.569,270.792
380,14 Sep 2022 00:13:18.501,14 Sep 2022 00:17:03.353,224.851
381,14 Sep 2022 01:46:10.360,14 Sep 2022 01:54:04.260,473.900
382,14 Sep 2022 13:20:30.901,14 Sep 2022 13:28:17.690,466.789
383,14 Sep 2022 14:57:08.450,14 Sep 2022 15:01:42.269,273.820
384,15 Sep 2022 00:10:03.684,15 Sep 2022 00:13:44.579,220.895
385,15 Sep 2022 01:42:53.033,15 Sep 2022 01:50:47.346,474.313
386,15 Sep 2022 13:17:14.050,15 Sep 2022 13:25:00.260,466.210
387,15 Sep 2022 14:53:50.145,15 Sep 2022 14:58:26.938,276.793
388,16 Sep 2022 00:06:48.914,16 Sep 2022 00:10:25.761,216.846
389,16 Sep 2022 01:39:35.713,16 Sep 2022 01:47:30.428,474.715
390,16 Sep 2022 13:13:57.202,16 Sep 2022 13:21:42.822,465.620
391,16 Sep 2022 14:50:31.862,16 Sep 2022 14:55:11.587,279.725
392,17 Sep 2022 00:03:34.194,17 Sep 2022 00:07:06.897,212.703
393,17 Sep 2022 01:36:18.398,17 Sep 2022 01:44:13.506,475.108
394,17 Sep 2022 13:10:40.359,17 Sep 2022 13:18:25.375,465.016
395,17 Sep 2022 14:47:13.600,17 Sep 2022 14:51:56.212,282.612
396,18 Sep 2022 00:00:19.525,18 Sep 2022 00:03:47.987,208.462
397,18 Sep 2022 01:33:01.091,18 Sep 2022 01:40:56.581,475.490
398,18 Sep 2022 13:07:23.520,18 Sep 2022 13:15:07.923,464.403
399,18 Sep 2022 14:43:55.358,18 Sep 2022 14:48:40.814,285.456
400,18 Sep 2022 23:57:04.912,19 Sep 2022 00:00:29.021,204.110
401,19 Sep 2022 01:29:43.790,19 Sep 2022 01:37:39.650,475.861
402,19 Sep 2022 13:04:06.686,19 Sep 2022 13:11:50.465,463.779
403,19 Sep 2022 14:40:37.135,19 Sep 2022 14:45:25.394,288.258
404,19 Sep 2022 23:53:50.357,19 Sep 2022 23:57:10.002,199.645
405,20 Sep 2022 01:26:26.495,20 Sep 2022 01:34:22.716,476.221
406,20 Sep 2022 13:00:49.856,20 Sep 2022 13:08:32.999,463.143
407,20 Sep 2022 14:37:18.932,20 Sep 2022 14:42:09.952,291.020
408,20 Sep 2022 23:50:35.864,20 Sep 2022 23:53:50.923,195.058
409,21 Sep 2022 01:23:09.207,21 Sep 2022 01:31:05.780,476.574
410,21 Sep 2022 12:57:33.030,21 Sep 2022 13:05:15.526,462.496
411,21 Sep 2022 14:34:00.746,21 Sep 2022 14:38:54.489,293.743
412,21 Sep 2022 23:47:21.439,21 Sep 2022 23:50:31.780,190.341
413,22 Sep 2022 01:19:51.925,22 Sep 2022 01:27:48.841,476.915
414,22 Sep 2022 12:54:16.209,22 Sep 2022 13:01:58.044,461.835
415,22 Sep 2022 14:30:42.578,22 Sep 2022 14:35:39.005,296.427
416,22 Sep 2022 23:44:07.085,22 Sep 2022 23:47:12.569,185.484
417,23 Sep 2022 01:16:34.650,23 Sep 2022 01:24:31.891,477.241
418,23 Sep 2022 12:50:59.392,23 Sep 2022 12:58:40.558,461.165
419,23 Sep 2022 14:27:24.430,23 Sep 2022 14:32:23.501,299.071
420,23 Sep 2022 23:40:52.809,23 Sep 2022 23:43:53.284,180.475
421,24 Sep 2022 01:13:17.382,24 Sep 2022 01:21:14.943,477.561
422,24 Sep 2022 12:47:42.580,24 Sep 2022 12:55:23.067,460.486
423,24 Sep 2022 14:24:06.296,24 Sep 2022 14:29:07.977,301.681
424,24 Sep 2022 23:37:38.617,24 Sep 2022 23:40:33.916,175.298
425,25 Sep 2022 01:10:00.120,25 Sep 2022 01:17:57.992,477.872
426,25 Sep 2022 12:44:25.773,25 Sep 2022 12:52:05.562,459.790
427,25 Sep 2022 14:20:48.182,25 Sep 2022 14:25:52.434,304.252
428,25 Sep 2022 23:34:24.518,25 Sep 2022 23:37:14.458,169.941
429,26 Sep 2022 01:06:42.864,26 Sep 2022 01:14:41.037,478.173
430,26 Sep 2022 12:41:08.970,26 Sep 2022 12:48:48.052,459.083
431,26 Sep 2022 14:17:30.080,26 Sep 2022 14:22:36.872,306.792
432,26 Sep 2022 23:31:10.519,26 Sep 2022 23:33:54.903,164.384
433,27 Sep 2022 01:03:25.615,27 Sep 2022 01:11:24.077,478.461
434,27 Sep 2022 12:37:52.171,27 Sep 2022 12:45:30.535,458.364
435,27 Sep 2022 14:14:11.995,27 Sep 2022 14:19:21.292,309.297
436,27 Sep 2022 23:27:56.631,27 Sep 2022 23:30:35.240,158.608
437,28 Sep 2022 01:00:08.373,28 Sep 2022 01:08:07.113,478.740
438,28 Sep 2022 12:34:35.377,28 Sep 2022 12:42:13.012,457.635
439,28 Sep 2022 14:10:53.925,28 Sep 2022 14:16:05.689,311.764
440,28 Sep 2022 23:24:42.868,28 Sep 2022 23:27:15.455,152.588
441,29 Sep 2022 00:56:51.137,29 Sep 2022 01:04:50.145,479.008
442,29 Sep 2022 12:31:18.588,29 Sep 2022 12:38:55.482,456.893
443,29 Sep 2022 14:07:35.875,29 Sep 2022 14:12:50.073,314.198
444,29 Sep 2022 23:21:29.242,29 Sep 2022 23:23:55.535,146.293
445,30 Sep 2022 00:53:33.907,30 Sep 2022 01:01:33.174,479.267
446,30 Sep 2022 12:28:01.803,30 Sep 2022 12:35:37.943,456.140
447,30 Sep 2022 14:04:17.835,30 Sep 2022 14:09:34.440,316.605
448,30 Sep 2022 23:18:15.775,30 Sep 2022 23:20:35.461,139.686
449,1 Oct 2022 00:50:16.683,1 Oct 2022 00:58:16.198,479.515
450,1 Oct 2022 12:24:45.023,1 Oct 2022 12:32:20.398,455.375
451,1 Oct 2022 14:00:59.809,1 Oct 2022 14:06:18.789,318.980
452,1 Oct 2022 23:15:02.487,1 Oct 2022 23:17:15.204,132.717
453,2 Oct 2022 00:46:59.466,2 Oct 2022 00:54:59.219,479.753
454,2 Oct 2022 12:21:28.248,2 Oct 2022 12:29:02.845,454.597
455,2 Oct 2022 13:57:41.797,2 Oct 2022 14:03:03.122,321.325
456,2 Oct 2022 23:11:49.407,2 Oct 2022 23:13:54.749,125.342
457,3 Oct 2022 00:43:42.255,3 Oct 2022 00:51:42.234,479.979
458,3 Oct 2022 12:18:11.477,3 Oct 2022 12:25:45.284,453.807
459,3 Oct 2022 13:54:23.798,3 Oct 2022 13:59:47.438,323.640
460,3 Oct 2022 23:08:36.578,3 Oct 2022 23:10:34.045,117.467
461,4 Oct 2022 00:40:25.050,4 Oct 2022 00:48:25.247,480.197
462,4 Oct 2022 12:14:54.711,4 Oct 2022 12:22:27.715,453.005
463,4 Oct 2022 13:51:05.813,4 Oct 2022 13:56:31.739,325.926
464,4 Oct 2022 23:05:24.049,4 Oct 2022 23:07:13.040,108.991
465,5 Oct 2022 00:37:07.852,5 Oct 2022 00:45:08.256,480.404
466,5 Oct 2022 12:11:37.950,5 Oct 2022 12:19:10.140,452.191
467,5 Oct 2022 13:47:47.840,5 Oct 2022 13:53:16.024,328.183
468,5 Oct 2022 23:02:11.902,5 Oct 2022 23:03:51.659,99.758
469,6 Oct 2022 00:33:50.660,6 Oct 2022 00:41:51.262,480.602
470,6 Oct 2022 12:08:21.193,6 Oct 2022 12:15:52.557,451.364
471,6 Oct 2022 13:44:29.881,6 Oct 2022 13:50:00.293,330.412
472,6 Oct 2022 22:59:00.250,6 Oct 2022 23:00:29.786,89.536
473,7 Oct 2022 00:30:33.475,7 Oct 2022 00:38:34.264,480.789
474,7 Oct 2022 12:05:04.442,7 Oct 2022 12:12:34.967,450.525
475,7 Oct 2022 13:41:11.934,7 Oct 2022 13:46:44.548,332.614
476,7 Oct 2022 22:55:49.288,7 Oct 2022 22:57:07.220,77.932
477,8 Oct 2022 00:27:16.296,8 Oct 2022 00:35:17.262,480.967
478,8 Oct 2022 12:01:47.696,8 Oct 2022 12:09:17.369,449.673
479,8 Oct 2022 13:37:53.999,8 Oct 2022 13:43:28.788,334.789
480,8 Oct 2022 22:52:39.387,8 Oct 2022 22:53:43.603,64.215
481,9 Oct 2022 00:23:59.123,9 Oct 2022 00:32:00.257,481.134
482,9 Oct 2022 11:58:30.955,9 Oct 2022 12:05:59.764,448.808
483,9 Oct 2022 13:34:36.072,9 Oct 2022 13:40:13.013,336.941
484,9 Oct 2022 22:49:31.467,9 Oct 2022 22:50:18.003,46.536
485,10 Oct 2022 00:20:41.957,10 Oct 2022 00:28:43.248,481.292
486,10 Oct 2022 11:55:14.219,10 Oct 2022 12:02:42.150,447.931
487,10 Oct 2022 13:31:18.161,10 Oct 2022 13:36:57.224,339.063
488,10 Oct 2022 22:46:30.909,10 Oct 2022 22:46:45.052,14.142
489,11 Oct 2022 00:17:24.797,11 Oct 2022 00:25:26.236,481.440
490,11 Oct 2022 11:51:57.488,11 Oct 2022 11:59:24.527,447.039
491,11 Oct 2022 13:28:00.262,11 Oct 2022 13:33:41.422,341.160
492,12 Oct 2022 00:14:07.643,12 Oct 2022 00:22:09.220,481.577
493,12 Oct 2022 11:48:40.762,12 Oct 2022 11:56:06.898,446.136
494,12 Oct 2022 13:24:42.373,12 Oct 2022 13:30:25.605,343.232
495,13 Oct 2022 00:10:50.495,13 Oct 2022 00:18:52.201,481.705
496,13 Oct 2022 11:45:24.041,13 Oct 2022 11:52:49.262,445.221
497,13 Oct 2022 13:21:24.496,13 Oct 2022 13:27:09.774,345.279
498,14 Oct 2022 00:07:33.354,14 Oct 2022 00:15:35.180,481.826
499,14 Oct 2022 11:42:07.325,14 Oct 2022 11:49:31.617,444.292
500,14 Oct 2022 13:18:06.628,14 Oct 2022 13:23:53.930,347.302
501,15 Oct 2022 00:04:16.219,15 Oct 2022 00:12:18.153,481.934
502,15 Oct 2022 11:38:50.614,15 Oct 2022 11:46:13.964,443.350
503,15 Oct 2022 13:14:48.771,15 Oct 2022 13:20:38.073,349.302
504,16 Oct 2022 00:00:59.089,16 Oct 2022 00:09:01.122,482.033
505,16 Oct 2022 11:35:33.909,16 Oct 2022 11:42:56.301,442.392
506,16 Oct 2022 13:11:30.922,16 Oct 2022 13:17:22.204,351.282
507,16 Oct 2022 23:57:41.967,17 Oct 2022 00:05:44.088,482.122
508,17 Oct 2022 11:32:17.209,17 Oct 2022 11:39:38.633,441.424
509,17 Oct 2022 13:08:13.085,17 Oct 2022 13:14:06.321,353.236
510,17 Oct 2022 23:54:24.850,18 Oct 2022 00:02:27.051,482.201
511,18 Oct 2022 11:29:00.514,18 Oct 2022 11:36:20.956,440.442
512,18 Oct 2022 13:04:55.258,18 Oct 2022 13:10:50.427,355.169
513,18 Oct 2022 23:51:07.740,18 Oct 2022 23:59:10.009,482.270
514,19 Oct 2022 11:25:43.825,19 Oct 2022 11:33:03.274,439.449
515,19 Oct 2022 13:01:37.440,19 Oct 2022 13:07:34.520,357.080
516,19 Oct 2022 23:47:50.636,19 Oct 2022 23:55:52.964,482.329
517,20 Oct 2022 11:22:27.141,20 Oct 2022 11:29:45.580,438.439
518,20 Oct 2022 12:58:19.632,20 Oct 2022 13:04:18.601,358.969
519,20 Oct 2022 23:44:33.538,20 Oct 2022 23:52:35.916,482.378
520,21 Oct 2022 11:19:10.463,21 Oct 2022 11:26:27.878,437.415
521,21 Oct 2022 12:55:01.833,21 Oct 2022 13:01:02.670,360.836
522,21 Oct 2022 23:41:16.446,21 Oct 2022 23:49:18.864,482.418
523,22 Oct 2022 11:15:53.791,22 Oct 2022 11:23:10.168,436.378
524,22 Oct 2022 12:51:44.044,22 Oct 2022 12:57:46.726,362.681
525,22 Oct 2022 23:37:59.361,22 Oct 2022 23:46:01.809,482.448
526,23 Oct 2022 11:12:37.124,23 Oct 2022 11:19:52.450,435.326
527,23 Oct 2022 12:48:26.264,23 Oct 2022 12:54:30.770,364.506
528,23 Oct 2022 23:34:42.282,23 Oct 2022 23:42:44.750,482.468
529,24 Oct 2022 11:09:20.463,24 Oct 2022 11:16:34.723,434.261
530,24 Oct 2022 12:45:08.490,24 Oct 2022 12:51:14.802,366.312
531,24 Oct 2022 23:31:25.209,24 Oct 2022 23:39:27.688,482.479
532,25 Oct 2022 11:06:03.807,25 Oct 2022 11:13:16.988,433.181
533,25 Oct 2022 12:41:50.728,25 Oct 2022 12:47:58.820,368.093
534,25 Oct 2022 23:28:08.143,25 Oct 2022 23:36:10.622,482.479
535,26 Oct 2022 11:02:47.157,26 Oct 2022 11:09:59.242,432.085
536,26 Oct 2022 12:38:32.974,26 Oct 2022 12:44:42.829,369.855
537,26 Oct 2022 23:24:51.082,26 Oct 2022 23:32:53.553,482.470
538,27 Oct 2022 10:59:30.513,27 Oct 2022 11:06:41.488,430.975
539,27 Oct 2022 12:35:15.229,27 Oct 2022 12:41:26.827,371.598
540,27 Oct 2022 23:21:34.028,27 Oct 2022 23:29:36.480,482.452
541,28 Oct 2022 10:56:13.875,28 Oct 2022 11:03:23.731,429.856
542,28 Oct 2022 12:31:57.492,28 Oct 2022 12:38:10.816,373.325
543,28 Oct 2022 23:18:16.980,28 Oct 2022 23:26:19.403,482.423
544,29 Oct 2022 10:52:57.243,29 Oct 2022 11:00:05.961,428.719
545,29 Oct 2022 12:28:39.763,29 Oct 2022 12:34:54.792,375.029
546,29 Oct 2022 23:14:59.938,29 Oct 2022 23:23:02.322,482.385
547,30 Oct 2022 10:49:40.616,30 Oct 2022 10:56:48.181,427.565
548,30 Oct 2022 12:25:22.042,30 Oct 2022 12:31:38.756,376.715
549,30 Oct 2022 23:11:42.901,30 Oct 2022 23:19:45.239,482.337
550,31 Oct 2022 10:46:23.996,31 Oct 2022 10:53:30.392,426.396
551,31 Oct 2022 12:22:04.328,31 Oct 2022 12:28:22.712,378.384
552,31 Oct 2022 23:08:25.872,31 Oct 2022 23:16:28.151,482.279
553,1 Nov 2022 10:43:07.382,1 Nov 2022 10:50:12.594,425.212
554,1 Nov 2022 12:18:46.623,1 Nov 2022 12:25:06.657,380.034
555,1 Nov 2022 23:05:08.848,1 Nov 2022 23:13:11.060,482.212
556,2 Nov 2022 10:39:50.774,2 Nov 2022 10:46:54.790,424.016
557,2 Nov 2022 12:15:28.925,2 Nov 2022 12:21:50.591,381.666
558,2 Nov 2022 23:01:51.831,2 Nov 2022 23:09:53.966,482.135
559,3 Nov 2022 10:36:34.173,3 Nov 2022 10:43:36.974,422.802
560,3 Nov 2022 12:12:11.236,3 Nov 2022 12:18:34.515,383.280
561,3 Nov 2022 22:58:34.819,3 Nov 2022 23:06:36.868,482.048
562,4 Nov 2022 10:33:17.578,4 Nov 2022 10:40:19.152,421.575
563,4 Nov 2022 12:08:53.553,4 Nov 2022 12:15:18.429,384.876
564,4 Nov 2022 22:55:17.815,4 Nov 2022 23:03:19.766,481.952
565,5 Nov 2022 10:30:00.989,5 Nov 2022 10:37:01.319,420.330
566,5 Nov 2022 12:05:35.879,5 Nov 2022 12:12:02.328,386.449
567,5 Nov 2022 22:52:00.816,5 Nov 2022 23:00:02.662,481.846
568,6 Nov 2022 10:26:44.408,6 Nov 2022 10:33:43.477,419.070
569,6 Nov 2022 12:02:18.211,6 Nov 2022 12:08:46.222,388.010
570,6 Nov 2022 22:48:43.824,6 Nov 2022 22:56:45.554,481.730
571,7 Nov 2022 10:23:27.832,7 Nov 2022 10:30:25.627,417.794
572,7 Nov 2022 11:59:00.552,7 Nov 2022 12:05:30.107,389.555
573,7 Nov 2022 22:45:26.837,7 Nov 2022 22:53:28.442,481.604
574,8 Nov 2022 10:20:11.263,8 Nov 2022 10:27:07.766,416.503
575,8 Nov 2022 11:55:42.899,8 Nov 2022 12:02:13.982,391.083
576,8 Nov 2022 22:42:09.857,8 Nov 2022 22:50:11.324,481.467
577,9 Nov 2022 10:16:54.701,9 Nov 2022 10:23:49.897,415.196
578,9 Nov 2022 11:52:25.253,9 Nov 2022 11:58:57.845,392.592
579,9 Nov 2022 22:38:52.883,9 Nov 2022 22:46:54.205,481.322
580,10 Nov 2022 10:13:38.145,10 Nov 2022 10:20:32.018,413.872
581,10 Nov 2022 11:49:07.614,10 Nov 2022 11:55:41.699,394.085
582,10 Nov 2022 22:35:35.915,10 Nov 2022 22:43:37.083,481.167
583,11 Nov 2022 10:10:21.596,11 Nov 2022 10:17:14.126,412.530
584,11 Nov 2022 11:45:49.982,11 Nov 2022 11:52:25.543,395.561
585,11 Nov 2022 22:32:18.954,11 Nov 2022 22:40:19.957,481.003
586,12 Nov 2022 10:07:05.055,12 Nov 2022 10:13:56.227,411.173
587,12 Nov 2022 11:42:32.357,12 Nov 2022 11:49:09.378,397.021
588,12 Nov 2022 22:29:01.998,12 Nov 2022 22:37:02.827,480.829
589,13 Nov 2022 10:03:48.520,13 Nov 2022 10:10:38.319,409.799
590,13 Nov 2022 11:39:14.738,13 Nov 2022 11:45:53.203,398.465
591,13 Nov 2022 22:25:45.049,13 Nov 2022 22:33:45.694,480.646
592,14 Nov 2022 10:00:31.992,14 Nov 2022 10:07:20.400,408.408
593,14 Nov 2022 11:35:57.126,14 Nov 2022 11:42:37.016,399.891
594,14 Nov 2022 22:22:28.105,14 Nov 2022 22:30:28.557,480.452
595,15 Nov 2022 09:57:15.472,15 Nov 2022 10:04:02.472,407.000
596,15 Nov 2022 11:32:39.520,15 Nov 2022 11:39:20.823,401.303
597,15 Nov 2022 22:19:11.168,15 Nov 2022 22:27:11.417,480.249
598,16 Nov 2022 09:53:58.959,16 Nov 2022 10:00:44.533,405.574
599,16 Nov 2022 11:29:21.920,16 Nov 2022 11:36:04.620,402.699
600,16 Nov 2022 22:15:54.237,16 Nov 2022 22:23:54.273,480.036
601,17 Nov 2022 09:50:42.453,17 Nov 2022 09:57:26.582,404.128
602,17 Nov 2022 11:26:04.327,17 Nov 2022 11:32:48.407,404.080
603,17 Nov 2022 22:12:37.313,17 Nov 2022 22:20:37.126,479.814
604,18 Nov 2022 09:47:25.956,18 Nov 2022 09:54:08.623,402.667
605,18 Nov 2022 11:22:46.741,18 Nov 2022 11:29:32.189,405.448
606,18 Nov 2022 22:09:20.394,18 Nov 2022 22:17:19.975,479.581
607,19 Nov 2022 09:44:09.465,19 Nov 2022 09:50:50.653,401.188
608,19 Nov 2022 11:19:29.161,19 Nov 2022 11:26:15.960,406.799
609,19 Nov 2022 22:06:03.482,19 Nov 2022 22:14:02.823,479.340
610,20 Nov 2022 09:40:52.983,20 Nov 2022 09:47:32.676,399.693
611,20 Nov 2022 11:16:11.587,20 Nov 2022 11:22:59.721,408.135
612,20 Nov 2022 22:02:46.576,20 Nov 2022 22:10:45.665,479.088
613,20 Nov 2022 23:42:28.100,20 Nov 2022 23:42:51.886,23.786
614,21 Nov 2022 09:37:36.509,21 Nov 2022 09:44:14.685,398.177
615,21 Nov 2022 11:12:54.019,21 Nov 2022 11:19:43.474,409.455
616,21 Nov 2022 21:59:29.677,21 Nov 2022 22:07:28.503,478.826
617,21 Nov 2022 23:38:56.366,21 Nov 2022 23:39:48.877,52.511
618,22 Nov 2022 09:34:20.042,22 Nov 2022 09:40:56.684,396.642
619,22 Nov 2022 11:09:36.457,22 Nov 2022 11:16:27.218,410.761
620,22 Nov 2022 21:56:12.783,22 Nov 2022 22:04:11.338,478.554
621,22 Nov 2022 23:35:30.120,22 Nov 2022 23:36:40.386,70.266
622,23 Nov 2022 09:31:03.583,23 Nov 2022 09:37:38.671,395.088
623,23 Nov 2022 11:06:18.901,23 Nov 2022 11:13:10.956,412.055
624,23 Nov 2022 21:52:55.896,23 Nov 2022 22:00:54.169,478.273
625,23 Nov 2022 23:32:05.736,23 Nov 2022 23:33:30.041,84.305
626,24 Nov 2022 09:27:47.132,24 Nov 2022 09:34:20.648,393.516
627,24 Nov 2022 11:03:01.351,24 Nov 2022 11:09:54.683,413.332
628,24 Nov 2022 21:49:39.015,24 Nov 2022 21:57:36.996,477.981
629,24 Nov 2022 23:28:42.392,24 Nov 2022 23:30:18.656,96.264
630,25 Nov 2022 09:24:30.690,25 Nov 2022 09:31:02.613,391.923
631,25 Nov 2022 10:59:43.807,25 Nov 2022 11:06:38.401,414.594
632,25 Nov 2022 21:46:22.140,25 Nov 2022 21:54:19.820,477.680
633,25 Nov 2022 23:25:19.740,25 Nov 2022 23:27:06.582,106.842
634,26 Nov 2022 09:21:14.255,26 Nov 2022 09:27:44.566,390.310
635,26 Nov 2022 10:56:26.268,26 Nov 2022 11:03:22.110,415.842
636,26 Nov 2022 21:43:05.271,26 Nov 2022 21:51:02.639,477.368
637,26 Nov 2022 23:21:57.593,26 Nov 2022 23:23:54.006,116.413
638,27 Nov 2022 09:17:57.830,27 Nov 2022 09:24:26.506,388.677
639,27 Nov 2022 10:53:08.735,27 Nov 2022 11:00:05.812,417.077
640,27 Nov 2022 21:39:48.409,27 Nov 2022 21:47:45.453,477.045
641,27 Nov 2022 23:18:35.831,27 Nov 2022 23:20:41.041,125.210
642,28 Nov 2022 09:14:41.413,28 Nov 2022 09:21:08.436,387.023
643,28 Nov 2022 10:49:51.207,28 Nov 2022 10:56:49.504,418.297
644,28 Nov 2022 21:36:31.552,28 Nov 2022 21:44:28.265,476.712
645,28 Nov 2022 23:15:14.382,28 Nov 2022 23:17:27.776,133.394
646,29 Nov 2022 09:11:25.004,29 Nov 2022 09:17:50.355,385.350
647,29 Nov 2022 10:46:33.685,29 Nov 2022 10:53:33.189,419.504
648,29 Nov 2022 21:33:14.702,29 Nov 2022 21:41:11.078,476.376
649,29 Nov 2022 23:11:53.190,29 Nov 2022 23:14:14.252,141.062
650,30 Nov 2022 09:08:08.605,30 Nov 2022 09:14:32.267,383.662
651,30 Nov 2022 10:43:16.169,30 Nov 2022 10:50:16.867,420.698
652,30 Nov 2022 21:29:57.858,30 Nov 2022 21:37:53.883,476.024
653,30 Nov 2022 23:08:32.217,30 Nov 2022 23:11:00.514,148.297
654,1 Dec 2022 09:04:52.215,1 Dec 2022 09:11:14.158,381.943
655,1 Dec 2022 10:39:58.658,1 Dec 2022 10:47:00.536,421.878
656,1 Dec 2022 21:26:41.021,1 Dec 2022 21:34:36.682,475.662
657,1 Dec 2022 23:05:11.431,1 Dec 2022 23:07:46.591,155.160
658,2 Dec 2022 09:01:35.835,2 Dec 2022 09:07:56.043,380.208
659,2 Dec 2022 10:36:41.153,2 Dec 2022 10:43:44.195,423.042
660,2 Dec 2022 21:23:24.190,2 Dec 2022 21:31:19.481,475.291
661,2 Dec 2022 23:01:50.809,2 Dec 2022 23:04:32.508,161.699
662,3 Dec 2022 08:58:19.464,3 Dec 2022 09:04:37.915,378.451
663,3 Dec 2022 10:33:23.653,3 Dec 2022 10:40:27.849,424.196
664,3 Dec 2022 21:20:07.365,3 Dec 2022 21:28:02.277,474.912
665,3 Dec 2022 22:58:30.332,3 Dec 2022 23:01:18.283,167.952
666,4 Dec 2022 08:55:03.102,4 Dec 2022 09:01:19.775,376.673
667,4 Dec 2022 10:30:06.159,4 Dec 2022 10:37:11.493,425.333
668,4 Dec 2022 21:16:50.547,4 Dec 2022 21:24:45.067,474.520
669,4 Dec 2022 22:55:09.984,4 Dec 2022 22:58:03.933,173.949
670,5 Dec 2022 08:51:46.750,5 Dec 2022 08:58:01.622,374.872
671,5 Dec 2022 10:26:48.670,5 Dec 2022 10:33:55.131,426.461
672,5 Dec 2022 21:13:33.735,5 Dec 2022 21:21:27.854,474.120
673,5 Dec 2022 22:51:49.752,5 Dec 2022 22:54:49.468,179.716
674,6 Dec 2022 08:48:30.408,6 Dec 2022 08:54:43.455,373.047
675,6 Dec 2022 10:23:31.186,6 Dec 2022 10:30:38.762,427.575
676,6 Dec 2022 21:10:16.929,6 Dec 2022 21:18:10.638,473.709
677,6 Dec 2022 22:48:29.626,6 Dec 2022 22:51:34.899,185.273
678,7 Dec 2022 08:45:14.078,7 Dec 2022 08:51:25.277,371.199
679,7 Dec 2022 10:20:13.708,7 Dec 2022 10:27:22.383,428.676
680,7 Dec 2022 21:07:00.129,7 Dec 2022 21:14:53.419,473.289
681,7 Dec 2022 22:45:09.597,7 Dec 2022 22:48:20.238,190.641
682,8 Dec 2022 08:41:57.755,8 Dec 2022 08:48:07.086,369.331
683,8 Dec 2022 10:16:56.234,8 Dec 2022 10:24:05.996,429.762
684,8 Dec 2022 21:03:43.336,8 Dec 2022 21:11:36.195,472.859
685,8 Dec 2022 22:41:49.656,8 Dec 2022 22:45:05.491,195.835
686,9 Dec 2022 08:38:41.443,9 Dec 2022 08:44:48.881,367.438
687,9 Dec 2022 10:13:38.766,9 Dec 2022 10:20:49.598,430.832
688,9 Dec 2022 21:00:26.549,9 Dec 2022 21:08:18.968,472.418
689,9 Dec 2022 22:38:29.798,9 Dec 2022 22:41:50.666,200.868
690,10 Dec 2022 08:35:25.141,10 Dec 2022 08:41:30.666,365.524
691,10 Dec 2022 10:10:21.302,10 Dec 2022 10:17:33.198,431.895
692,10 Dec 2022 20:57:09.769,10 Dec 2022 21:05:01.737,471.968
693,10 Dec 2022 22:35:10.016,10 Dec 2022 22:38:35.768,205.752
694,11 Dec 2022 08:32:08.851,11 Dec 2022 08:38:12.434,363.583
695,11 Dec 2022 10:07:03.844,11 Dec 2022 10:14:16.789,432.945
696,11 Dec 2022 20:53:52.994,11 Dec 2022 21:01:44.502,471.507
697,11 Dec 2022 22:31:50.304,11 Dec 2022 22:35:20.801,210.496
698,12 Dec 2022 08:28:52.571,12 Dec 2022 08:34:54.188,361.617
699,12 Dec 2022 10:03:46.390,12 Dec 2022 10:11:00.371,433.981
700,12 Dec 2022 20:50:36.226,12 Dec 2022 20:58:27.263,471.037
701,12 Dec 2022 22:28:30.659,12 Dec 2022 22:32:05.773,215.114
702,13 Dec 2022 08:25:36.302,13 Dec 2022 08:31:35.927,359.625
703,13 Dec 2022 10:00:28.941,13 Dec 2022 10:07:43.945,435.004
704,13 Dec 2022 20:47:19.465,13 Dec 2022 20:55:10.021,470.556
705,13 Dec 2022 22:25:11.077,13 Dec 2022 22:28:50.686,219.609
706,14 Dec 2022 08:22:20.045,14 Dec 2022 08:28:17.652,357.607
707,14 Dec 2022 09:57:11.497,14 Dec 2022 10:04:27.512,436.015
708,14 Dec 2022 20:44:02.709,14 Dec 2022 20:51:52.775,470.065
709,14 Dec 2022 22:21:51.553,14 Dec 2022 22:25:35.541,223.988
710,15 Dec 2022 08:19:03.799,15 Dec 2022 08:24:59.362,355.563
711,15 Dec 2022 09:53:54.059,15 Dec 2022 10:01:11.072,437.013
712,15 Dec 2022 20:40:45.961,15 Dec 2022 20:48:35.525,469.564
713,15 Dec 2022 22:18:32.084,15 Dec 2022 22:22:20.344,228.260
714,16 Dec 2022 08:15:47.568,16 Dec 2022 08:21:41.058,353.490
715,16 Dec 2022 09:50:36.625,16 Dec 2022 09:57:54.624,437.999
716,16 Dec 2022 20:37:29.219,16 Dec 2022 20:45:18.271,469.053
717,16 Dec 2022 22:15:12.668,16 Dec 2022 22:19:05.098,232.430
718,17 Dec 2022 08:12:31.346,17 Dec 2022 08:18:22.739,351.393
719,17 Dec 2022 09:47:19.195,17 Dec 2022 09:54:38.166,438.970
720,17 Dec 2022 20:34:12.483,17 Dec 2022 20:42:01.014,468.531
721,17 Dec 2022 22:11:53.304,17 Dec 2022 22:15:49.805,236.501
722,18 Dec 2022 08:09:15.136,18 Dec 2022 08:15:04.406,349.269
723,18 Dec 2022 09:44:01.771,18 Dec 2022 09:51:21.702,439.931
724,18 Dec 2022 20:30:55.754,18 Dec 2022 20:38:43.754,468.000
725,18 Dec 2022 22:08:33.985,18 Dec 2022 22:12:34.468,240.484
726,19 Dec 2022 08:05:58.939,19 Dec 2022 08:11:46.057,347.118
727,19 Dec 2022 09:40:44.352,19 Dec 2022 09:48:05.231,440.880
728,19 Dec 2022 20:27:39.031,19 Dec 2022 20:35:26.489,467.458
729,19 Dec 2022 22:05:14.710,19 Dec 2022 22:09:19.090,244.380
730,20 Dec 2022 08:02:42.755,20 Dec 2022 08:08:27.693,344.938
731,20 Dec 2022 09:37:26.937,20 Dec 2022 09:44:48.756,441.819
732,20 Dec 2022 20:24:22.315,20 Dec 2022 20:32:09.221,466.906
733,20 Dec 2022 22:01:55.476,20 Dec 2022 22:06:03.667,248.192
734,21 Dec 2022 07:59:26.583,21 Dec 2022 08:05:09.313,342.730
735,21 Dec 2022 09:34:09.527,21 Dec 2022 09:41:32.271,442.744
736,21 Dec 2022 20:21:05.605,21 Dec 2022 20:28:51.949,466.343
737,21 Dec 2022 21:58:36.284,21 Dec 2022 22:02:48.211,251.927
738,22 Dec 2022 07:56:10.425,22 Dec 2022 08:01:50.916,340.491
739,22 Dec 2022 09:30:52.121,22 Dec 2022 09:38:15.778,443.657
740,22 Dec 2022 20:17:48.902,22 Dec 2022 20:25:34.672,465.770
741,22 Dec 2022 21:55:17.132,22 Dec 2022 21:59:32.719,255.587
742,23 Dec 2022 07:52:54.285,23 Dec 2022 07:58:32.503,338.218
743,23 Dec 2022 09:27:34.720,23 Dec 2022 09:34:59.278,444.559
744,23 Dec 2022 20:14:32.205,23 Dec 2022 20:22:17.392,465.187
745,23 Dec 2022 21:51:58.017,23 Dec 2022 21:56:17.192,259.175
746,24 Dec 2022 07:49:38.154,24 Dec 2022 07:55:14.073,335.919
747,24 Dec 2022 09:24:17.323,24 Dec 2022 09:31:42.771,445.448
748,24 Dec 2022 20:11:15.515,24 Dec 2022 20:19:00.105,464.591
749,24 Dec 2022 21:48:38.939,24 Dec 2022 21:53:01.633,262.694
750,25 Dec 2022 07:46:22.038,25 Dec 2022 07:51:55.625,333.587
751,25 Dec 2022 09:20:59.930,25 Dec 2022 09:28:26.256,446.326
752,25 Dec 2022 20:07:58.831,25 Dec 2022 20:15:42.817,463.987
753,25 Dec 2022 21:45:19.895,25 Dec 2022 21:49:46.043,266.148
754,26 Dec 2022 07:43:05.937,26 Dec 2022 07:48:37.160,331.223
755,26 Dec 2022 09:17:42.542,26 Dec 2022 09:25:09.737,447.195
756,26 Dec 2022 20:04:42.153,26 Dec 2022 20:12:25.525,463.372
757,26 Dec 2022 21:42:00.885,26 Dec 2022 21:46:30.416,269.531
758,27 Dec 2022 07:39:49.851,27 Dec 2022 07:45:18.677,328.826
759,27 Dec 2022 09:14:25.159,27 Dec 2022 09:21:53.208,448.050
760,27 Dec 2022 20:01:25.483,27 Dec 2022 20:09:08.230,462.747
761,27 Dec 2022 21:38:41.907,27 Dec 2022 21:43:14.764,272.857
762,28 Dec 2022 07:36:33.781,28 Dec 2022 07:42:00.176,326.395
763,28 Dec 2022 09:11:07.779,28 Dec 2022 09:18:36.673,448.894
764,28 Dec 2022 19:58:08.819,28 Dec 2022 20:05:50.930,462.111
765,28 Dec 2022 21:35:22.961,28 Dec 2022 21:39:59.084,276.123
766,29 Dec 2022 07:33:17.727,29 Dec 2022 07:38:41.656,323.929
767,29 Dec 2022 09:07:50.405,29 Dec 2022 09:15:20.131,449.726
768,29 Dec 2022 19:54:52.161,29 Dec 2022 20:02:33.624,461.463
769,29 Dec 2022 21:32:04.045,29 Dec 2022 21:36:43.377,279.333
770,30 Dec 2022 07:30:01.689,30 Dec 2022 07:35:23.117,321.427
771,30 Dec 2022 09:04:33.035,30 Dec 2022 09:12:03.581,450.546
772,30 Dec 2022 19:51:35.511,30 Dec 2022 19:59:16.317,460.806
773,30 Dec 2022 21:28:45.162,30 Dec 2022 21:33:27.645,282.482
774,31 Dec 2022 07:26:45.669,31 Dec 2022 07:32:04.558,318.889
775,31 Dec 2022 09:01:15.669,31 Dec 2022 09:08:47.025,451.355
776,31 Dec 2022 19:48:18.867,31 Dec 2022 19:55:59.005,460.138
777,31 Dec 2022 21:25:26.304,31 Dec 2022 21:30:11.887,285.584
778,1 Jan 2023 07:23:29.660,1 Jan 2023 07:28:45.984,316.324
779,1 Jan 2023 08:57:58.308,1 Jan 2023 09:05:30.462,452.154
780,1 Jan 2023 19:45:02.230,1 Jan 2023 19:52:41.690,459.460
781,1 Jan 2023 21:22:07.472,1 Jan 2023 21:26:56.105,288.633
782,2 Jan 2023 07:20:13.675,2 Jan 2023 07:25:27.385,313.710
783,2 Jan 2023 08:54:40.951,2 Jan 2023 09:02:13.892,452.941
784,2 Jan 2023 19:41:45.600,2 Jan 2023 19:49:24.371,458.771
785,2 Jan 2023 21:18:48.667,2 Jan 2023 21:23:40.300,291.633
786,3 Jan 2023 07:16:57.707,3 Jan 2023 07:22:08.764,311.057
787,3 Jan 2023 08:51:23.598,3 Jan 2023 08:58:57.315,453.717
788,3 Jan 2023 19:38:28.976,3 Jan 2023 19:46:07.045,458.069
789,3 Jan 2023 21:15:29.887,3 Jan 2023 21:20:24.471,294.584
790,4 Jan 2023 07:13:41.755,4 Jan 2023 07:18:50.122,308.367
791,4 Jan 2023 08:48:06.250,4 Jan 2023 08:55:40.731,454.482
792,4 Jan 2023 19:35:12.359,4 Jan 2023 19:42:49.716,457.357
793,4 Jan 2023 21:12:11.132,4 Jan 2023 21:17:08.620,297.488
794,5 Jan 2023 07:10:25.824,5 Jan 2023 07:15:31.463,305.639
795,5 Jan 2023 08:44:48.905,5 Jan 2023 08:52:24.141,455.235
796,5 Jan 2023 19:31:55.749,5 Jan 2023 19:39:32.383,456.634
797,5 Jan 2023 21:08:52.401,5 Jan 2023 21:13:52.748,300.347
798,6 Jan 2023 07:07:09.913,6 Jan 2023 07:12:12.778,302.865
799,6 Jan 2023 08:41:31.565,6 Jan 2023 08:49:07.543,455.978
800,6 Jan 2023 19:28:39.145,6 Jan 2023 19:36:15.046,455.900
801,6 Jan 2023 21:05:33.693,6 Jan 2023 21:10:36.852,303.158
802,7 Jan 2023 07:03:54.019,7 Jan 2023 07:08:54.069,300.050
803,7 Jan 2023 08:38:14.229,7 Jan 2023 08:45:50.939,456.710
804,7 Jan 2023 19:25:22.549,7 Jan 2023 19:32:57.705,455.156
805,7 Jan 2023 21:02:15.011,7 Jan 2023 21:07:20.936,305.926
806,8 Jan 2023 07:00:38.148,8 Jan 2023 07:05:35.337,297.189
807,8 Jan 2023 08:34:56.897,8 Jan 2023 08:42:34.327,457.430
808,8 Jan 2023 19:22:05.959,8 Jan 2023 19:29:40.359,454.401
809,8 Jan 2023 20:58:56.348,8 Jan 2023 21:04:05.004,308.656
810,9 Jan 2023 06:57:22.299,9 Jan 2023 07:02:16.580,294.281
811,9 Jan 2023 08:31:39.569,9 Jan 2023 08:39:17.709,458.141
812,9 Jan 2023 19:18:49.375,9 Jan 2023 19:26:23.010,453.634
813,9 Jan 2023 20:55:37.710,9 Jan 2023 21:00:49.053,311.344
814,10 Jan 2023 06:54:06.471,10 Jan 2023 06:58:57.797,291.326
815,10 Jan 2023 08:28:22.245,10 Jan 2023 08:36:01.089,458.844
816,10 Jan 2023 19:15:32.799,10 Jan 2023 19:23:05.656,452.857
817,10 Jan 2023 20:52:19.090,10 Jan 2023 20:57:33.084,313.994
818,11 Jan 2023 06:50:50.666,11 Jan 2023 06:55:38.989,288.323
819,11 Jan 2023 08:25:04.925,11 Jan 2023 08:32:44.457,459.532
820,11 Jan 2023 19:12:16.230,11 Jan 2023 19:19:48.299,452.069
821,11 Jan 2023 20:49:00.492,11 Jan 2023 20:54:17.096,316.604
822,12 Jan 2023 06:47:34.885,12 Jan 2023 06:52:20.154,285.269
823,12 Jan 2023 08:21:47.609,12 Jan 2023 08:29:27.816,460.207
824,12 Jan 2023 19:08:59.668,12 Jan 2023 19:16:30.937,451.269
825,12 Jan 2023 20:45:41.919,12 Jan 2023 20:51:01.086,319.167
826,13 Jan 2023 06:44:19.128,13 Jan 2023 06:49:01.292,282.164
827,13 Jan 2023 08:18:30.298,13 Jan 2023 08:26:11.170,460.873
828,13 Jan 2023 19:05:43.113,13 Jan 2023 19:13:13.571,450.458
829,13 Jan 2023 20:42:23.361,13 Jan 2023 20:47:45.063,321.702
830,14 Jan 2023 06:41:03.397,14 Jan 2023 06:45:42.402,279.005
831,14 Jan 2023 08:15:12.990,14 Jan 2023 08:22:54.521,461.530
832,14 Jan 2023 19:02:26.565,14 Jan 2023 19:09:56.201,449.636
833,14 Jan 2023 20:39:04.824,14 Jan 2023 20:44:29.024,324.200
834,15 Jan 2023 06:37:47.691,15 Jan 2023 06:42:23.483,275.792
835,15 Jan 2023 08:11:55.687,15 Jan 2023 08:19:37.862,462.175
836,15 Jan 2023 18:59:10.024,15 Jan 2023 19:06:38.826,448.802
837,15 Jan 2023 20:35:46.305,15 Jan 2023 20:41:12.969,326.663
838,16 Jan 2023 06:34:32.013,16 Jan 2023 06:39:04.534,272.521
839,16 Jan 2023 08:08:38.388,16 Jan 2023 08:16:21.197,462.810
840,16 Jan 2023 18:55:53.490,16 Jan 2023 19:03:21.447,447.957
841,16 Jan 2023 20:32:27.806,16 Jan 2023 20:37:56.898,329.092
842,17 Jan 2023 06:31:16.363,17 Jan 2023 06:35:45.558,269.195
843,17 Jan 2023 08:05:21.092,17 Jan 2023 08:13:04.526,463.433
844,17 Jan 2023 18:52:36.963,17 Jan 2023 19:00:04.061,447.098
845,17 Jan 2023 20:29:09.325,17 Jan 2023 20:34:40.812,331.487
846,18 Jan 2023 06:28:00.742,18 Jan 2023 06:32:26.543,265.801
847,18 Jan 2023 08:02:03.801,18 Jan 2023 08:09:47.847,464.046
848,18 Jan 2023 18:49:20.444,18 Jan 2023 18:56:46.673,446.230
849,18 Jan 2023 20:25:50.862,18 Jan 2023 20:31:24.710,333.849
850,19 Jan 2023 06:24:45.152,19 Jan 2023 06:29:07.497,262.345
851,19 Jan 2023 07:58:46.513,19 Jan 2023 08:06:31.165,464.651
852,19 Jan 2023 18:46:03.931,19 Jan 2023 18:53:29.281,445.350
853,19 Jan 2023 20:22:32.416,19 Jan 2023 20:28:08.594,336.178
854,20 Jan 2023 06:21:29.588,20 Jan 2023 06:25:48.416,258.828
855,20 Jan 2023 07:55:29.229,20 Jan 2023 08:03:14.473,465.244
856,20 Jan 2023 18:42:47.425,20 Jan 2023 18:50:11.883,444.458
857,20 Jan 2023 20:19:13.988,20 Jan 2023 20:24:52.464,338.476
858,21 Jan 2023 06:18:14.063,21 Jan 2023 06:22:29.299,255.236
859,21 Jan 2023 07:52:11.949,21 Jan 2023 07:59:57.775,465.826
860,21 Jan 2023 18:39:30.927,21 Jan 2023 18:46:54.482,443.555
861,21 Jan 2023 20:15:55.572,21 Jan 2023 20:21:36.319,340.747
862,22 Jan 2023 06:14:58.572,22 Jan 2023 06:19:10.144,251.572
863,22 Jan 2023 07:48:54.673,22 Jan 2023 07:56:41.070,466.397
864,22 Jan 2023 18:36:14.435,22 Jan 2023 18:43:37.073,442.637
865,22 Jan 2023 20:12:37.177,22 Jan 2023 20:18:20.161,342.983
866,23 Jan 2023 06:11:43.118,23 Jan 2023 06:15:50.950,247.832
867,23 Jan 2023 07:45:37.401,23 Jan 2023 07:53:24.359,466.958
868,23 Jan 2023 18:32:57.951,23 Jan 2023 18:40:19.661,441.710
869,23 Jan 2023 20:09:18.799,23 Jan 2023 20:15:03.989,345.190
870,24 Jan 2023 06:08:27.705,24 Jan 2023 06:12:31.719,244.013
871,24 Jan 2023 07:42:20.132,24 Jan 2023 07:50:07.641,467.509
872,24 Jan 2023 18:29:41.475,24 Jan 2023 18:37:02.246,440.772
873,24 Jan 2023 20:06:00.437,24 Jan 2023 20:11:47.804,347.368
874,25 Jan 2023 06:05:12.329,25 Jan 2023 06:09:12.440,240.111
875,25 Jan 2023 07:39:02.868,25 Jan 2023 07:46:50.918,468.050
876,25 Jan 2023 18:26:25.005,25 Jan 2023 18:33:44.826,439.821
877,25 Jan 2023 20:02:42.090,25 Jan 2023 20:08:31.607,349.517
878,26 Jan 2023 06:01:56.996,26 Jan 2023 06:05:53.117,236.121
879,26 Jan 2023 07:35:45.607,26 Jan 2023 07:43:34.188,468.581
880,26 Jan 2023 18:23:08.544,26 Jan 2023 18:30:27.402,438.858
881,26 Jan 2023 19:59:23.757,26 Jan 2023 20:05:15.398,351.641
882,27 Jan 2023 05:58:41.706,27 Jan 2023 06:02:33.746,232.041
883,27 Jan 2023 07:32:28.350,27 Jan 2023 07:40:17.452,469.101
884,27 Jan 2023 18:19:52.090,27 Jan 2023 18:27:09.972,437.883
885,27 Jan 2023 19:56:05.441,27 Jan 2023 20:01:59.177,353.736
886,28 Jan 2023 05:55:26.463,28 Jan 2023 05:59:14.326,227.864
887,28 Jan 2023 07:29:11.097,28 Jan 2023 07:37:00.709,469.612
888,28 Jan 2023 18:16:35.643,28 Jan 2023 18:23:52.538,436.896
889,28 Jan 2023 19:52:47.140,28 Jan 2023 19:58:42.943,355.804
890,29 Jan 2023 05:52:11.269,29 Jan 2023 05:55:54.854,223.585
891,29 Jan 2023 07:25:53.848,29 Jan 2023 07:33:43.960,470.111
892,29 Jan 2023 18:13:19.204,29 Jan 2023 18:20:35.101,435.897
893,29 Jan 2023 19:49:28.853,29 Jan 2023 19:55:26.699,357.846
894,30 Jan 2023 05:48:56.127,30 Jan 2023 05:52:35.324,219.197
895,30 Jan 2023 07:22:36.603,30 Jan 2023 07:30:27.204,470.601
896,30 Jan 2023 18:10:02.772,30 Jan 2023 18:17:17.656,434.884
897,30 Jan 2023 19:46:10.581,30 Jan 2023 19:52:10.442,359.862
898,31 Jan 2023 05:45:41.042,31 Jan 2023 05:49:15.735,214.693
899,31 Jan 2023 07:19:19.362,31 Jan 2023 07:27:10.442,471.081
900,31 Jan 2023 18:06:46.348,31 Jan 2023 18:14:00.207,433.859
901,31 Jan 2023 19:42:52.323,31 Jan 2023 19:48:54.173,361.851
902,1 Feb 2023 05:42:26.016,1 Feb 2023 05:45:56.086,210.070
903,1 Feb 2023 07:16:02.124,1 Feb 2023 07:23:53.674,471.550
904,1 Feb 2023 18:03:29.931,1 Feb 2023 18:10:42.753,432.821
905,1 Feb 2023 19:39:34.078,1 Feb 2023 19:45:37.892,363.813
906,2 Feb 2023 05:39:11.054,2 Feb 2023 05:42:36.369,205.315
907,2 Feb 2023 07:12:44.889,2 Feb 2023 07:20:36.899,472.010
908,2 Feb 2023 18:00:13.522,2 Feb 2023 18:07:25.293,431.771
909,2 Feb 2023 19:36:15.845,2 Feb 2023 19:42:21.600,365.755
910,3 Feb 2023 05:35:56.160,3 Feb 2023 05:39:16.582,200.422
911,3 Feb 2023 07:09:27.659,3 Feb 2023 07:17:20.118,472.459
912,3 Feb 2023 17:56:57.121,3 Feb 2023 18:04:07.827,430.706
913,3 Feb 2023 19:32:57.628,3 Feb 2023 19:39:05.298,367.670
914,4 Feb 2023 05:32:41.340,4 Feb 2023 05:35:56.718,195.378
915,4 Feb 2023 07:06:10.432,4 Feb 2023 07:14:03.330,472.898
916,4 Feb 2023 17:53:40.727,4 Feb 2023 18:00:50.355,429.628
917,4 Feb 2023 19:29:39.424,4 Feb 2023 19:35:48.985,369.560
918,5 Feb 2023 05:29:26.599,5 Feb 2023 05:32:36.772,190.173
919,5 Feb 2023 07:02:53.209,5 Feb 2023 07:10:46.536,473.328
920,5 Feb 2023 17:50:24.341,5 Feb 2023 17:57:32.880,428.538
921,5 Feb 2023 19:26:21.234,5 Feb 2023 19:32:32.662,371.428
922,6 Feb 2023 05:26:11.945,6 Feb 2023 05:29:16.738,184.793
923,6 Feb 2023 06:59:35.989,6 Feb 2023 07:07:29.736,473.747
924,6 Feb 2023 17:47:07.963,6 Feb 2023 17:54:15.405,427.441
925,6 Feb 2023 19:23:03.057,6 Feb 2023 19:29:16.328,373.271
926,7 Feb 2023 05:22:57.385,7 Feb 2023 05:25:56.606,179.220
927,7 Feb 2023 06:56:18.773,7 Feb 2023 07:04:12.929,474.156
928,7 Feb 2023 17:43:51.593,7 Feb 2023 17:50:57.919,426.326
929,7 Feb 2023 19:19:44.892,7 Feb 2023 19:25:59.984,375.092
930,8 Feb 2023 05:19:42.929,8 Feb 2023 05:22:36.365,173.436
931,8 Feb 2023 06:53:01.561,8 Feb 2023 07:00:56.116,474.555
932,8 Feb 2023 17:40:35.231,8 Feb 2023 17:47:40.427,425.197
933,8 Feb 2023 19:16:26.740,8 Feb 2023 19:22:43.634,376.893
934,9 Feb 2023 05:16:28.588,9 Feb 2023 05:19:16.008,167.420
935,9 Feb 2023 06:49:44.353,9 Feb 2023 06:57:39.297,474.944
936,9 Feb 2023 17:37:18.877,9 Feb 2023 17:44:22.930,424.054
937,9 Feb 2023 19:13:08.601,9 Feb 2023 19:19:27.271,378.670
938,10 Feb 2023 05:13:14.374,10 Feb 2023 05:15:55.520,161.146
939,10 Feb 2023 06:46:27.148,10 Feb 2023 06:54:22.472,475.324
940,10 Feb 2023 17:34:02.531,10 Feb 2023 17:41:05.431,422.900
941,10 Feb 2023 19:09:50.474,10 Feb 2023 19:16:10.899,380.424
942,11 Feb 2023 05:10:00.303,11 Feb 2023 05:12:34.886,154.583
943,11 Feb 2023 06:43:09.947,11 Feb 2023 06:51:05.642,475.695
944,11 Feb 2023 17:30:46.193,11 Feb 2023 17:37:47.924,421.731
945,11 Feb 2023 19:06:32.360,11 Feb 2023 19:12:54.517,382.157
946,12 Feb 2023 05:06:46.395,12 Feb 2023 05:09:14.087,147.692
947,12 Feb 2023 06:39:52.750,12 Feb 2023 06:47:48.804,476.054
948,12 Feb 2023 17:27:29.863,12 Feb 2023 17:34:30.414,420.551
949,12 Feb 2023 19:03:14.257,12 Feb 2023 19:09:38.126,383.869
950,13 Feb 2023 05:03:32.673,13 Feb 2023 05:05:53.098,140.425
951,13 Feb 2023 06:36:35.557,13 Feb 2023 06:44:31.960,476.403
952,13 Feb 2023 17:24:13.542,13 Feb 2023 17:31:12.897,419.355
953,13 Feb 2023 18:59:56.167,13 Feb 2023 19:06:21.727,385.561
954,14 Feb 2023 05:00:19.169,14 Feb 2023 05:02:31.889,132.721
955,14 Feb 2023 06:33:18.367,14 Feb 2023 06:41:15.112,476.745
956,14 Feb 2023 17:20:57.228,14 Feb 2023 17:27:55.374,418.146
957,14 Feb 2023 18:56:38.088,14 Feb 2023 19:03:05.321,387.233
958,15 Feb 2023 04:57:05.919,15 Feb 2023 04:59:10.419,124.499
959,15 Feb 2023 06:30:01.180,15 Feb 2023 06:37:58.256,477.076
960,15 Feb 2023 17:17:40.923,15 Feb 2023 17:24:37.846,416.923
961,15 Feb 2023 18:53:20.020,15 Feb 2023 18:59:48.905,388.885
962,16 Feb 2023 04:53:52.986,16 Feb 2023 04:55:48.631,115.645
963,16 Feb 2023 06:26:43.997,16 Feb 2023 06:34:41.389,477.391
964,16 Feb 2023 17:14:24.626,16 Feb 2023 17:21:20.312,415.686
965,16 Feb 2023 18:50:01.964,16 Feb 2023 18:56:32.481,390.517
966,17 Feb 2023 04:50:40.442,17 Feb 2023 04:52:26.451,106.010
967,17 Feb 2023 06:23:26.818,17 Feb 2023 06:31:24.521,477.703
968,17 Feb 2023 17:11:08.338,17 Feb 2023 17:18:02.773,414.435
969,17 Feb 2023 18:46:43.919,17 Feb 2023 18:53:16.046,392.127
970,18 Feb 2023 04:47:28.411,18 Feb 2023 04:49:03.756,95.344
971,18 Feb 2023 06:20:09.642,18 Feb 2023 06:28:07.648,478.006
972,18 Feb 2023 17:07:52.058,18 Feb 2023 17:14:45.225,413.167
973,18 Feb 2023 18:43:25.885,18 Feb 2023 18:49:59.603,393.718
974,19 Feb 2023 04:44:17.089,19 Feb 2023 04:45:40.344,83.255
975,19 Feb 2023 06:16:52.469,19 Feb 2023 06:24:50.766,478.297
976,19 Feb 2023 17:04:35.786,19 Feb 2023 17:11:27.674,411.888
977,19 Feb 2023 18:40:07.863,19 Feb 2023 18:46:43.152,395.289
978,20 Feb 2023 04:41:06.846,20 Feb 2023 04:42:15.853,69.007
