data/Partner_Institute/Skyhopper_Partner-Pingley_AER_1year.csv

"Time (UTCG)","Azimuth (deg)","Elevation (deg)","Range (km)"
1 Jun 2022 11:27:12.121,0.057,-25.136,1817.194526
1 Jun 2022 11:28:12.000,358.989,-28.680,1411.250390
1 Jun 2022 11:29:12.000,356.851,-36.433,1026.456078
1 Jun 2022 11:30:12.000,350.410,-54.004,703.642178
1 Jun 2022 11:31:12.000,263.377,-80.509,564.260083
1 Jun 2022 11:32:12.000,195.122,-52.121,723.898367
1 Jun 2022 11:33:12.000,189.368,-35.611,1054.010987
1 Jun 2022 11:34:12.000,187.383,-28.312,1440.957594
1 Jun 2022 11:35:10.929,186.405,-25.005,1840.845351
1 Jun 2022 23:08:36.182,337.350,-25.009,1840.172891
1 Jun 2022 23:09:36.000,331.392,-28.037,1464.352872
1 Jun 2022 23:10:36.000,320.562,-33.702,1126.706732
1 Jun 2022 23:11:36.000,298.432,-42.168,877.603360
1 Jun 2022 23:12:36.000,259.043,-46.089,805.640782
1 Jun 2022 23:13:36.000,225.171,-38.975,952.364110
1 Jun 2022 23:14:36.000,208.194,-31.275,1242.286353
1 Jun 2022 23:15:36.000,199.559,-26.688,1598.594359
1 Jun 2022 23:16:10.395,196.403,-25.133,1817.638522
2 Jun 2022 00:46:53.963,80.204,-25.045,1833.545415
2 Jun 2022 00:47:20.616,86.490,-25.108,1822.073358
2 Jun 2022 00:47:47.268,92.783,-25.059,1830.974969
2 Jun 2022 11:23:55.014,0.379,-25.136,1817.198006
2 Jun 2022 11:24:55.000,359.414,-28.692,1410.363854
2 Jun 2022 11:25:55.000,357.486,-36.468,1025.341083
2 Jun 2022 11:26:55.000,351.654,-54.147,702.195669
2 Jun 2022 11:27:55.000,262.065,-81.412,562.719899
2 Jun 2022 11:28:55.000,193.943,-52.206,722.936591
2 Jun 2022 11:29:55.000,188.750,-35.625,1053.537246
2 Jun 2022 11:30:55.000,186.965,-28.314,1440.765208
2 Jun 2022 11:31:53.932,186.087,-25.005,1840.850928
2 Jun 2022 23:05:19.519,337.013,-25.009,1840.152314
2 Jun 2022 23:06:19.000,331.004,-28.002,1467.396143
2 Jun 2022 23:07:19.000,320.077,-33.598,1131.058477
2 Jun 2022 23:08:19.000,297.949,-41.881,883.645032
2 Jun 2022 23:09:19.000,259.092,-45.660,812.666260
2 Jun 2022 23:10:19.000,225.602,-38.738,958.649529
2 Jun 2022 23:11:19.000,208.599,-31.183,1247.334779
2 Jun 2022 23:12:19.000,199.891,-26.653,1602.668593
2 Jun 2022 23:12:52.834,196.745,-25.133,1817.661356
3 Jun 2022 00:43:27.502,77.910,-25.042,1833.981418
3 Jun 2022 00:44:27.000,91.999,-25.120,1819.912206
3 Jun 2022 00:44:40.111,95.078,-25.061,1830.475507
3 Jun 2022 11:20:37.914,0.700,-25.136,1817.201950
3 Jun 2022 11:21:37.000,359.859,-28.617,1416.210470
3 Jun 2022 11:22:37.000,358.165,-36.311,1030.417613
3 Jun 2022 11:23:37.000,353.084,-53.845,705.274968
3 Jun 2022 11:24:37.000,265.744,-82.439,561.163386
3 Jun 2022 11:25:37.000,192.909,-52.692,717.533386
3 Jun 2022 11:26:37.000,188.172,-35.815,1046.997477
3 Jun 2022 11:27:37.000,186.565,-28.397,1433.953738
3 Jun 2022 11:28:36.930,185.770,-25.005,1840.856376
3 Jun 2022 23:02:02.863,336.676,-25.009,1840.131420
3 Jun 2022 23:03:02.000,330.619,-27.967,1470.489236
3 Jun 2022 23:04:02.000,319.596,-33.494,1135.470078
3 Jun 2022 23:05:02.000,297.475,-41.597,889.747864
3 Jun 2022 23:06:02.000,259.139,-45.238,819.746870
3 Jun 2022 23:07:02.000,226.023,-38.503,964.995348
3 Jun 2022 23:08:02.000,209.001,-31.091,1252.443197
3 Jun 2022 23:09:02.000,200.221,-26.617,1606.796618
3 Jun 2022 23:09:35.263,197.087,-25.133,1817.684196
4 Jun 2022 00:40:03.151,76.107,-25.040,1834.316171
4 Jun 2022 00:41:03.000,90.314,-25.191,1807.419793
4 Jun 2022 00:41:30.848,96.883,-25.064,1830.085774
4 Jun 2022 11:17:20.823,1.022,-25.136,1817.206362
4 Jun 2022 11:18:20.000,0.283,-28.627,1415.470818
4 Jun 2022 11:19:20.000,358.799,-36.339,1029.498771
4 Jun 2022 11:20:20.000,354.333,-53.959,704.102615
4 Jun 2022 11:21:20.000,264.389,-83.360,559.941470
4 Jun 2022 11:22:20.000,191.699,-52.758,716.806440
4 Jun 2022 11:23:20.000,187.549,-35.824,1046.678356
4 Jun 2022 11:24:20.000,186.145,-28.398,1433.868620
4 Jun 2022 11:25:19.922,185.452,-25.005,1840.861707
4 Jun 2022 22:58:46.215,336.338,-25.009,1840.110207
4 Jun 2022 22:59:46.000,330.101,-28.000,1467.651404
4 Jun 2022 23:00:46.000,318.865,-33.506,1134.945022
4 Jun 2022 23:01:46.000,296.500,-41.445,893.069080
4 Jun 2022 23:02:46.000,258.513,-44.782,827.622788
4 Jun 2022 23:03:46.000,226.041,-38.132,975.273020
4 Jun 2022 23:04:46.000,209.202,-30.902,1263.095207
4 Jun 2022 23:05:46.000,200.440,-26.528,1617.190943
4 Jun 2022 23:06:17.681,197.429,-25.133,1817.707393
5 Jun 2022 00:36:39.949,74.570,-25.039,1834.596600
5 Jun 2022 00:37:39.000,88.605,-25.256,1796.391919
5 Jun 2022 00:38:20.430,98.422,-25.065,1829.748400
5 Jun 2022 11:14:03.741,1.343,-25.136,1817.211233
5 Jun 2022 11:15:03.000,0.708,-28.635,1414.803418
5 Jun 2022 11:16:03.000,359.434,-36.365,1028.676167
5 Jun 2022 11:17:03.000,355.592,-54.061,703.065562
5 Jun 2022 11:18:03.000,262.602,-84.280,558.882833
5 Jun 2022 11:19:03.000,190.484,-52.813,716.202458
5 Jun 2022 11:20:03.000,186.925,-35.831,1046.439479
5 Jun 2022 11:21:03.000,185.725,-28.398,1433.838730
5 Jun 2022 11:22:02.907,185.135,-25.005,1840.866937
5 Jun 2022 22:55:29.575,335.999,-25.009,1840.088673
5 Jun 2022 22:56:29.000,329.717,-27.963,1470.861886
5 Jun 2022 22:57:29.000,318.392,-33.400,1139.500700
5 Jun 2022 22:58:29.000,296.050,-41.162,899.317520
5 Jun 2022 22:59:29.000,258.566,-44.378,834.809936
5 Jun 2022 23:00:29.000,226.447,-37.904,981.715557
5 Jun 2022 23:01:29.000,209.594,-30.812,1268.301965
5 Jun 2022 23:02:29.000,200.765,-26.493,1621.411023
5 Jun 2022 23:03:00.090,197.773,-25.133,1817.731180
6 Jun 2022 00:33:17.500,73.207,-25.038,1834.842205
6 Jun 2022 00:34:17.000,87.357,-25.312,1786.912273
6 Jun 2022 00:35:09.255,99.786,-25.067,1829.447349
6 Jun 2022 11:10:46.667,1.664,-25.135,1817.216567
6 Jun 2022 11:11:46.000,1.132,-28.643,1414.208399
6 Jun 2022 11:12:46.000,0.070,-36.387,1027.950046
6 Jun 2022 11:13:46.000,356.862,-54.150,702.164388
6 Jun 2022 11:14:46.000,260.136,-85.196,557.988331
6 Jun 2022 11:15:46.000,189.264,-52.857,715.721653
6 Jun 2022 11:16:46.000,186.301,-35.836,1046.280805
6 Jun 2022 11:17:46.000,185.305,-28.398,1433.863984
6 Jun 2022 11:18:45.887,184.817,-25.005,1840.872074
6 Jun 2022 22:52:12.943,335.659,-25.009,1840.066814
6 Jun 2022 22:53:12.000,329.336,-27.926,1474.121470
6 Jun 2022 22:54:12.000,317.924,-33.293,1144.114260
6 Jun 2022 22:55:12.000,295.609,-40.883,905.623224
6 Jun 2022 22:56:12.000,258.617,-43.980,842.047902
6 Jun 2022 22:57:12.000,226.845,-37.679,988.214852
6 Jun 2022 22:58:12.000,209.981,-30.721,1273.566216
6 Jun 2022 22:59:12.000,201.087,-26.457,1625.683288
6 Jun 2022 22:59:42.489,198.117,-25.132,1817.755559
7 Jun 2022 00:29:55.597,71.969,-25.036,1835.058075
7 Jun 2022 00:30:55.000,86.095,-25.365,1778.220556
7 Jun 2022 00:31:55.000,100.446,-25.092,1824.956464
7 Jun 2022 00:31:57.532,101.026,-25.069,1829.171462
7 Jun 2022 11:07:29.601,1.986,-25.135,1817.222362
7 Jun 2022 11:08:29.000,1.558,-28.649,1413.685814
7 Jun 2022 11:09:29.000,0.707,-36.406,1027.320565
7 Jun 2022 11:10:29.000,358.139,-54.226,701.399556
7 Jun 2022 11:11:29.000,256.523,-86.102,557.258688
7 Jun 2022 11:12:29.000,188.040,-52.890,715.364229
7 Jun 2022 11:13:29.000,185.677,-35.838,1046.202346
7 Jun 2022 11:14:29.000,184.885,-28.397,1433.944361
7 Jun 2022 11:15:28.862,184.500,-25.005,1840.877126
7 Jun 2022 22:48:56.318,335.319,-25.009,1840.044628
7 Jun 2022 22:49:56.000,328.816,-27.956,1471.516334
7 Jun 2022 22:50:56.000,317.199,-33.298,1143.892686
7 Jun 2022 22:51:56.000,294.671,-40.724,909.273336
7 Jun 2022 22:52:56.000,258.027,-43.548,850.140157
7 Jun 2022 22:53:56.000,226.849,-37.327,998.620022
7 Jun 2022 22:54:56.000,210.168,-30.539,1284.331884
7 Jun 2022 22:55:56.000,201.297,-26.371,1636.186556
7 Jun 2022 22:56:24.877,198.462,-25.132,1817.779072
8 Jun 2022 00:26:34.109,70.825,-25.035,1835.258105
8 Jun 2022 00:27:34.000,85.065,-25.415,1770.093773
8 Jun 2022 00:28:34.000,99.550,-25.178,1809.792762
8 Jun 2022 00:28:45.387,102.171,-25.070,1828.909655
8 Jun 2022 11:04:12.543,2.307,-25.135,1817.228619
8 Jun 2022 11:05:12.000,1.983,-28.655,1413.235626
8 Jun 2022 11:06:12.000,1.345,-36.423,1026.787784
8 Jun 2022 11:07:12.000,359.423,-54.288,700.771404
8 Jun 2022 11:08:12.000,250.767,-86.985,556.694494
8 Jun 2022 11:09:12.000,186.815,-52.912,715.130388
8 Jun 2022 11:10:12.000,185.053,-35.838,1046.204170
8 Jun 2022 11:11:12.000,184.466,-28.395,1434.079921
8 Jun 2022 11:12:11.830,184.183,-25.005,1840.882100
8 Jun 2022 22:45:39.701,334.978,-25.009,1840.022111
8 Jun 2022 22:46:39.000,328.437,-27.918,1474.891818
8 Jun 2022 22:47:39.000,316.739,-33.189,1148.646220
8 Jun 2022 22:48:39.000,294.253,-40.448,915.716093
8 Jun 2022 22:49:39.000,258.083,-43.167,857.475847
8 Jun 2022 22:50:39.000,227.233,-37.109,1005.209428
8 Jun 2022 22:51:39.000,210.546,-30.450,1289.689917
8 Jun 2022 22:52:39.000,201.615,-26.336,1640.547978
8 Jun 2022 22:53:07.256,198.807,-25.132,1817.808276
9 Jun 2022 00:23:12.957,69.757,-25.034,1835.438173
9 Jun 2022 00:24:12.000,83.778,-25.461,1762.857257
9 Jun 2022 00:25:12.000,98.401,-25.272,1793.654921
9 Jun 2022 00:25:32.914,103.241,-25.071,1828.679544
9 Jun 2022 11:00:55.494,2.628,-25.135,1817.235342
9 Jun 2022 11:01:55.000,2.409,-28.660,1412.857702
9 Jun 2022 11:02:55.000,1.985,-36.436,1026.351659
9 Jun 2022 11:03:55.000,0.712,-54.337,700.280139
9 Jun 2022 11:04:55.000,240.466,-87.816,556.296208
9 Jun 2022 11:05:55.000,185.587,-52.922,715.020336
9 Jun 2022 11:06:55.000,184.429,-35.836,1046.286421
9 Jun 2022 11:07:55.000,184.046,-28.393,1434.270809
9 Jun 2022 11:08:54.792,183.866,-25.005,1840.886998
9 Jun 2022 22:42:23.092,334.636,-25.010,1839.999262
9 Jun 2022 22:43:23.000,327.915,-27.945,1472.451553
9 Jun 2022 22:44:23.000,316.018,-33.189,1148.641397
9 Jun 2022 22:45:23.000,293.339,-40.284,919.602578
9 Jun 2022 22:46:23.000,257.518,-42.749,865.723583
9 Jun 2022 22:47:23.000,227.231,-36.771,1015.700125
9 Jun 2022 22:48:23.000,210.724,-30.273,1300.527372
9 Jun 2022 22:49:23.000,201.819,-26.251,1651.119703
9 Jun 2022 22:49:49.624,199.154,-25.132,1817.837834
10 Jun 2022 00:19:52.076,68.751,-25.033,1835.609185
10 Jun 2022 00:20:52.000,82.974,-25.508,1755.436314
10 Jun 2022 00:21:52.000,97.708,-25.350,1780.753734
10 Jun 2022 00:22:20.159,104.249,-25.073,1828.454556
10 Jun 2022 10:57:38.453,2.949,-25.135,1817.242517
10 Jun 2022 10:58:38.000,2.835,-28.664,1412.551815
10 Jun 2022 10:59:38.000,2.624,-36.447,1026.012046
10 Jun 2022 11:00:38.000,2.006,-54.372,699.925839
10 Jun 2022 11:01:38.000,219.427,-88.499,556.064153
10 Jun 2022 11:02:38.000,184.360,-52.921,715.034284
10 Jun 2022 11:03:38.000,183.805,-35.831,1046.449303
10 Jun 2022 11:04:38.000,183.627,-28.390,1434.517256
10 Jun 2022 11:05:37.749,183.548,-25.005,1840.891831
10 Jun 2022 22:39:06.492,334.294,-25.010,1839.976076
10 Jun 2022 22:40:06.000,327.538,-27.906,1475.941421
10 Jun 2022 22:41:06.000,315.566,-33.079,1153.531732
10 Jun 2022 22:42:06.000,292.941,-40.011,926.176515
10 Jun 2022 22:43:06.000,257.578,-42.383,873.151621
10 Jun 2022 22:44:06.000,227.601,-36.560,1022.376117
10 Jun 2022 22:45:06.000,211.093,-30.186,1305.976987
10 Jun 2022 22:46:06.000,202.132,-26.216,1655.569147
10 Jun 2022 22:46:31.983,199.501,-25.132,1817.867749
11 Jun 2022 00:16:31.428,67.797,-25.032,1835.768548
11 Jun 2022 00:17:31.000,81.914,-25.550,1748.918919
11 Jun 2022 00:18:31.000,96.762,-25.435,1766.900054
11 Jun 2022 00:19:07.170,105.204,-25.074,1828.240920
11 Jun 2022 10:54:21.420,3.270,-25.135,1817.250161
11 Jun 2022 10:55:21.000,3.261,-28.667,1412.317685
11 Jun 2022 10:56:21.000,3.265,-36.454,1025.768734
11 Jun 2022 10:57:21.000,3.303,-54.394,699.708478
11 Jun 2022 10:58:21.000,180.248,-88.759,555.998509
11 Jun 2022 10:59:21.000,183.133,-52.908,715.172414
11 Jun 2022 11:00:21.000,183.182,-35.824,1046.693052
11 Jun 2022 11:01:21.000,183.208,-28.386,1434.819536
11 Jun 2022 11:02:20.700,183.231,-25.005,1840.896592
11 Jun 2022 22:35:49.899,333.950,-25.010,1839.952551
11 Jun 2022 22:36:49.000,327.163,-27.866,1479.478039
11 Jun 2022 22:37:49.000,315.119,-32.968,1158.475771
11 Jun 2022 22:38:49.000,292.551,-39.741,932.801200
11 Jun 2022 22:39:49.000,257.636,-42.024,880.624426
11 Jun 2022 22:40:49.000,227.963,-36.352,1029.104270
11 Jun 2022 22:41:49.000,211.459,-30.098,1311.481337
11 Jun 2022 22:42:49.000,202.442,-26.181,1660.069487
11 Jun 2022 22:43:14.330,199.849,-25.132,1817.898026
12 Jun 2022 00:13:10.978,66.887,-25.032,1835.918002
12 Jun 2022 00:14:10.000,80.846,-25.589,1742.950378
12 Jun 2022 00:15:10.000,95.799,-25.520,1753.504519
12 Jun 2022 00:15:53.980,106.116,-25.075,1828.037042
12 Jun 2022 10:51:04.395,3.591,-25.135,1817.258261
12 Jun 2022 10:52:04.000,3.688,-28.669,1412.155049
12 Jun 2022 10:53:04.000,3.905,-36.459,1025.621512
12 Jun 2022 10:54:04.000,4.601,-54.402,699.627964
12 Jun 2022 10:55:04.000,144.505,-88.377,556.099307
12 Jun 2022 10:56:04.000,181.908,-52.884,715.434822
12 Jun 2022 10:57:04.000,182.559,-35.814,1047.017857
12 Jun 2022 10:58:04.000,182.789,-28.382,1435.177887
12 Jun 2022 10:59:03.644,182.914,-25.005,1840.901290
12 Jun 2022 22:32:33.314,333.606,-25.010,1839.928680
12 Jun 2022 22:33:33.000,326.641,-27.891,1477.268608
12 Jun 2022 22:34:33.000,314.405,-32.962,1158.765777
12 Jun 2022 22:35:33.000,291.674,-39.573,936.992528
12 Jun 2022 22:36:33.000,257.101,-41.629,889.063568
12 Jun 2022 22:37:33.000,227.950,-36.030,1039.708558
12 Jun 2022 22:38:33.000,211.623,-29.928,1322.423814
12 Jun 2022 22:39:33.000,202.637,-26.099,1670.745056
12 Jun 2022 22:39:56.665,200.198,-25.132,1817.913033
13 Jun 2022 00:09:50.700,66.016,-25.031,1836.058918
13 Jun 2022 00:10:50.000,80.018,-25.630,1736.694251
13 Jun 2022 00:11:50.000,95.067,-25.598,1741.548386
13 Jun 2022 00:12:40.615,106.989,-25.076,1827.841703
13 Jun 2022 10:47:47.379,3.912,-25.135,1817.266818
13 Jun 2022 10:48:47.000,4.114,-28.670,1412.063776
13 Jun 2022 10:49:47.000,4.546,-36.461,1025.570267
13 Jun 2022 10:50:47.000,5.899,-54.397,699.684212
13 Jun 2022 10:51:47.000,126.553,-87.648,556.366411
13 Jun 2022 10:52:47.000,180.686,-52.848,715.821432
13 Jun 2022 10:53:47.000,181.936,-35.802,1047.423750
13 Jun 2022 10:54:47.000,182.370,-28.377,1435.592395
13 Jun 2022 10:55:46.583,182.597,-25.005,1840.905919
13 Jun 2022 22:29:16.737,333.261,-25.010,1839.904459
13 Jun 2022 22:30:16.000,326.268,-27.850,1480.917860
13 Jun 2022 22:31:16.000,313.966,-32.850,1163.842606
13 Jun 2022 22:32:16.000,291.304,-39.307,943.741160
13 Jun 2022 22:33:16.000,257.163,-41.283,896.622433
13 Jun 2022 22:34:16.000,228.300,-35.829,1046.518997
13 Jun 2022 22:35:16.000,211.980,-29.842,1328.017053
13 Jun 2022 22:36:16.000,202.943,-26.065,1675.332116
13 Jun 2022 22:36:38.991,200.548,-25.131,1817.943632
14 Jun 2022 00:06:30.575,65.178,-25.030,1836.192379
14 Jun 2022 00:07:30.000,79.184,-25.670,1730.768210
14 Jun 2022 00:08:30.000,94.323,-25.676,1729.862003
14 Jun 2022 00:09:27.094,107.829,-25.077,1827.653974
14 Jun 2022 10:44:30.370,4.233,-25.135,1817.275838
14 Jun 2022 10:45:30.000,4.541,-28.670,1412.043958
14 Jun 2022 10:46:30.000,5.187,-36.459,1025.615071
14 Jun 2022 10:47:30.000,7.195,-54.377,699.877204
14 Jun 2022 10:48:30.000,117.551,-86.802,556.799509
14 Jun 2022 10:49:30.000,179.468,-52.801,716.331920
14 Jun 2022 10:50:30.000,181.315,-35.788,1047.910509
14 Jun 2022 10:51:30.000,181.952,-28.371,1436.062886
14 Jun 2022 10:52:29.516,182.280,-25.005,1840.910465
14 Jun 2022 22:26:00.168,332.915,-25.010,1839.879884
14 Jun 2022 22:27:00.000,325.744,-27.873,1478.873807
14 Jun 2022 22:28:00.000,313.256,-32.839,1164.345246
14 Jun 2022 22:29:00.000,290.449,-39.136,948.154037
14 Jun 2022 22:30:00.000,256.649,-40.902,905.201532
14 Jun 2022 22:31:00.000,228.282,-35.520,1057.200675
14 Jun 2022 22:32:00.000,212.137,-29.677,1339.026234
14 Jun 2022 22:33:00.000,203.132,-25.985,1686.072964
14 Jun 2022 22:33:21.307,200.898,-25.131,1817.977309
15 Jun 2022 00:03:10.585,64.370,-25.029,1836.319257
15 Jun 2022 00:04:10.000,78.344,-25.708,1725.175269
15 Jun 2022 00:05:10.000,93.569,-25.754,1718.450547
15 Jun 2022 00:06:10.000,107.882,-25.127,1818.772725
15 Jun 2022 00:06:13.434,108.638,-25.078,1827.469041
15 Jun 2022 10:41:13.370,4.554,-25.135,1817.285316
15 Jun 2022 10:42:13.000,4.967,-28.670,1412.095926
15 Jun 2022 10:43:13.000,5.827,-36.455,1025.756195
15 Jun 2022 10:44:13.000,8.489,-54.344,700.206995
15 Jun 2022 10:45:13.000,112.381,-85.913,557.398119
15 Jun 2022 10:46:13.000,178.255,-52.743,716.965710
15 Jun 2022 10:47:13.000,180.694,-35.772,1048.477647
15 Jun 2022 10:48:13.000,181.534,-28.365,1436.588917
15 Jun 2022 10:49:12.442,181.963,-25.005,1840.914934
15 Jun 2022 22:22:43.608,332.568,-25.010,1839.854950
15 Jun 2022 22:23:43.000,325.375,-27.831,1482.636433
15 Jun 2022 22:24:43.000,312.826,-32.725,1169.553745
15 Jun 2022 22:25:43.000,290.098,-38.874,955.022706
15 Jun 2022 22:26:43.000,256.713,-40.570,912.842403
15 Jun 2022 22:27:43.000,228.621,-35.325,1064.089878
15 Jun 2022 22:28:43.000,212.486,-29.593,1344.705266
15 Jun 2022 22:29:43.000,203.434,-25.951,1690.744229
15 Jun 2022 22:30:03.612,201.250,-25.131,1818.011190
15 Jun 2022 23:59:50.717,63.589,-25.029,1836.440259
16 Jun 2022 00:00:50.000,77.498,-25.744,1719.918476
16 Jun 2022 00:01:50.000,92.803,-25.832,1707.319325
16 Jun 2022 00:02:50.000,107.288,-25.219,1802.756285
16 Jun 2022 00:02:59.649,109.421,-25.079,1827.289113
16 Jun 2022 10:37:56.378,4.875,-25.135,1817.295256
16 Jun 2022 10:38:56.000,5.393,-28.668,1412.220142
16 Jun 2022 10:39:56.000,6.467,-36.447,1025.994013
16 Jun 2022 10:40:56.000,9.778,-54.298,700.673653
16 Jun 2022 10:41:56.000,109.071,-85.005,558.161603
16 Jun 2022 10:42:56.000,177.048,-52.674,717.722056
16 Jun 2022 10:43:56.000,180.075,-35.753,1049.124518
16 Jun 2022 10:44:56.000,181.116,-28.358,1437.169884
16 Jun 2022 10:45:55.363,181.646,-25.005,1840.919319
16 Jun 2022 22:19:27.056,332.221,-25.010,1839.829653
16 Jun 2022 22:20:27.000,324.850,-27.852,1480.759939
16 Jun 2022 22:21:27.000,312.121,-32.710,1170.268815
16 Jun 2022 22:22:27.000,289.266,-38.700,959.651879
16 Jun 2022 22:23:27.000,256.220,-40.202,921.555059
16 Jun 2022 22:24:27.000,228.598,-35.028,1074.844528
16 Jun 2022 22:25:27.000,212.635,-29.432,1355.777342
16 Jun 2022 22:26:27.000,203.617,-25.873,1701.546967
16 Jun 2022 22:26:45.906,201.602,-25.131,1818.045284
16 Jun 2022 23:56:30.959,62.831,-25.028,1836.555972
16 Jun 2022 23:57:30.000,76.647,-25.778,1715.000943
16 Jun 2022 23:58:30.000,92.027,-25.909,1696.473844
16 Jun 2022 23:59:30.000,106.681,-25.312,1786.934833
16 Jun 2022 23:59:45.751,110.180,-25.080,1827.116601
17 Jun 2022 10:34:39.395,5.196,-25.135,1817.305653
17 Jun 2022 10:35:39.000,5.819,-28.666,1412.417017
17 Jun 2022 10:36:39.000,7.106,-36.437,1026.328838
17 Jun 2022 10:37:39.000,11.062,-54.238,701.277146
17 Jun 2022 10:38:39.000,106.779,-84.089,559.089192
17 Jun 2022 10:39:39.000,175.848,-52.595,718.600189
17 Jun 2022 10:40:39.000,179.456,-35.732,1049.850503
17 Jun 2022 10:41:39.000,180.699,-28.350,1437.805224
17 Jun 2022 10:42:38.278,181.329,-25.005,1840.923605
17 Jun 2022 22:16:10.513,331.872,-25.011,1839.803990
17 Jun 2022 22:17:10.000,324.483,-27.809,1484.636652
17 Jun 2022 22:18:10.000,311.699,-32.595,1175.607554
17 Jun 2022 22:19:10.000,288.932,-38.443,966.636143
17 Jun 2022 22:20:10.000,256.287,-39.884,929.273134
17 Jun 2022 22:21:10.000,228.926,-34.840,1081.808005
17 Jun 2022 22:22:10.000,212.976,-29.350,1361.538024
17 Jun 2022 22:23:10.000,203.914,-25.839,1706.298865
17 Jun 2022 22:23:28.187,201.956,-25.131,1818.066226
17 Jun 2022 23:53:11.301,62.096,-25.028,1836.666882
17 Jun 2022 23:54:11.000,76.041,-25.819,1709.112293
17 Jun 2022 23:55:11.000,91.497,-25.982,1686.460023
17 Jun 2022 23:56:11.000,106.293,-25.394,1773.604027
17 Jun 2022 23:56:31.751,110.917,-25.081,1826.950522
18 Jun 2022 10:31:22.420,5.517,-25.135,1817.316509
18 Jun 2022 10:32:22.000,6.245,-28.662,1412.686758
18 Jun 2022 10:33:22.000,7.745,-36.424,1026.760782
18 Jun 2022 10:34:22.000,12.339,-54.164,702.017248
18 Jun 2022 10:35:22.000,105.099,-83.170,560.180004
18 Jun 2022 10:36:22.000,174.655,-52.504,719.599433
18 Jun 2022 10:37:22.000,178.839,-35.708,1050.655158
18 Jun 2022 10:38:22.000,180.282,-28.342,1438.494572
18 Jun 2022 10:39:21.188,181.011,-25.005,1840.927786
18 Jun 2022 22:12:53.979,331.522,-25.011,1839.777957
18 Jun 2022 22:13:53.000,324.118,-27.766,1488.559610
18 Jun 2022 22:14:53.000,311.282,-32.481,1180.996586
18 Jun 2022 22:15:53.000,288.606,-38.189,973.664346
18 Jun 2022 22:16:53.000,256.352,-39.571,937.028856
18 Jun 2022 22:17:53.000,229.248,-34.654,1088.816705
18 Jun 2022 22:18:53.000,213.313,-29.268,1367.347720
18 Jun 2022 22:19:53.000,204.208,-25.805,1711.097331
18 Jun 2022 22:20:10.463,202.310,-25.130,1818.124414
18 Jun 2022 23:49:51.736,61.380,-25.027,1836.773407
18 Jun 2022 23:50:51.000,75.179,-25.850,1704.781043
18 Jun 2022 23:51:51.000,90.700,-26.059,1676.107112
18 Jun 2022 23:52:51.000,105.666,-25.491,1758.115195
18 Jun 2022 23:53:17.657,111.635,-25.082,1826.789865
19 Jun 2022 10:28:05.453,5.838,-25.135,1817.327828
19 Jun 2022 10:29:05.000,6.670,-28.658,1413.029325
19 Jun 2022 10:30:05.000,8.382,-36.407,1027.289718
19 Jun 2022 10:31:05.000,13.608,-54.078,702.893509
19 Jun 2022 10:32:05.000,103.816,-82.251,561.433047
19 Jun 2022 10:33:05.000,173.472,-52.404,720.719243
19 Jun 2022 10:34:05.000,178.224,-35.683,1051.538264
19 Jun 2022 10:35:05.000,179.866,-28.333,1439.237813
19 Jun 2022 10:36:04.091,180.694,-25.005,1840.931848
19 Jun 2022 22:09:37.453,331.172,-25.011,1839.751552
19 Jun 2022 22:10:37.000,323.594,-27.784,1486.918498
19 Jun 2022 22:11:37.000,310.587,-32.460,1181.999452
19 Jun 2022 22:12:37.000,287.807,-38.015,978.569632
19 Jun 2022 22:13:37.000,255.882,-39.223,945.902736
19 Jun 2022 22:14:37.000,229.217,-34.372,1099.664711
19 Jun 2022 22:15:37.000,213.451,-29.113,1378.508184
19 Jun 2022 22:16:37.000,204.384,-25.730,1721.990194
19 Jun 2022 22:16:52.724,202.665,-25.130,1818.156655
19 Jun 2022 23:46:32.256,60.682,-25.026,1836.875901
19 Jun 2022 23:47:32.000,74.563,-25.889,1699.310805
19 Jun 2022 23:48:32.000,90.155,-26.132,1666.434244
19 Jun 2022 23:49:32.000,105.262,-25.575,1745.005113
19 Jun 2022 23:50:03.479,112.335,-25.083,1826.643955
20 Jun 2022 10:24:48.495,6.159,-25.135,1817.339605
20 Jun 2022 10:25:48.000,7.096,-28.652,1413.444473
20 Jun 2022 10:26:48.000,9.019,-36.388,1027.915317
20 Jun 2022 10:27:48.000,14.867,-53.979,703.905280
20 Jun 2022 10:28:48.000,102.801,-81.334,562.847218
20 Jun 2022 10:29:48.000,172.297,-52.293,721.959156
20 Jun 2022 10:30:48.000,177.610,-35.655,1052.499768
20 Jun 2022 10:31:48.000,179.451,-28.323,1440.035028
20 Jun 2022 10:32:46.989,180.377,-25.004,1840.935781
20 Jun 2022 22:06:20.937,330.820,-25.011,1839.724769
20 Jun 2022 22:07:20.000,323.232,-27.740,1490.953338
20 Jun 2022 22:08:20.000,310.179,-32.345,1187.513799
20 Jun 2022 22:09:20.000,287.497,-37.766,985.705521
20 Jun 2022 22:10:20.000,255.949,-38.923,953.728743
20 Jun 2022 22:11:20.000,229.528,-34.192,1106.742136
20 Jun 2022 22:12:20.000,213.780,-29.033,1384.395182
20 Jun 2022 22:13:20.000,204.674,-25.696,1726.866186
20 Jun 2022 22:13:34.974,203.022,-25.130,1818.189510
20 Jun 2022 23:43:12.854,60.001,-25.026,1836.974674
20 Jun 2022 23:44:12.000,73.693,-25.916,1695.575585
20 Jun 2022 23:45:12.000,89.338,-26.208,1656.591771
20 Jun 2022 23:46:12.000,104.613,-25.676,1729.865882
20 Jun 2022 23:46:49.213,113.017,-25.084,1826.484746
21 Jun 2022 10:21:31.544,6.480,-25.135,1817.351845
21 Jun 2022 10:22:31.000,7.520,-28.646,1413.931849
21 Jun 2022 10:23:31.000,9.654,-36.366,1028.637133
21 Jun 2022 10:24:31.000,16.116,-53.867,705.051776
21 Jun 2022 10:25:31.000,101.979,-80.420,564.421284
21 Jun 2022 10:26:31.000,171.133,-52.172,723.318722
21 Jun 2022 10:27:31.000,176.997,-35.625,1053.539698
21 Jun 2022 10:28:31.000,179.036,-28.313,1440.886392
21 Jun 2022 10:29:29.881,180.060,-25.004,1840.939568
21 Jun 2022 22:03:04.429,330.467,-25.011,1839.697606
21 Jun 2022 22:04:04.000,322.707,-27.756,1489.479243
21 Jun 2022 22:05:04.000,309.489,-32.319,1188.722732
21 Jun 2022 22:06:04.000,286.721,-37.590,990.810741
21 Jun 2022 22:07:04.000,255.497,-38.587,962.720662
21 Jun 2022 22:08:04.000,229.494,-33.921,1117.653707
21 Jun 2022 22:09:04.000,213.911,-28.884,1395.611456
21 Jun 2022 22:10:04.000,204.845,-25.623,1737.815441
21 Jun 2022 22:10:17.212,203.379,-25.130,1818.222985
21 Jun 2022 23:39:53.526,59.336,-25.025,1837.068075
21 Jun 2022 23:40:53.000,73.068,-25.952,1690.531524
21 Jun 2022 23:41:53.000,88.777,-26.282,1647.273291
21 Jun 2022 23:42:53.000,104.193,-25.764,1716.988887
21 Jun 2022 23:43:34.878,113.685,-25.084,1826.348259
22 Jun 2022 10:18:14.603,6.801,-25.135,1817.364543
22 Jun 2022 10:19:14.000,7.945,-28.639,1414.491075
22 Jun 2022 10:20:14.000,10.288,-36.341,1029.454680
22 Jun 2022 10:21:14.000,17.353,-53.743,706.332121
22 Jun 2022 10:22:14.000,101.297,-79.509,566.153885
22 Jun 2022 10:23:14.000,169.979,-52.041,724.797437
22 Jun 2022 10:24:14.000,176.386,-35.593,1054.658068
22 Jun 2022 10:25:14.000,178.621,-28.302,1441.792085
22 Jun 2022 10:26:12.768,179.742,-25.004,1840.943196
22 Jun 2022 21:59:47.930,330.114,-25.011,1839.670058
22 Jun 2022 22:00:47.000,322.348,-27.711,1493.623983
22 Jun 2022 22:01:47.000,309.090,-32.204,1194.358837
22 Jun 2022 22:02:47.000,286.426,-37.346,998.049253
22 Jun 2022 22:03:47.000,255.565,-38.299,970.613296
22 Jun 2022 22:04:47.000,229.796,-33.748,1124.797538
22 Jun 2022 22:05:47.000,214.234,-28.805,1401.574248
22 Jun 2022 22:06:47.000,205.130,-25.590,1742.768223
22 Jun 2022 22:06:59.439,203.738,-25.130,1818.257088
22 Jun 2022 23:36:34.266,58.685,-25.025,1837.158945
22 Jun 2022 23:37:34.000,72.440,-25.988,1685.666652
22 Jun 2022 23:38:34.000,88.209,-26.355,1638.102664
22 Jun 2022 23:39:34.000,103.766,-25.854,1704.207639
22 Jun 2022 23:40:20.467,114.338,-25.085,1826.200542
23 Jun 2022 10:14:57.669,7.122,-25.135,1817.377702
23 Jun 2022 10:15:57.000,8.369,-28.631,1415.121804
23 Jun 2022 10:16:57.000,10.920,-36.313,1030.367483
23 Jun 2022 10:17:57.000,18.577,-53.607,707.745391
23 Jun 2022 10:18:57.000,100.723,-78.604,568.043527
23 Jun 2022 10:19:57.000,168.838,-51.902,726.394701
23 Jun 2022 10:20:57.000,175.777,-35.558,1055.854826
23 Jun 2022 10:21:57.000,178.208,-28.291,1442.752230
23 Jun 2022 10:22:55.648,179.425,-25.004,1840.946648
23 Jun 2022 21:56:31.440,329.759,-25.011,1839.642117
23 Jun 2022 21:57:31.000,321.824,-27.726,1492.316199
23 Jun 2022 21:58:31.000,308.406,-32.175,1195.771029
23 Jun 2022 21:59:31.000,285.671,-37.170,1003.348234
23 Jun 2022 22:00:31.000,255.129,-37.974,979.718205
23 Jun 2022 22:01:31.000,229.758,-33.487,1135.770391
23 Jun 2022 22:02:31.000,214.358,-28.660,1412.845023
23 Jun 2022 22:03:31.000,205.296,-25.519,1753.773133
23 Jun 2022 22:03:41.655,204.097,-25.129,1818.291825
23 Jun 2022 23:33:15.070,58.048,-25.024,1837.248528
23 Jun 2022 23:34:15.000,71.808,-26.023,1680.982207
23 Jun 2022 23:35:15.000,87.633,-26.429,1629.082175
23 Jun 2022 23:36:15.000,103.331,-25.945,1691.524216
23 Jun 2022 23:37:05.991,114.978,-25.086,1826.059337
24 Jun 2022 10:11:40.744,7.444,-25.135,1817.391323
24 Jun 2022 10:12:40.000,8.792,-28.622,1415.823750
24 Jun 2022 10:13:40.000,11.550,-36.282,1031.375101
24 Jun 2022 10:14:40.000,19.788,-53.459,709.290630
24 Jun 2022 10:15:40.000,100.231,-77.705,570.088592
24 Jun 2022 10:16:40.000,167.708,-51.753,728.109800
24 Jun 2022 10:17:40.000,175.170,-35.522,1057.129829
24 Jun 2022 10:18:40.000,177.794,-28.278,1443.766863
24 Jun 2022 10:19:38.520,179.107,-25.004,1840.933655
24 Jun 2022 21:53:14.959,329.403,-25.012,1839.613780
24 Jun 2022 21:54:14.000,321.468,-27.680,1496.569469
24 Jun 2022 21:55:14.000,308.016,-32.058,1201.525974
24 Jun 2022 21:56:14.000,285.392,-36.931,1010.685054
24 Jun 2022 21:57:14.000,255.199,-37.698,987.674411
24 Jun 2022 21:58:14.000,230.051,-33.319,1142.978585
24 Jun 2022 21:59:14.000,214.673,-28.584,1418.882137
24 Jun 2022 22:00:14.000,205.577,-25.486,1758.801855
24 Jun 2022 22:00:23.857,204.458,-25.129,1818.317847
24 Jun 2022 23:29:55.932,57.423,-25.024,1837.335255
24 Jun 2022 23:30:55.000,70.922,-26.042,1678.358684
24 Jun 2022 23:31:55.000,86.779,-26.503,1620.208683
24 Jun 2022 23:32:55.000,102.640,-26.052,1677.053951
24 Jun 2022 23:33:51.453,115.605,-25.087,1825.921421
25 Jun 2022 10:08:23.827,7.765,-25.134,1817.405400
25 Jun 2022 10:09:23.000,9.215,-28.612,1416.596692
25 Jun 2022 10:10:23.000,12.178,-36.248,1032.477137
25 Jun 2022 10:11:23.000,20.984,-53.300,710.966861
25 Jun 2022 10:12:23.000,99.805,-76.812,572.287337
25 Jun 2022 10:13:23.000,166.592,-51.595,729.941901
25 Jun 2022 10:14:23.000,174.565,-35.483,1058.482831
25 Jun 2022 10:15:23.000,177.382,-28.266,1444.835928
25 Jun 2022 10:16:21.388,178.790,-25.004,1840.938354
25 Jun 2022 21:49:58.488,329.046,-25.012,1839.585041
25 Jun 2022 21:50:58.000,320.943,-27.692,1495.427933
25 Jun 2022 21:51:58.000,307.338,-32.026,1203.139178
25 Jun 2022 21:52:58.000,284.657,-36.756,1016.172227
25 Jun 2022 21:53:58.000,254.777,-37.385,996.887734
25 Jun 2022 21:54:58.000,230.010,-33.068,1154.010484
25 Jun 2022 21:55:58.000,214.792,-28.443,1430.205884
25 Jun 2022 21:56:58.000,205.738,-25.417,1769.861313
25 Jun 2022 21:57:06.047,204.820,-25.129,1818.337568
25 Jun 2022 23:26:36.852,56.809,-25.024,1837.419303
25 Jun 2022 23:27:36.000,70.282,-26.074,1674.111740
25 Jun 2022 23:28:36.000,86.188,-26.576,1611.565828
25 Jun 2022 23:29:36.000,102.188,-26.146,1664.625975
25 Jun 2022 23:30:36.000,116.044,-25.104,1822.886182
25 Jun 2022 23:30:36.851,116.219,-25.087,1825.773676
26 Jun 2022 10:05:06.918,8.087,-25.134,1817.419945
26 Jun 2022 10:06:06.000,9.637,-28.602,1417.440476
26 Jun 2022 10:07:06.000,12.805,-36.212,1033.673237
26 Jun 2022 10:08:06.000,22.165,-53.131,712.773087
26 Jun 2022 10:09:06.000,99.432,-75.926,574.637911
26 Jun 2022 10:10:06.000,165.488,-51.429,731.890061
26 Jun 2022 10:11:06.000,173.962,-35.443,1059.913494
26 Jun 2022 10:12:06.000,176.970,-28.252,1445.959275
26 Jun 2022 10:13:04.251,178.472,-25.004,1840.942821
26 Jun 2022 21:46:42.026,328.688,-25.012,1839.555893
26 Jun 2022 21:47:42.000,320.418,-27.703,1494.388131
26 Jun 2022 21:48:42.000,306.663,-31.991,1204.880295
26 Jun 2022 21:49:42.000,283.933,-36.578,1021.786040
26 Jun 2022 21:50:42.000,254.366,-37.078,1006.177377
26 Jun 2022 21:51:42.000,229.970,-32.823,1165.078026
26 Jun 2022 21:52:42.000,214.908,-28.305,1441.554559
26 Jun 2022 21:53:42.000,205.896,-25.348,1780.944444
26 Jun 2022 21:53:48.232,205.182,-25.129,1818.399570
26 Jun 2022 23:23:17.824,56.207,-25.023,1837.500830
26 Jun 2022 23:24:17.000,69.640,-26.105,1670.048806
26 Jun 2022 23:25:17.000,85.590,-26.649,1603.080634
26 Jun 2022 23:26:17.000,101.729,-26.242,1652.303016
26 Jun 2022 23:27:17.000,115.750,-25.189,1807.926655
26 Jun 2022 23:27:22.197,116.823,-25.088,1825.640468
27 Jun 2022 10:01:50.017,8.408,-25.134,1817.434953
27 Jun 2022 10:02:50.000,10.096,-28.674,1411.721768
27 Jun 2022 10:03:50.000,13.514,-36.357,1028.924092
27 Jun 2022 10:04:50.000,23.654,-53.351,710.426862
27 Jun 2022 10:05:50.000,101.766,-74.964,577.386078
27 Jun 2022 10:06:50.000,164.676,-50.878,738.483770
27 Jun 2022 10:07:50.000,173.439,-35.229,1067.539458
27 Jun 2022 10:08:50.000,176.595,-28.160,1453.796840
27 Jun 2022 10:09:47.108,178.154,-25.004,1840.947020
27 Jun 2022 21:43:25.573,328.329,-25.012,1839.526331
27 Jun 2022 21:44:25.000,320.067,-27.656,1498.814066
27 Jun 2022 21:45:25.000,306.286,-31.873,1210.822846
27 Jun 2022 21:46:25.000,283.677,-36.346,1029.273617
27 Jun 2022 21:47:25.000,254.441,-36.818,1014.221972
27 Jun 2022 21:48:25.000,230.251,-32.665,1172.369334
27 Jun 2022 21:49:25.000,215.213,-28.232,1447.690235
27 Jun 2022 21:50:25.000,206.170,-25.317,1786.076988
27 Jun 2022 21:50:30.399,205.547,-25.129,1818.432099
27 Jun 2022 23:19:58.846,55.615,-25.023,1837.579980
27 Jun 2022 23:20:58.000,68.994,-26.134,1666.170990
27 Jun 2022 23:21:58.000,84.984,-26.722,1594.755399
27 Jun 2022 23:22:58.000,101.263,-26.339,1640.087256
27 Jun 2022 23:23:58.000,115.451,-25.276,1793.024513
27 Jun 2022 23:24:07.490,117.418,-25.089,1825.509964
28 Jun 2022 09:58:33.125,8.730,-25.134,1817.450425
28 Jun 2022 09:59:33.000,10.519,-28.662,1412.711983
28 Jun 2022 10:00:33.000,14.140,-36.314,1030.316138
28 Jun 2022 10:01:33.000,24.817,-53.156,712.503552
28 Jun 2022 10:02:33.000,101.319,-74.098,580.035007
28 Jun 2022 10:03:33.000,163.615,-50.700,740.649216
28 Jun 2022 10:04:33.000,172.845,-35.185,1069.116446
28 Jun 2022 10:05:33.000,176.187,-28.145,1455.023604
28 Jun 2022 10:06:29.958,177.836,-25.004,1840.950908
28 Jun 2022 21:40:09.130,327.969,-25.012,1839.496348
28 Jun 2022 21:41:09.000,319.541,-27.665,1497.941453
28 Jun 2022 21:42:09.000,305.617,-31.835,1212.762193
28 Jun 2022 21:43:09.000,282.972,-36.170,1035.067240
28 Jun 2022 21:44:09.000,254.044,-36.521,1023.612741
28 Jun 2022 21:45:09.000,230.209,-32.428,1183.491991
28 Jun 2022 21:46:09.000,215.323,-28.098,1459.088831
28 Jun 2022 21:47:09.000,206.324,-25.251,1797.212062
28 Jun 2022 21:47:12.554,205.912,-25.128,1818.460727
28 Jun 2022 23:16:39.915,55.032,-25.022,1837.656882
28 Jun 2022 23:17:39.000,68.345,-26.163,1662.479404
28 Jun 2022 23:18:39.000,84.372,-26.795,1586.592463
28 Jun 2022 23:19:39.000,100.788,-26.438,1627.980948
28 Jun 2022 23:20:39.000,115.147,-25.365,1778.181064
28 Jun 2022 23:20:52.734,118.002,-25.090,1825.382029
29 Jun 2022 09:55:16.241,9.052,-25.134,1817.466360
29 Jun 2022 09:56:16.000,10.941,-28.648,1413.773166
29 Jun 2022 09:57:16.000,14.764,-36.269,1031.801836
29 Jun 2022 09:58:16.000,25.962,-52.951,714.707702
29 Jun 2022 09:59:16.000,100.918,-73.241,582.829486
29 Jun 2022 10:00:16.000,162.568,-50.516,742.926653
29 Jun 2022 10:01:16.000,172.254,-35.140,1070.769152
29 Jun 2022 10:02:16.000,175.780,-28.130,1456.303502
29 Jun 2022 10:03:12.803,177.518,-25.004,1840.954458
29 Jun 2022 21:36:52.696,327.607,-25.012,1839.465939
29 Jun 2022 21:37:52.000,319.194,-27.617,1502.474628
29 Jun 2022 21:38:52.000,305.249,-31.717,1218.817895
29 Jun 2022 21:39:52.000,282.730,-35.943,1042.643498
29 Jun 2022 21:40:52.000,254.119,-36.272,1031.713589
29 Jun 2022 21:41:52.000,230.481,-32.276,1190.841775
29 Jun 2022 21:42:52.000,215.621,-28.027,1465.293501
29 Jun 2022 21:43:52.000,206.594,-25.221,1802.416253
29 Jun 2022 21:43:54.696,206.279,-25.128,1818.486754
29 Jun 2022 23:13:21.030,54.459,-25.022,1837.731657
29 Jun 2022 23:14:21.000,67.942,-26.207,1656.729136
29 Jun 2022 23:15:21.000,84.032,-26.870,1578.239400
29 Jun 2022 23:16:21.000,100.570,-26.525,1617.595933
29 Jun 2022 23:17:21.000,115.053,-25.437,1766.654934
29 Jun 2022 23:17:37.929,118.577,-25.090,1825.256531
30 Jun 2022 09:51:59.365,9.373,-25.134,1817.482756
30 Jun 2022 09:52:59.000,11.362,-28.634,1414.905299
30 Jun 2022 09:53:59.000,15.385,-36.221,1033.380895
30 Jun 2022 09:54:59.000,27.088,-52.737,717.038181
30 Jun 2022 09:55:59.000,100.556,-72.391,585.767338
30 Jun 2022 09:56:59.000,161.535,-50.324,745.314868
30 Jun 2022 09:57:59.000,171.665,-35.092,1072.497017
30 Jun 2022 09:58:59.000,175.373,-28.115,1457.636184
30 Jun 2022 09:59:55.643,177.200,-25.004,1840.970944
30 Jun 2022 21:33:36.273,327.245,-25.013,1839.435098
30 Jun 2022 21:34:36.000,318.670,-27.624,1501.769569
30 Jun 2022 21:35:36.000,304.588,-31.676,1220.953325
30 Jun 2022 21:36:36.000,282.045,-35.768,1048.611586
30 Jun 2022 21:37:36.000,253.735,-35.986,1041.201008
30 Jun 2022 21:38:36.000,230.437,-32.048,1202.016767
30 Jun 2022 21:39:36.000,215.726,-27.897,1476.739617
30 Jun 2022 21:40:36.000,206.744,-25.156,1813.601123
30 Jun 2022 21:40:36.829,206.646,-25.128,1818.532385
30 Jun 2022 23:10:02.192,53.896,-25.022,1837.787578
30 Jun 2022 23:11:02.000,67.287,-26.234,1653.339848
30 Jun 2022 23:12:02.000,83.408,-26.943,1570.334102
30 Jun 2022 23:13:02.000,100.083,-26.627,1605.657314
30 Jun 2022 23:14:02.000,114.740,-25.531,1751.896915
30 Jun 2022 23:14:23.078,119.144,-25.091,1825.133983
1 Jul 2022 09:48:42.498,9.695,-25.134,1817.499620
1 Jul 2022 09:49:42.000,11.782,-28.619,1416.108350
1 Jul 2022 09:50:42.000,16.003,-36.170,1035.052999
1 Jul 2022 09:51:42.000,28.195,-52.514,719.493810
1 Jul 2022 09:52:42.000,100.227,-71.551,588.846339
1 Jul 2022 09:53:42.000,160.518,-50.126,747.812628
1 Jul 2022 09:54:42.000,171.079,-35.043,1074.299483
1 Jul 2022 09:55:42.000,174.968,-28.099,1459.021306
1 Jul 2022 09:56:38.476,176.882,-25.004,1840.970958
1 Jul 2022 21:30:19.860,326.880,-25.013,1839.403818
1 Jul 2022 21:31:19.000,318.326,-27.575,1506.409336
1 Jul 2022 21:32:19.000,304.229,-31.558,1227.119752
1 Jul 2022 21:33:19.000,281.815,-35.547,1056.272736
1 Jul 2022 21:34:19.000,253.811,-35.746,1049.355076
1 Jul 2022 21:35:19.000,230.702,-31.901,1209.422299
1 Jul 2022 21:36:19.000,216.018,-27.827,1483.010703
1 Jul 2022 21:37:18.948,207.016,-25.128,1818.564560
1 Jul 2022 23:06:43.391,53.339,-25.021,1837.857922
1 Jul 2022 23:07:43.000,66.629,-26.259,1650.140122
1 Jul 2022 23:08:43.000,82.776,-27.015,1562.597716
1 Jul 2022 23:09:43.000,99.587,-26.730,1593.834443
1 Jul 2022 23:10:43.000,114.421,-25.627,1737.201195
1 Jul 2022 23:11:08.185,119.702,-25.092,1825.017870
2 Jul 2022 09:45:25.639,10.018,-25.134,1817.516947
2 Jul 2022 09:46:25.000,12.202,-28.603,1417.382254
2 Jul 2022 09:47:25.000,16.618,-36.117,1036.817793
2 Jul 2022 09:48:25.000,29.282,-52.282,722.073353
2 Jul 2022 09:49:25.000,99.926,-70.719,592.064225
2 Jul 2022 09:50:25.000,159.515,-49.922,750.418701
2 Jul 2022 09:51:25.000,170.495,-34.992,1076.176017
2 Jul 2022 09:52:25.000,174.563,-28.082,1460.458556
2 Jul 2022 09:53:21.302,176.563,-25.004,1840.970733
2 Jul 2022 21:27:03.456,326.515,-25.013,1839.372095
2 Jul 2022 21:28:03.000,317.802,-27.581,1505.871779
2 Jul 2022 21:29:03.000,303.575,-31.514,1229.448679
2 Jul 2022 21:30:03.000,281.148,-35.372,1062.409732
2 Jul 2022 21:31:03.000,253.438,-35.471,1058.934645
2 Jul 2022 21:32:03.000,230.655,-31.682,1220.646830
2 Jul 2022 21:33:03.000,216.118,-27.702,1494.501946
2 Jul 2022 21:34:01.057,207.386,-25.128,1818.615853
2 Jul 2022 23:03:24.629,52.791,-25.021,1837.926477
2 Jul 2022 23:04:24.000,65.968,-26.283,1647.131040
2 Jul 2022 23:05:24.000,82.137,-27.087,1555.032753
2 Jul 2022 23:06:24.000,99.083,-26.835,1582.129916
2 Jul 2022 23:07:24.000,114.096,-25.726,1722.569380
2 Jul 2022 23:07:53.252,120.253,-25.092,1824.908845
3 Jul 2022 09:42:08.789,10.340,-25.134,1817.534739
3 Jul 2022 09:43:08.000,12.620,-28.586,1418.726890
3 Jul 2022 09:44:08.000,17.230,-36.061,1038.674859
3 Jul 2022 09:45:08.000,30.349,-52.043,724.775512
3 Jul 2022 09:46:08.000,99.649,-69.897,595.418701
3 Jul 2022 09:47:08.000,158.528,-49.712,753.131870
3 Jul 2022 09:48:08.000,169.915,-34.939,1078.126127
3 Jul 2022 09:49:08.000,174.160,-28.065,1461.947673
3 Jul 2022 09:50:04.123,176.244,-25.004,1840.970266
3 Jul 2022 21:23:47.063,326.148,-25.013,1839.339923
3 Jul 2022 21:24:47.000,317.278,-27.585,1505.437374
3 Jul 2022 21:25:47.000,302.924,-31.468,1231.901789
3 Jul 2022 21:26:47.000,280.492,-35.198,1068.661789
3 Jul 2022 21:27:47.000,253.075,-35.200,1068.580145
3 Jul 2022 21:28:47.000,230.609,-31.468,1231.901567
3 Jul 2022 21:29:47.000,216.216,-27.579,1506.014111
3 Jul 2022 21:30:43.151,207.757,-25.127,1818.653530
3 Jul 2022 23:00:05.905,52.250,-25.020,1837.993322
3 Jul 2022 23:01:05.000,65.305,-26.305,1644.313629
3 Jul 2022 23:02:05.000,81.491,-27.158,1547.641731
3 Jul 2022 23:03:05.000,98.571,-26.941,1570.546411
3 Jul 2022 23:04:05.000,113.765,-25.827,1708.003164
3 Jul 2022 23:04:38.272,120.795,-25.093,1824.776730
4 Jul 2022 09:38:51.947,10.662,-25.134,1817.553004
4 Jul 2022 09:39:51.000,13.037,-28.568,1420.142070
4 Jul 2022 09:40:51.000,17.839,-36.003,1040.623711
4 Jul 2022 09:41:51.000,31.396,-51.797,727.598915
4 Jul 2022 09:42:51.000,99.394,-69.085,598.907447
4 Jul 2022 09:43:51.000,157.556,-49.497,755.950947
4 Jul 2022 09:44:51.000,169.337,-34.884,1080.149379
4 Jul 2022 09:45:51.000,173.757,-28.047,1463.488464
4 Jul 2022 09:46:46.938,175.926,-25.004,1840.969559
4 Jul 2022 21:20:30.681,325.780,-25.013,1839.307294
4 Jul 2022 21:21:30.000,316.940,-27.535,1510.246309
4 Jul 2022 21:22:30.000,302.579,-31.350,1238.242306
4 Jul 2022 21:23:30.000,280.282,-34.984,1076.451990
4 Jul 2022 21:24:30.000,253.154,-34.975,1076.806243
4 Jul 2022 21:25:30.000,230.864,-31.329,1239.376978
4 Jul 2022 21:26:30.000,216.498,-27.513,1512.371303
4 Jul 2022 21:27:25.232,208.130,-25.127,1818.693509
4 Jul 2022 22:56:47.217,51.716,-25.020,1838.058528
4 Jul 2022 22:57:47.000,64.887,-26.347,1639.103557
4 Jul 2022 22:58:47.000,81.125,-27.235,1539.728850
4 Jul 2022 22:59:47.000,98.328,-27.036,1560.427369
4 Jul 2022 23:00:47.000,113.657,-25.908,1696.598533
4 Jul 2022 23:01:23.258,121.331,-25.094,1824.662956
5 Jul 2022 09:35:35.113,10.985,-25.133,1817.571735
5 Jul 2022 09:36:35.000,13.509,-28.632,1415.048605
5 Jul 2022 09:37:35.000,18.568,-36.120,1036.724275
5 Jul 2022 09:38:35.000,32.858,-51.898,726.434069
5 Jul 2022 09:39:35.000,100.940,-68.209,602.864399
5 Jul 2022 09:40:35.000,156.957,-48.944,763.337595
5 Jul 2022 09:41:35.000,168.872,-34.667,1088.304056
5 Jul 2022 09:42:35.000,173.407,-27.954,1471.703414
5 Jul 2022 09:43:29.746,175.607,-25.004,1840.968612
5 Jul 2022 21:17:14.309,325.411,-25.013,1839.274203
5 Jul 2022 21:18:14.000,316.416,-27.538,1509.978490
5 Jul 2022 21:19:14.000,301.936,-31.301,1240.884121
5 Jul 2022 21:20:14.000,279.644,-34.812,1082.863842
5 Jul 2022 21:21:14.000,252.801,-34.714,1086.536912
5 Jul 2022 21:22:14.000,230.816,-31.123,1250.677445
5 Jul 2022 21:23:14.000,216.592,-27.394,1523.925682
5 Jul 2022 21:24:07.302,208.505,-25.127,1818.738950
5 Jul 2022 22:53:28.563,51.189,-25.020,1838.122163
5 Jul 2022 22:54:28.000,64.219,-26.368,1636.598802
5 Jul 2022 22:55:28.000,80.467,-27.306,1532.615884
5 Jul 2022 22:56:28.000,97.801,-27.145,1549.031221
5 Jul 2022 22:57:28.000,113.316,-26.014,1682.129258
5 Jul 2022 22:58:08.206,121.860,-25.094,1824.551883
6 Jul 2022 09:32:18.288,11.308,-25.133,1817.590935
6 Jul 2022 09:33:18.000,13.926,-28.612,1416.611311
6 Jul 2022 09:34:18.000,19.174,-36.056,1038.867314
6 Jul 2022 09:35:18.000,33.873,-51.632,729.513260
6 Jul 2022 09:36:18.000,100.651,-67.420,606.613388
6 Jul 2022 09:37:18.000,156.025,-48.724,766.348317
6 Jul 2022 09:38:18.000,168.304,-34.610,1090.461315
6 Jul 2022 09:39:18.000,173.009,-27.935,1473.340654
6 Jul 2022 09:40:12.549,175.287,-25.004,1840.967425
6 Jul 2022 21:13:57.947,325.040,-25.014,1839.240644
6 Jul 2022 21:14:57.000,316.082,-27.486,1514.890277
6 Jul 2022 21:15:57.000,301.599,-31.183,1247.327443
6 Jul 2022 21:16:57.000,279.445,-34.603,1090.728617
6 Jul 2022 21:17:57.000,252.881,-34.497,1094.808940
6 Jul 2022 21:18:57.000,231.064,-30.989,1258.202823
6 Jul 2022 21:19:57.000,216.868,-27.329,1530.344146
6 Jul 2022 21:20:49.359,208.880,-25.127,1818.784949
6 Jul 2022 22:50:09.942,50.669,-25.019,1838.184288
6 Jul 2022 22:51:09.000,63.548,-26.386,1634.288320
6 Jul 2022 22:52:09.000,79.802,-27.376,1525.683625
6 Jul 2022 22:53:09.000,97.266,-27.255,1537.763427
6 Jul 2022 22:54:09.000,112.968,-26.122,1667.730303
6 Jul 2022 22:54:53.119,122.383,-25.095,1824.443174
7 Jul 2022 09:29:01.471,11.631,-25.133,1817.610604
7 Jul 2022 09:30:01.000,14.342,-28.592,1418.243770
7 Jul 2022 09:31:01.000,19.776,-35.989,1041.100578
7 Jul 2022 09:32:01.000,34.867,-51.359,732.709528
7 Jul 2022 09:33:01.000,100.382,-66.642,610.489393
7 Jul 2022 09:34:01.000,155.108,-48.499,769.461019
7 Jul 2022 09:35:01.000,167.739,-34.552,1092.690366
7 Jul 2022 09:36:01.000,172.611,-27.916,1475.029167
7 Jul 2022 09:36:55.343,174.968,-25.004,1840.945168
7 Jul 2022 21:10:41.597,324.668,-25.014,1839.206610
7 Jul 2022 21:11:41.000,315.560,-27.487,1514.787637
7 Jul 2022 21:12:41.000,300.964,-31.132,1250.154327
7 Jul 2022 21:13:41.000,278.824,-34.433,1097.294695
7 Jul 2022 21:14:41.000,252.538,-34.246,1104.621074
7 Jul 2022 21:15:41.000,231.015,-30.790,1269.547248
7 Jul 2022 21:16:41.000,216.957,-27.214,1541.939535
7 Jul 2022 21:17:31.402,209.258,-25.126,1818.831527
7 Jul 2022 22:46:51.353,50.155,-25.019,1838.244964
7 Jul 2022 22:47:51.000,63.122,-26.427,1629.395155
7 Jul 2022 22:48:51.000,79.421,-27.454,1518.036667
7 Jul 2022 22:49:51.000,97.008,-27.354,1527.809158
7 Jul 2022 22:50:51.000,112.851,-26.210,1656.402592
7 Jul 2022 22:51:37.998,122.900,-25.096,1824.336525
8 Jul 2022 09:25:44.663,11.954,-25.133,1817.630745
8 Jul 2022 09:26:44.000,14.757,-28.570,1419.945463
8 Jul 2022 09:27:44.000,20.375,-35.920,1043.423232
8 Jul 2022 09:28:44.000,35.840,-51.082,736.021163
8 Jul 2022 09:29:44.000,100.130,-65.873,614.489999
8 Jul 2022 09:30:44.000,154.207,-48.271,772.674629
8 Jul 2022 09:31:44.000,167.177,-34.492,1094.990999
8 Jul 2022 09:32:44.000,172.214,-27.897,1476.769035
8 Jul 2022 09:33:38.132,174.648,-25.005,1840.932444
8 Jul 2022 21:07:25.257,324.294,-25.014,1839.172092
8 Jul 2022 21:08:25.000,315.038,-27.487,1514.787361
8 Jul 2022 21:09:25.000,300.332,-31.079,1253.101103
8 Jul 2022 21:10:25.000,278.212,-34.262,1103.967350
8 Jul 2022 21:11:25.000,252.204,-33.999,1114.492801
8 Jul 2022 21:12:25.000,230.966,-30.596,1280.919231
8 Jul 2022 21:13:25.000,217.044,-27.101,1553.554376
8 Jul 2022 21:14:13.432,209.636,-25.126,1818.878682
8 Jul 2022 22:43:32.795,49.646,-25.019,1838.304794
8 Jul 2022 22:44:32.000,62.447,-26.443,1627.401622
8 Jul 2022 22:45:32.000,78.744,-27.523,1511.393704
8 Jul 2022 22:46:32.000,96.457,-27.467,1516.740763
8 Jul 2022 22:47:32.000,112.493,-26.323,1642.108244
8 Jul 2022 22:48:22.843,123.410,-25.096,1824.231673
9 Jul 2022 09:22:27.863,12.278,-25.133,1817.651361
9 Jul 2022 09:23:27.000,15.171,-28.548,1421.715834
9 Jul 2022 09:24:27.000,20.969,-35.849,1045.834393
9 Jul 2022 09:25:27.000,36.792,-50.799,739.446390
9 Jul 2022 09:26:27.000,99.895,-65.115,618.612745
9 Jul 2022 09:27:27.000,153.320,-48.038,775.988035
9 Jul 2022 09:28:27.000,166.618,-34.431,1097.362991
9 Jul 2022 09:29:27.000,171.818,-27.877,1478.560338
9 Jul 2022 09:30:20.921,174.328,-25.004,1840.958890
9 Jul 2022 21:04:08.928,323.919,-25.014,1839.137083
9 Jul 2022 21:05:08.000,314.710,-27.435,1519.861295
9 Jul 2022 21:06:08.000,300.009,-30.962,1259.705575
9 Jul 2022 21:07:08.000,278.030,-34.062,1111.945692
9 Jul 2022 21:08:08.000,252.285,-33.795,1122.827514
9 Jul 2022 21:09:08.000,231.205,-30.470,1288.508437
9 Jul 2022 21:10:08.000,217.311,-27.039,1560.053996
9 Jul 2022 21:10:55.446,210.017,-25.126,1818.913609
9 Jul 2022 22:40:14.265,49.143,-25.018,1838.367552
9 Jul 2022 22:41:14.000,62.015,-26.482,1622.707406
9 Jul 2022 22:42:14.000,78.353,-27.601,1503.915712
9 Jul 2022 22:43:14.000,96.190,-27.570,1506.892150
9 Jul 2022 22:44:14.000,112.371,-26.415,1630.830543
9 Jul 2022 22:45:07.656,123.915,-25.097,1824.128394
10 Jul 2022 09:19:11.071,12.601,-25.133,1817.672454
10 Jul 2022 09:20:11.000,15.650,-28.607,1417.021541
10 Jul 2022 09:21:11.000,21.708,-35.948,1042.477357
10 Jul 2022 09:22:11.000,38.208,-50.834,739.018157
10 Jul 2022 09:23:11.000,101.147,-64.296,623.268973
10 Jul 2022 09:24:11.000,152.836,-47.501,783.817295
10 Jul 2022 09:25:11.000,166.190,-34.215,1105.819577
10 Jul 2022 09:26:11.000,171.485,-27.783,1486.995795
10 Jul 2022 09:27:03.697,174.008,-25.004,1840.941205
10 Jul 2022 21:00:52.610,323.543,-25.014,1839.101574
10 Jul 2022 21:01:52.000,314.190,-27.433,1520.024660
10 Jul 2022 21:02:52.000,299.386,-30.907,1262.832550
10 Jul 2022 21:03:52.000,277.435,-33.894,1118.764871
10 Jul 2022 21:04:52.000,251.960,-33.557,1132.775982
10 Jul 2022 21:05:52.000,231.155,-30.283,1299.922721
10 Jul 2022 21:06:52.000,217.394,-26.930,1571.709005
10 Jul 2022 21:07:37.449,210.398,-25.126,1818.963831
10 Jul 2022 22:36:55.763,48.646,-25.018,1838.428435
10 Jul 2022 22:37:55.000,61.336,-26.496,1621.032447
10 Jul 2022 22:38:55.000,77.663,-27.669,1497.568262
10 Jul 2022 22:39:55.000,95.624,-27.685,1496.030201
10 Jul 2022 22:40:55.000,112.002,-26.533,1616.645214
10 Jul 2022 22:41:52.437,124.415,-25.097,1824.026487
11 Jul 2022 09:15:54.288,12.925,-25.133,1817.694014
11 Jul 2022 09:16:54.000,16.063,-28.583,1418.936546
11 Jul 2022 09:17:54.000,22.298,-35.871,1045.077474
11 Jul 2022 09:18:54.000,39.124,-50.535,742.684781
11 Jul 2022 09:19:54.000,100.892,-63.562,627.625817
11 Jul 2022 09:20:54.000,151.986,-47.267,787.307275
11 Jul 2022 09:21:54.000,165.641,-34.153,1108.320016
11 Jul 2022 09:22:54.000,171.094,-27.763,1488.881903
11 Jul 2022 09:23:46.468,173.688,-25.004,1840.935042
11 Jul 2022 20:57:36.304,323.164,-25.015,1839.064623
11 Jul 2022 20:58:36.000,313.670,-27.431,1520.290566
11 Jul 2022 20:59:36.000,298.766,-30.850,1266.077498
11 Jul 2022 21:00:36.000,276.849,-33.726,1125.686429
11 Jul 2022 21:01:36.000,251.641,-33.324,1142.781122
11 Jul 2022 21:02:36.000,231.105,-30.100,1311.363552
11 Jul 2022 21:03:36.000,217.475,-26.824,1583.382958
11 Jul 2022 21:04:19.438,210.782,-25.125,1819.014503
11 Jul 2022 22:33:37.291,48.154,-25.018,1838.480160
11 Jul 2022 22:34:37.000,60.900,-26.534,1616.538651
11 Jul 2022 22:35:37.000,77.262,-27.748,1490.263291
11 Jul 2022 22:36:37.000,95.346,-27.791,1486.291172
11 Jul 2022 22:37:37.000,111.875,-26.629,1605.419541
11 Jul 2022 22:38:37.000,124.874,-25.102,1823.120468
11 Jul 2022 22:38:37.188,124.909,-25.098,1823.925598
12 Jul 2022 09:12:37.513,13.249,-25.133,1817.716057
12 Jul 2022 09:13:37.000,16.474,-28.558,1420.919346
12 Jul 2022 09:14:37.000,22.884,-35.792,1047.764171
12 Jul 2022 09:15:37.000,40.018,-50.233,746.460054
12 Jul 2022 09:16:37.000,100.651,-62.839,632.096935
12 Jul 2022 09:17:37.000,151.151,-47.030,790.892481
12 Jul 2022 09:18:37.000,165.095,-34.088,1110.889905
12 Jul 2022 09:19:37.000,170.703,-27.742,1490.818589
12 Jul 2022 09:20:29.235,173.367,-25.004,1840.935005
12 Jul 2022 20:54:20.009,322.784,-25.015,1839.028686
12 Jul 2022 20:55:20.000,313.149,-27.427,1520.659485
12 Jul 2022 20:56:20.000,298.150,-30.792,1269.440001
12 Jul 2022 20:57:20.000,276.272,-33.559,1132.708876
12 Jul 2022 20:58:20.000,251.330,-33.094,1152.841678
12 Jul 2022 20:59:20.000,231.057,-29.922,1322.830296
12 Jul 2022 21:00:20.000,217.555,-26.719,1595.075370
12 Jul 2022 21:01:01.413,211.167,-25.125,1819.065644
12 Jul 2022 22:30:18.845,47.667,-25.017,1838.531581
12 Jul 2022 22:31:18.000,60.217,-26.545,1615.183693
12 Jul 2022 22:32:18.000,76.561,-27.814,1484.217266
12 Jul 2022 22:33:18.000,94.764,-27.909,1475.642371
12 Jul 2022 22:34:18.000,111.494,-26.752,1591.347015
12 Jul 2022 22:35:18.000,124.670,-25.193,1807.072636
12 Jul 2022 22:35:21.910,125.398,-25.098,1823.824043
13 Jul 2022 09:09:20.747,13.574,-25.133,1817.738569
13 Jul 2022 09:10:20.000,16.884,-28.532,1422.969953
13 Jul 2022 09:11:20.000,23.465,-35.712,1050.537011
13 Jul 2022 09:12:20.000,40.891,-49.928,750.342404
13 Jul 2022 09:13:20.000,100.423,-62.126,636.679707
13 Jul 2022 09:14:20.000,150.331,-46.790,794.571223
13 Jul 2022 09:15:20.000,164.553,-34.023,1113.528313
13 Jul 2022 09:16:20.000,170.314,-27.720,1492.805202
13 Jul 2022 09:17:11.993,173.046,-25.005,1840.921233
13 Jul 2022 20:51:03.726,322.403,-25.015,1838.992204
13 Jul 2022 20:52:03.000,312.829,-27.373,1525.954751
13 Jul 2022 20:53:03.000,297.844,-30.675,1276.259741
13 Jul 2022 20:54:03.000,276.113,-33.369,1140.833555
13 Jul 2022 20:55:03.000,251.415,-32.907,1161.252764
13 Jul 2022 20:56:03.000,231.285,-29.805,1330.495197
13 Jul 2022 20:57:03.000,217.812,-26.661,1601.673477
13 Jul 2022 20:57:43.371,211.553,-25.125,1819.104745
13 Jul 2022 22:27:00.421,47.185,-25.017,1838.594556
13 Jul 2022 22:28:00.000,59.776,-26.582,1610.892467
13 Jul 2022 22:29:00.000,76.150,-27.893,1477.089779
13 Jul 2022 22:30:00.000,94.476,-28.018,1466.016905
13 Jul 2022 22:31:00.000,111.360,-26.853,1580.174918
13 Jul 2022 22:32:00.000,124.652,-25.262,1795.295855
13 Jul 2022 22:32:06.603,125.882,-25.099,1823.723912
14 Jul 2022 09:06:03.989,13.898,-25.132,1817.761565
14 Jul 2022 09:07:03.000,17.292,-28.506,1425.088518
14 Jul 2022 09:08:03.000,24.042,-35.629,1053.395681
14 Jul 2022 09:09:03.000,41.744,-49.620,754.330368
14 Jul 2022 09:10:03.000,100.207,-61.425,641.371584
14 Jul 2022 09:11:03.000,149.525,-46.548,798.341777
14 Jul 2022 09:12:03.000,164.014,-33.956,1116.234229
14 Jul 2022 09:13:03.000,169.926,-27.698,1494.840988
14 Jul 2022 09:13:54.747,172.725,-25.005,1840.918737
14 Jul 2022 20:47:47.455,322.020,-25.015,1838.955183
14 Jul 2022 20:48:47.000,312.311,-27.368,1526.488518
14 Jul 2022 20:49:47.000,297.237,-30.615,1279.798281
14 Jul 2022 20:50:47.000,275.551,-33.204,1147.993595
14 Jul 2022 20:51:47.000,251.112,-32.686,1171.383560
14 Jul 2022 20:52:47.000,231.235,-29.633,1342.000317
14 Jul 2022 20:53:47.000,217.888,-26.560,1613.402304
14 Jul 2022 20:54:25.317,211.942,-25.125,1819.159395
14 Jul 2022 22:23:42.023,46.707,-25.017,1838.654495
14 Jul 2022 22:24:42.000,59.332,-26.618,1606.680891
14 Jul 2022 22:25:42.000,75.735,-27.973,1470.029630
14 Jul 2022 22:26:42.000,94.183,-28.129,1456.432517
14 Jul 2022 22:27:42.000,111.225,-26.955,1569.021699
14 Jul 2022 22:28:42.000,124.634,-25.333,1783.528588
14 Jul 2022 22:28:51.264,126.361,-25.100,1823.605042
15 Jul 2022 09:02:47.240,14.223,-25.132,1817.785035
15 Jul 2022 09:03:47.000,17.778,-28.560,1420.795816
15 Jul 2022 09:04:47.000,24.784,-35.711,1050.578538
15 Jul 2022 09:05:47.000,43.095,-49.599,754.608746
15 Jul 2022 09:06:47.000,101.259,-60.666,646.652121
15 Jul 2022 09:07:47.000,149.138,-46.032,806.562180
15 Jul 2022 09:08:47.000,163.622,-33.744,1124.966297
15 Jul 2022 09:09:47.000,169.609,-27.606,1503.482211
15 Jul 2022 09:10:37.495,172.404,-25.005,1840.916292
15 Jul 2022 20:44:31.196,321.635,-25.015,1838.917609
15 Jul 2022 20:45:31.000,311.793,-27.361,1527.125818
15 Jul 2022 20:46:31.000,296.633,-30.554,1283.452330
15 Jul 2022 20:47:31.000,274.998,-33.040,1155.249948
15 Jul 2022 20:48:31.000,250.815,-32.469,1181.566011
15 Jul 2022 20:49:31.000,231.186,-29.464,1353.528941
15 Jul 2022 20:50:31.000,217.963,-26.462,1625.147441
15 Jul 2022 20:51:07.252,212.331,-25.124,1819.229737
15 Jul 2022 22:20:23.654,46.235,-25.017,1838.690040
15 Jul 2022 22:21:23.000,58.644,-26.626,1605.775047
15 Jul 2022 22:22:23.000,75.016,-28.037,1464.407977
15 Jul 2022 22:23:23.000,93.578,-28.251,1446.082090
15 Jul 2022 22:24:23.000,110.828,-27.086,1555.103036
15 Jul 2022 22:25:23.000,124.422,-25.431,1767.545573
15 Jul 2022 22:25:35.904,126.836,-25.100,1823.511239
16 Jul 2022 08:59:30.500,14.548,-25.132,1817.808988
16 Jul 2022 09:00:30.000,18.185,-28.531,1423.060518
16 Jul 2022 09:01:30.000,25.354,-35.622,1053.624029
16 Jul 2022 09:02:30.000,43.909,-49.280,758.824366
16 Jul 2022 09:03:30.000,101.029,-59.989,651.551195
16 Jul 2022 09:04:30.000,148.365,-45.792,810.490489
16 Jul 2022 09:05:30.000,163.092,-33.676,1127.789882
16 Jul 2022 09:06:30.000,169.225,-27.583,1505.605566
16 Jul 2022 09:07:20.237,172.082,-25.005,1840.913237
16 Jul 2022 20:41:14.950,321.248,-25.016,1838.879472
16 Jul 2022 20:42:14.000,311.479,-27.306,1532.580064
16 Jul 2022 20:43:14.000,296.341,-30.438,1290.420890
16 Jul 2022 20:44:14.000,274.854,-32.858,1163.471778
16 Jul 2022 20:45:14.000,250.901,-32.292,1190.029177
16 Jul 2022 20:46:14.000,231.407,-29.354,1361.248564
16 Jul 2022 20:47:14.000,218.212,-26.407,1631.816858
16 Jul 2022 20:47:49.169,212.723,-25.124,1819.280951
16 Jul 2022 22:17:05.305,45.766,-25.016,1838.744060
16 Jul 2022 22:18:05.000,58.196,-26.661,1601.771486
16 Jul 2022 22:19:05.000,74.591,-28.116,1457.534024
16 Jul 2022 22:20:05.000,93.274,-28.364,1436.619029
16 Jul 2022 22:21:05.000,110.686,-27.194,1544.007081
16 Jul 2022 22:22:05.000,124.403,-25.506,1755.802468
16 Jul 2022 22:22:20.517,127.307,-25.101,1823.417294
17 Jul 2022 08:56:13.768,14.874,-25.132,1817.833421
17 Jul 2022 08:57:13.000,18.590,-28.502,1425.393120
17 Jul 2022 08:58:13.000,25.920,-35.533,1056.754115
17 Jul 2022 08:59:13.000,44.703,-48.959,763.141194
17 Jul 2022 09:00:13.000,100.810,-59.322,656.552227
17 Jul 2022 09:01:13.000,147.606,-45.549,814.506035
17 Jul 2022 09:02:13.000,162.567,-33.607,1130.678640
17 Jul 2022 09:03:13.000,168.842,-27.561,1507.776661
17 Jul 2022 09:04:02.972,171.760,-25.005,1840.909099
17 Jul 2022 20:37:58.716,320.859,-25.016,1838.840770
17 Jul 2022 20:38:58.000,310.964,-27.298,1533.380558
17 Jul 2022 20:39:58.000,295.746,-30.375,1294.245376
17 Jul 2022 20:40:58.000,274.315,-32.697,1170.857406
17 Jul 2022 20:41:58.000,250.612,-32.083,1200.275846
17 Jul 2022 20:42:58.000,231.357,-29.192,1372.811622
17 Jul 2022 20:43:58.000,218.283,-26.311,1643.594912
17 Jul 2022 20:44:31.071,213.117,-25.124,1819.332980
17 Jul 2022 22:13:46.978,45.301,-25.016,1838.795391
17 Jul 2022 22:14:46.000,57.505,-26.666,1601.193100
17 Jul 2022 22:15:46.000,73.860,-28.178,1452.232192
17 Jul 2022 22:16:46.000,92.652,-28.488,1426.502014
17 Jul 2022 22:17:46.000,110.276,-27.330,1530.212994
17 Jul 2022 22:18:46.000,124.185,-25.609,1739.873376
17 Jul 2022 22:19:05.105,127.774,-25.101,1823.322829
18 Jul 2022 08:52:57.045,15.200,-25.132,1817.858338
18 Jul 2022 08:53:57.000,19.079,-28.553,1421.352241
18 Jul 2022 08:54:57.000,26.665,-35.604,1054.275661
18 Jul 2022 08:55:57.000,46.013,-48.906,763.857895
18 Jul 2022 08:56:57.000,101.754,-58.597,662.203337
18 Jul 2022 08:57:57.000,147.268,-45.052,822.944788
18 Jul 2022 08:58:57.000,162.195,-33.398,1139.561877
18 Jul 2022 08:59:57.000,168.536,-27.469,1516.530837
18 Jul 2022 09:00:45.702,171.438,-25.005,1840.904733
18 Jul 2022 20:34:42.495,320.469,-25.016,1838.801496
18 Jul 2022 20:35:42.000,310.449,-27.289,1534.283378
18 Jul 2022 20:36:42.000,295.156,-30.311,1298.181997
18 Jul 2022 20:37:42.000,273.786,-32.537,1178.334345
18 Jul 2022 20:38:42.000,250.329,-31.878,1210.570814
18 Jul 2022 20:39:42.000,231.307,-29.033,1384.396677
18 Jul 2022 20:40:42.000,218.353,-26.218,1655.388370
18 Jul 2022 20:41:12.957,213.513,-25.123,1819.385828
18 Jul 2022 22:10:28.675,44.841,-25.016,1838.844140
18 Jul 2022 22:11:28.000,57.053,-26.699,1597.400215
18 Jul 2022 22:12:28.000,73.425,-28.257,1445.550337
18 Jul 2022 22:13:28.000,92.337,-28.605,1417.166567
18 Jul 2022 22:14:28.000,110.127,-27.442,1519.178227
18 Jul 2022 22:15:28.000,124.163,-25.688,1728.156538
18 Jul 2022 22:15:49.668,128.237,-25.102,1823.228967
19 Jul 2022 08:49:40.331,15.526,-25.132,1817.883739
19 Jul 2022 08:50:40.000,19.483,-28.522,1423.829780
19 Jul 2022 08:51:40.000,27.224,-35.509,1057.589408
19 Jul 2022 08:52:40.000,46.769,-48.576,768.392901
19 Jul 2022 08:53:40.000,101.525,-57.955,667.396779
19 Jul 2022 08:54:40.000,146.539,-44.812,827.109335
19 Jul 2022 08:55:40.000,161.679,-33.329,1142.564506
19 Jul 2022 08:56:40.000,168.157,-27.446,1518.787910
19 Jul 2022 08:57:28.425,171.115,-25.005,1840.900136
19 Jul 2022 20:31:26.287,320.076,-25.016,1838.761640
19 Jul 2022 20:32:26.000,309.935,-27.279,1535.288226
19 Jul 2022 20:33:26.000,294.569,-30.246,1302.229700
19 Jul 2022 20:34:26.000,273.264,-32.378,1185.900936
19 Jul 2022 20:35:26.000,250.052,-31.677,1220.913028
19 Jul 2022 20:36:26.000,231.259,-28.878,1396.003421
19 Jul 2022 20:37:26.000,218.421,-26.126,1667.197185
19 Jul 2022 20:37:54.829,213.910,-25.123,1819.439511
19 Jul 2022 22:07:10.393,44.384,-25.016,1838.890406
19 Jul 2022 22:08:10.000,56.599,-26.731,1593.690336
19 Jul 2022 22:09:10.000,72.985,-28.336,1438.941908
19 Jul 2022 22:10:10.000,92.017,-28.724,1407.878046
19 Jul 2022 22:11:10.000,109.976,-27.556,1508.165760
19 Jul 2022 22:12:10.000,124.142,-25.768,1716.451088
19 Jul 2022 22:12:34.207,128.696,-25.102,1823.135793
20 Jul 2022 08:46:23.625,15.852,-25.132,1817.909628
20 Jul 2022 08:47:23.000,19.885,-28.490,1426.373609
20 Jul 2022 08:48:23.000,27.778,-35.413,1060.985034
20 Jul 2022 08:49:23.000,47.506,-48.246,773.023673
20 Jul 2022 08:50:23.000,101.307,-57.323,672.685304
20 Jul 2022 08:51:23.000,145.823,-44.571,831.357526
20 Jul 2022 08:52:23.000,161.167,-33.258,1145.631241
20 Jul 2022 08:53:23.000,167.780,-27.423,1521.092704
20 Jul 2022 08:54:11.142,170.792,-25.005,1840.895309
20 Jul 2022 20:28:10.092,319.682,-25.016,1838.721193
20 Jul 2022 20:29:10.000,309.421,-27.268,1536.394904
20 Jul 2022 20:30:10.000,293.987,-30.179,1306.387524
20 Jul 2022 20:31:10.000,272.751,-32.220,1193.555631
20 Jul 2022 20:32:10.000,249.781,-31.479,1231.301526
20 Jul 2022 20:33:10.000,231.211,-28.727,1407.631584
20 Jul 2022 20:34:10.000,218.489,-26.037,1679.021306
20 Jul 2022 20:34:36.683,214.310,-25.123,1819.485764
20 Jul 2022 22:03:52.132,43.932,-25.015,1838.934285
20 Jul 2022 22:04:52.000,56.142,-26.764,1590.063725
20 Jul 2022 22:05:52.000,72.541,-28.416,1432.407679
20 Jul 2022 22:06:52.000,91.692,-28.844,1398.637249
20 Jul 2022 22:07:52.000,109.822,-27.673,1497.176060
20 Jul 2022 22:08:52.000,124.119,-25.850,1704.757335
20 Jul 2022 22:09:18.722,129.150,-25.103,1823.043419
21 Jul 2022 08:43:06.928,16.179,-25.131,1817.936004
21 Jul 2022 08:44:06.000,20.285,-28.458,1428.983121
