data/Partner_Institute/Skyhopper_Partner-Chalottesville_AER_1year.csv

"Time (UTCG)","Azimuth (deg)","Elevation (deg)","Range (km)"
1 Jun 2022 01:34:30.194,317.215,-25.050,1844.715524
1 Jun 2022 01:35:30.000,305.264,-26.863,1587.559787
1 Jun 2022 01:36:30.000,288.951,-28.669,1419.057702
1 Jun 2022 01:37:30.000,269.509,-29.263,1374.233940
1 Jun 2022 01:38:30.000,250.820,-28.119,1464.570325
1 Jun 2022 01:39:30.000,236.033,-26.195,1667.815136
1 Jun 2022 01:40:05.680,229.281,-25.145,1827.357619
1 Jun 2022 12:16:37.723,350.978,-25.178,1821.388439
1 Jun 2022 12:17:37.000,349.055,-28.642,1421.194397
1 Jun 2022 12:18:37.000,345.159,-36.173,1039.314844
1 Jun 2022 12:19:37.000,333.898,-52.573,721.607085
1 Jun 2022 12:20:37.000,261.659,-72.856,586.332028
1 Jun 2022 12:21:37.000,198.562,-50.851,741.665448
1 Jun 2022 12:22:37.000,188.400,-35.369,1067.037314
1 Jun 2022 12:23:37.000,184.718,-28.273,1451.418692
1 Jun 2022 12:24:35.421,182.869,-25.040,1846.551448
1 Jun 2022 23:55:23.262,35.184,-25.049,1844.815322
1 Jun 2022 23:56:23.000,44.322,-27.522,1519.304248
1 Jun 2022 23:57:23.000,58.866,-31.141,1255.352338
1 Jun 2022 23:58:23.000,80.871,-34.420,1102.504259
1 Jun 2022 23:59:23.000,107.009,-34.263,1108.687917
2 Jun 2022 00:00:23.000,128.500,-30.852,1271.768624
2 Jun 2022 00:01:23.000,142.593,-27.289,1542.393378
2 Jun 2022 00:02:14.255,150.435,-25.169,1822.972454
2 Jun 2022 01:31:12.118,317.621,-25.049,1844.749479
2 Jun 2022 01:32:12.000,305.716,-26.887,1584.889577
2 Jun 2022 01:33:12.000,289.409,-28.740,1413.502450
2 Jun 2022 01:34:12.000,269.863,-29.381,1365.849908
2 Jun 2022 01:35:12.000,251.002,-28.240,1454.241506
2 Jun 2022 01:36:12.000,236.077,-26.282,1656.617686
2 Jun 2022 01:36:50.025,228.872,-25.145,1827.266839
2 Jun 2022 12:13:20.838,350.678,-25.178,1821.405985
2 Jun 2022 12:14:20.000,348.663,-28.629,1422.246903
2 Jun 2022 12:15:20.000,344.584,-36.128,1040.793018
2 Jun 2022 12:16:20.000,332.865,-52.376,723.805929
2 Jun 2022 12:17:20.000,261.864,-72.065,589.144894
2 Jun 2022 12:18:20.000,199.527,-50.661,743.996029
2 Jun 2022 12:19:20.000,188.952,-35.321,1068.745798
2 Jun 2022 12:20:20.000,185.099,-28.257,1452.750694
2 Jun 2022 12:21:18.260,183.166,-25.040,1846.564452
2 Jun 2022 23:52:06.842,35.532,-25.049,1844.782434
2 Jun 2022 23:53:06.000,44.637,-27.476,1523.802073
2 Jun 2022 23:54:06.000,59.182,-31.035,1261.331230
2 Jun 2022 23:55:06.000,81.063,-34.233,1109.870300
2 Jun 2022 23:56:06.000,106.952,-34.067,1116.522531
2 Jun 2022 23:57:06.000,128.287,-30.728,1279.004564
2 Jun 2022 23:58:06.000,142.348,-27.228,1548.658693
2 Jun 2022 23:58:56.307,150.081,-25.169,1823.008479
3 Jun 2022 01:27:54.058,318.025,-25.049,1844.782927
3 Jun 2022 01:28:54.000,306.169,-26.911,1582.298995
3 Jun 2022 01:29:54.000,289.870,-28.810,1408.022782
3 Jun 2022 01:30:54.000,270.222,-29.500,1357.517809
3 Jun 2022 01:31:54.000,251.187,-28.362,1443.938271
3 Jun 2022 01:32:54.000,236.121,-26.371,1645.432632
3 Jun 2022 01:33:34.353,228.467,-25.146,1827.177372
3 Jun 2022 12:10:03.960,350.377,-25.178,1821.423994
3 Jun 2022 12:11:03.000,348.273,-28.615,1423.362511
3 Jun 2022 12:12:03.000,344.011,-36.082,1042.353202
3 Jun 2022 12:13:03.000,331.848,-52.171,726.113856
3 Jun 2022 12:14:03.000,262.053,-71.283,592.079615
3 Jun 2022 12:15:03.000,200.478,-50.466,746.420795
3 Jun 2022 12:16:03.000,189.501,-35.272,1070.517961
3 Jun 2022 12:17:03.000,185.479,-28.241,1454.126962
3 Jun 2022 12:18:01.092,183.463,-25.040,1846.564470
3 Jun 2022 23:48:50.431,35.882,-25.049,1844.750552
3 Jun 2022 23:49:50.000,45.142,-27.480,1523.356782
3 Jun 2022 23:50:50.000,59.798,-30.991,1263.779316
3 Jun 2022 23:51:50.000,81.670,-34.080,1116.006012
3 Jun 2022 23:52:50.000,107.307,-33.838,1125.905698
3 Jun 2022 23:53:50.000,128.367,-30.543,1290.022140
3 Jun 2022 23:54:50.000,142.289,-27.118,1560.052358
3 Jun 2022 23:55:38.350,149.726,-25.169,1823.060773
4 Jun 2022 01:24:36.013,318.425,-25.049,1844.815874
4 Jun 2022 01:25:36.000,306.624,-26.934,1579.788478
4 Jun 2022 01:26:36.000,290.336,-28.881,1402.619597
4 Jun 2022 01:27:36.000,270.585,-29.620,1349.238577
4 Jun 2022 01:28:36.000,251.375,-28.487,1433.661107
4 Jun 2022 01:29:36.000,236.166,-26.461,1634.260135
4 Jun 2022 01:30:18.664,228.063,-25.146,1827.091512
4 Jun 2022 12:06:47.090,350.077,-25.178,1821.442464
4 Jun 2022 12:07:47.000,347.833,-28.683,1417.943941
4 Jun 2022 12:08:47.000,343.330,-36.212,1038.018161
4 Jun 2022 12:09:47.000,330.450,-52.328,724.343489
4 Jun 2022 12:10:47.000,260.223,-70.446,595.390458
4 Jun 2022 12:11:47.000,201.075,-49.917,753.391434
4 Jun 2022 12:12:47.000,189.947,-35.055,1078.417827
4 Jun 2022 12:13:47.000,185.811,-28.147,1462.175203
4 Jun 2022 12:14:43.920,183.760,-25.040,1846.564285
4 Jun 2022 23:45:34.029,36.233,-25.050,1844.718213
4 Jun 2022 23:46:34.000,45.648,-27.484,1523.008290
4 Jun 2022 23:47:34.000,60.410,-30.946,1266.341588
4 Jun 2022 23:48:34.000,82.268,-33.927,1122.244490
4 Jun 2022 23:49:34.000,107.654,-33.612,1135.347634
4 Jun 2022 23:50:34.000,128.445,-30.362,1301.066293
4 Jun 2022 23:51:34.000,142.231,-27.011,1571.463045
4 Jun 2022 23:52:20.380,149.370,-25.169,1823.113553
5 Jun 2022 01:21:17.982,318.824,-25.049,1844.848805
5 Jun 2022 01:22:17.000,307.312,-26.921,1581.205154
5 Jun 2022 01:23:17.000,291.113,-28.923,1399.369251
5 Jun 2022 01:24:17.000,271.295,-29.744,1340.803587
5 Jun 2022 01:25:17.000,251.861,-28.645,1420.977359
5 Jun 2022 01:26:17.000,236.428,-26.589,1619.015454
5 Jun 2022 01:27:02.956,227.663,-25.147,1827.002431
5 Jun 2022 12:03:30.228,349.776,-25.178,1821.461398
5 Jun 2022 12:04:30.000,347.442,-28.668,1419.191711
5 Jun 2022 12:05:30.000,342.758,-36.159,1039.751983
5 Jun 2022 12:06:30.000,329.457,-52.104,726.882142
5 Jun 2022 12:07:30.000,260.469,-69.683,598.563527
5 Jun 2022 12:08:30.000,201.989,-49.717,755.987618
5 Jun 2022 12:09:30.000,190.488,-35.004,1080.306617
5 Jun 2022 12:10:30.000,186.187,-28.130,1463.633697
5 Jun 2022 12:11:26.743,184.056,-25.040,1846.563898
5 Jun 2022 23:42:17.637,36.585,-25.050,1844.685417
5 Jun 2022 23:43:17.000,45.958,-27.437,1527.653491
5 Jun 2022 23:44:17.000,60.715,-30.840,1272.467566
5 Jun 2022 23:45:17.000,82.445,-33.746,1129.714559
5 Jun 2022 23:46:17.000,107.595,-33.428,1143.237434
5 Jun 2022 23:47:17.000,128.239,-30.245,1308.354148
5 Jun 2022 23:48:17.000,141.994,-26.952,1577.794683
5 Jun 2022 23:49:02.398,149.013,-25.168,1823.166810
6 Jun 2022 01:17:59.963,319.220,-25.049,1844.893097
6 Jun 2022 01:18:59.000,307.769,-26.942,1578.899971
6 Jun 2022 01:19:59.000,291.587,-28.992,1394.172832
6 Jun 2022 01:20:59.000,271.671,-29.866,1332.676761
6 Jun 2022 01:21:59.000,252.057,-28.775,1410.778411
6 Jun 2022 01:22:59.000,236.475,-26.684,1607.876758
6 Jun 2022 01:23:47.232,227.265,-25.147,1826.917295
6 Jun 2022 12:00:13.373,349.476,-25.178,1821.480795
6 Jun 2022 12:01:13.000,347.052,-28.651,1420.502596
6 Jun 2022 12:02:13.000,342.190,-36.105,1041.567225
6 Jun 2022 12:03:13.000,328.481,-51.873,729.527152
6 Jun 2022 12:04:13.000,260.698,-68.929,601.852627
6 Jun 2022 12:05:13.000,202.890,-49.512,758.674336
6 Jun 2022 12:06:13.000,191.026,-34.951,1082.257372
6 Jun 2022 12:07:13.000,186.563,-28.113,1465.135468
6 Jun 2022 12:08:09.561,184.354,-25.040,1846.563308
6 Jun 2022 23:39:01.255,36.939,-25.050,1844.652158
6 Jun 2022 23:40:01.000,46.462,-27.439,1527.458126
6 Jun 2022 23:41:01.000,61.321,-30.793,1275.199535
6 Jun 2022 23:42:01.000,83.029,-33.595,1136.092522
6 Jun 2022 23:43:01.000,107.932,-33.210,1152.752871
6 Jun 2022 23:44:01.000,128.317,-30.070,1319.435700
6 Jun 2022 23:45:01.000,141.939,-26.848,1589.237978
6 Jun 2022 23:45:44.404,148.654,-25.168,1823.220559
7 Jun 2022 01:14:41.960,319.614,-25.049,1844.926535
7 Jun 2022 01:15:41.000,308.227,-26.962,1576.676002
7 Jun 2022 01:16:41.000,292.065,-29.061,1389.055911
7 Jun 2022 01:17:41.000,272.053,-29.990,1324.606398
7 Jun 2022 01:18:41.000,252.257,-28.907,1400.607705
7 Jun 2022 01:19:41.000,236.523,-26.781,1596.751562
7 Jun 2022 01:20:31.491,226.869,-25.148,1826.834352
7 Jun 2022 11:56:56.525,349.175,-25.178,1821.500656
7 Jun 2022 11:57:56.000,346.663,-28.634,1421.876394
7 Jun 2022 11:58:56.000,341.624,-36.049,1043.463433
7 Jun 2022 11:59:56.000,327.523,-51.636,732.277344
7 Jun 2022 12:00:56.000,260.911,-68.183,605.255857
7 Jun 2022 12:01:56.000,203.776,-49.303,761.450635
7 Jun 2022 12:02:56.000,191.561,-34.897,1084.269771
7 Jun 2022 12:03:56.000,186.938,-28.095,1466.680399
7 Jun 2022 12:04:52.374,184.651,-25.040,1846.562515
7 Jun 2022 23:35:44.883,37.294,-25.050,1844.618431
7 Jun 2022 23:36:44.000,46.769,-27.391,1532.192341
7 Jun 2022 23:37:44.000,61.619,-30.687,1281.411691
7 Jun 2022 23:38:44.000,83.197,-33.419,1143.622248
7 Jun 2022 23:39:44.000,107.873,-33.032,1160.677686
7 Jun 2022 23:40:44.000,128.116,-29.956,1326.760993
7 Jun 2022 23:41:44.000,141.706,-26.791,1595.617150
7 Jun 2022 23:42:26.394,148.293,-25.168,1823.262354
8 Jun 2022 01:11:23.972,320.005,-25.048,1844.959463
8 Jun 2022 01:12:23.000,308.686,-26.982,1574.533579
8 Jun 2022 01:13:23.000,292.547,-29.129,1384.019386
8 Jun 2022 01:14:23.000,272.440,-30.114,1316.593589
8 Jun 2022 01:15:23.000,252.460,-29.042,1390.465940
8 Jun 2022 01:16:23.000,236.572,-26.881,1585.640247
8 Jun 2022 01:17:15.734,226.476,-25.148,1826.753860
8 Jun 2022 11:53:39.686,348.874,-25.178,1821.520982
8 Jun 2022 11:54:39.000,346.275,-28.616,1423.312820
8 Jun 2022 11:55:39.000,341.062,-35.990,1045.440077
8 Jun 2022 11:56:39.000,326.584,-51.394,735.131474
8 Jun 2022 11:57:39.000,261.111,-67.447,608.771308
8 Jun 2022 11:58:39.000,204.650,-49.090,764.315608
8 Jun 2022 11:59:39.000,192.094,-34.842,1086.343563
8 Jun 2022 12:00:39.000,187.311,-28.077,1468.268455
8 Jun 2022 12:01:35.181,184.948,-25.040,1846.554590
8 Jun 2022 23:32:28.522,37.651,-25.050,1844.584226
8 Jun 2022 23:33:28.000,47.272,-27.391,1532.148958
8 Jun 2022 23:34:28.000,62.217,-30.638,1284.310226
8 Jun 2022 23:35:28.000,83.767,-33.269,1150.135075
8 Jun 2022 23:36:28.000,108.202,-32.821,1170.263512
8 Jun 2022 23:37:28.000,128.195,-29.788,1337.878353
8 Jun 2022 23:38:28.000,141.655,-26.691,1607.091882
8 Jun 2022 23:39:08.375,147.932,-25.167,1823.319440
9 Jun 2022 01:08:05.996,320.393,-25.048,1844.991877
9 Jun 2022 01:09:05.000,309.147,-27.001,1572.472947
9 Jun 2022 01:10:05.000,293.032,-29.197,1379.064100
9 Jun 2022 01:11:05.000,272.832,-30.240,1308.639418
9 Jun 2022 01:12:05.000,252.666,-29.179,1380.353843
9 Jun 2022 01:13:05.000,236.621,-26.982,1574.543238
9 Jun 2022 01:13:59.962,226.085,-25.149,1826.676097
9 Jun 2022 11:50:22.853,348.573,-25.177,1821.541775
9 Jun 2022 11:51:22.000,345.888,-28.597,1424.811495
9 Jun 2022 11:52:22.000,340.502,-35.929,1047.496531
9 Jun 2022 11:53:22.000,325.662,-51.146,738.088221
9 Jun 2022 11:54:22.000,261.300,-66.719,612.397060
9 Jun 2022 11:55:22.000,205.509,-48.874,767.268390
9 Jun 2022 11:56:22.000,192.625,-34.785,1088.478573
9 Jun 2022 11:57:22.000,187.684,-28.058,1469.899685
9 Jun 2022 11:58:17.981,185.246,-25.040,1846.534896
9 Jun 2022 23:29:12.170,38.009,-25.051,1844.549549
9 Jun 2022 23:30:12.000,47.775,-27.391,1532.201733
9 Jun 2022 23:31:12.000,62.812,-30.588,1287.319101
9 Jun 2022 23:32:12.000,84.328,-33.120,1156.743471
9 Jun 2022 23:33:12.000,108.524,-32.614,1179.902739
9 Jun 2022 23:34:12.000,128.273,-29.623,1349.019904
9 Jun 2022 23:35:12.000,141.605,-26.592,1618.582241
9 Jun 2022 23:35:50.346,147.569,-25.167,1823.392944
10 Jun 2022 01:04:48.035,320.780,-25.048,1845.023796
10 Jun 2022 01:05:48.000,309.382,-27.058,1566.429398
10 Jun 2022 01:06:48.000,293.211,-29.297,1371.858279
10 Jun 2022 01:07:48.000,272.876,-30.367,1300.731177
10 Jun 2022 01:08:48.000,252.565,-29.286,1372.579591
10 Jun 2022 01:09:48.000,236.443,-27.048,1567.504730
10 Jun 2022 01:10:44.173,225.696,-25.149,1826.601317
10 Jun 2022 11:47:06.029,348.272,-25.177,1821.563035
10 Jun 2022 11:48:06.000,345.440,-28.660,1419.821373
10 Jun 2022 11:49:06.000,339.809,-36.040,1043.740600
10 Jun 2022 11:50:06.000,324.296,-51.228,737.108546
10 Jun 2022 11:51:06.000,259.889,-65.936,616.472730
10 Jun 2022 11:52:06.000,205.974,-48.339,774.714456
10 Jun 2022 11:53:06.000,193.030,-34.569,1096.692790
10 Jun 2022 11:54:06.000,187.998,-27.965,1478.171731
10 Jun 2022 11:55:00.778,185.544,-25.040,1846.526558
10 Jun 2022 23:25:55.829,38.368,-25.051,1844.514377
10 Jun 2022 23:26:55.000,48.076,-27.342,1537.077411
10 Jun 2022 23:27:55.000,63.099,-30.483,1293.667487
10 Jun 2022 23:28:55.000,84.483,-32.950,1164.364800
10 Jun 2022 23:29:55.000,108.462,-32.446,1187.875194
10 Jun 2022 23:30:55.000,128.078,-29.516,1356.392054
10 Jun 2022 23:31:55.000,141.379,-26.538,1625.023250
10 Jun 2022 23:32:32.300,147.204,-25.167,1823.446974
11 Jun 2022 01:01:30.086,321.164,-25.048,1845.055210
11 Jun 2022 01:02:30.000,309.845,-27.076,1564.489411
11 Jun 2022 01:03:30.000,293.704,-29.364,1367.015636
11 Jun 2022 01:04:30.000,273.277,-30.496,1292.851144
11 Jun 2022 01:05:30.000,252.774,-29.428,1362.502633
11 Jun 2022 01:06:30.000,236.491,-27.153,1556.429009
11 Jun 2022 01:07:28.369,225.309,-25.149,1826.524825
11 Jun 2022 11:43:49.212,347.970,-25.177,1821.584761
11 Jun 2022 11:44:49.000,345.053,-28.639,1421.450650
11 Jun 2022 11:45:49.000,339.252,-35.974,1045.967161
11 Jun 2022 11:46:49.000,323.403,-50.964,740.283991
11 Jun 2022 11:47:49.000,260.109,-65.229,620.311981
11 Jun 2022 11:48:49.000,206.800,-48.121,777.823578
11 Jun 2022 11:49:49.000,193.551,-34.511,1098.938401
11 Jun 2022 11:50:49.000,188.367,-27.946,1479.882854
11 Jun 2022 11:51:43.575,185.842,-25.040,1846.552451
11 Jun 2022 23:22:39.498,38.729,-25.051,1844.478720
11 Jun 2022 23:23:39.000,48.578,-27.340,1537.280262
11 Jun 2022 23:24:39.000,63.686,-30.431,1296.838181
11 Jun 2022 23:25:39.000,85.031,-32.803,1171.101353
11 Jun 2022 23:26:39.000,108.776,-32.246,1197.580825
11 Jun 2022 23:27:39.000,128.156,-29.357,1367.568136
11 Jun 2022 23:28:39.000,141.332,-26.443,1636.544583
11 Jun 2022 23:29:14.240,146.838,-25.166,1823.501786
12 Jun 2022 00:58:12.149,321.546,-25.048,1845.086133
12 Jun 2022 00:59:12.000,310.310,-27.094,1562.631384
12 Jun 2022 01:00:12.000,294.201,-29.432,1362.255974
12 Jun 2022 01:01:12.000,273.683,-30.626,1285.032121
12 Jun 2022 01:02:12.000,252.987,-29.573,1352.456936
12 Jun 2022 01:03:12.000,236.540,-27.260,1545.368686
12 Jun 2022 01:04:12.000,225.011,-25.166,1823.626889
12 Jun 2022 01:04:12.548,224.925,-25.150,1826.444408
12 Jun 2022 11:40:32.402,347.669,-25.177,1821.606959
12 Jun 2022 11:41:32.000,344.668,-28.618,1423.140882
12 Jun 2022 11:42:32.000,338.699,-35.906,1048.271559
12 Jun 2022 11:43:32.000,322.529,-50.697,743.557948
12 Jun 2022 11:44:32.000,260.316,-64.532,624.255387
12 Jun 2022 11:45:32.000,207.612,-47.899,781.017430
12 Jun 2022 11:46:32.000,194.070,-34.452,1101.244454
12 Jun 2022 11:47:32.000,188.736,-27.926,1481.637261
12 Jun 2022 11:48:26.361,186.140,-25.040,1846.535106
12 Jun 2022 23:19:23.177,39.092,-25.051,1844.442552
12 Jun 2022 23:20:23.000,49.080,-27.337,1537.578985
12 Jun 2022 23:21:23.000,64.271,-30.377,1300.117176
12 Jun 2022 23:22:23.000,85.571,-32.656,1177.929844
12 Jun 2022 23:23:23.000,109.084,-32.049,1207.337563
12 Jun 2022 23:24:23.000,128.233,-29.201,1378.767881
12 Jun 2022 23:25:23.000,141.286,-26.349,1648.081577
12 Jun 2022 23:25:56.168,146.470,-25.166,1823.557395
13 Jun 2022 00:54:54.223,321.927,-25.047,1845.130021
13 Jun 2022 00:55:54.000,310.776,-27.110,1560.855144
13 Jun 2022 00:56:54.000,294.701,-29.499,1357.579729
13 Jun 2022 00:57:54.000,274.095,-30.758,1277.274872
13 Jun 2022 00:58:54.000,253.203,-29.720,1342.442967
13 Jun 2022 00:59:54.000,236.589,-27.369,1534.323981
13 Jun 2022 01:00:54.000,224.969,-25.230,1812.371459
13 Jun 2022 01:00:56.711,224.542,-25.150,1826.364833
13 Jun 2022 11:37:15.600,347.367,-25.177,1821.629624
13 Jun 2022 11:38:15.000,344.283,-28.596,1424.891657
13 Jun 2022 11:39:15.000,338.150,-35.837,1050.653070
13 Jun 2022 11:40:15.000,321.674,-50.426,746.928902
13 Jun 2022 11:41:15.000,260.512,-63.843,628.300818
13 Jun 2022 11:42:15.000,208.411,-47.675,784.294919
13 Jun 2022 11:43:15.000,194.585,-34.391,1103.610582
13 Jun 2022 11:44:15.000,189.103,-27.906,1483.434849
13 Jun 2022 11:45:09.143,186.438,-25.040,1846.530775
13 Jun 2022 23:16:06.867,39.456,-25.051,1844.405872
13 Jun 2022 23:17:06.000,49.376,-27.287,1542.593107
13 Jun 2022 23:18:06.000,64.547,-30.273,1306.596448
13 Jun 2022 23:19:06.000,85.714,-32.493,1185.637437
13 Jun 2022 23:20:06.000,109.021,-31.890,1215.355660
13 Jun 2022 23:21:06.000,128.044,-29.100,1386.186384
13 Jun 2022 23:22:06.000,141.066,-26.298,1654.584112
13 Jun 2022 23:22:38.081,146.100,-25.166,1823.613804
14 Jun 2022 00:51:36.311,322.305,-25.047,1845.160810
14 Jun 2022 00:52:36.000,311.243,-27.127,1559.160579
14 Jun 2022 00:53:36.000,295.205,-29.565,1352.987344
14 Jun 2022 00:54:36.000,274.513,-30.890,1269.580112
14 Jun 2022 00:55:36.000,253.423,-29.870,1332.461079
14 Jun 2022 00:56:36.000,236.639,-27.481,1523.294950
14 Jun 2022 00:57:36.000,224.927,-25.295,1801.127865
14 Jun 2022 00:57:40.859,224.162,-25.151,1826.286087
14 Jun 2022 11:33:58.805,347.065,-25.177,1821.652759
14 Jun 2022 11:34:58.000,343.900,-28.573,1426.702779
14 Jun 2022 11:35:58.000,337.605,-35.765,1053.111148
14 Jun 2022 11:36:58.000,320.836,-50.151,750.395432
14 Jun 2022 11:37:58.000,260.697,-63.164,632.446087
14 Jun 2022 11:38:58.000,209.197,-47.449,787.654742
14 Jun 2022 11:39:58.000,195.098,-34.330,1106.036166
14 Jun 2022 11:40:58.000,189.469,-27.886,1485.275251
14 Jun 2022 11:41:51.921,186.737,-25.040,1846.531779
14 Jun 2022 23:12:50.569,39.822,-25.052,1844.368669
14 Jun 2022 23:13:50.000,49.876,-27.283,1543.042033
14 Jun 2022 23:14:50.000,65.124,-30.218,1310.034515
14 Jun 2022 23:15:50.000,86.241,-32.348,1192.589379
14 Jun 2022 23:16:50.000,109.322,-31.700,1225.176236
14 Jun 2022 23:17:50.000,128.121,-28.949,1397.419981
14 Jun 2022 23:18:50.000,141.022,-26.208,1666.151662
14 Jun 2022 23:19:19.981,145.729,-25.165,1823.671018
15 Jun 2022 00:48:18.411,322.681,-25.047,1845.191094
15 Jun 2022 00:49:18.000,311.710,-27.142,1557.547774
15 Jun 2022 00:50:18.000,295.713,-29.631,1348.479402
15 Jun 2022 00:51:18.000,274.937,-31.024,1261.948626
15 Jun 2022 00:52:18.000,253.646,-30.022,1322.511595
15 Jun 2022 00:53:18.000,236.689,-27.595,1512.281533
15 Jun 2022 00:54:18.000,224.883,-25.362,1789.895946
15 Jun 2022 00:54:24.990,223.784,-25.151,1826.189777
15 Jun 2022 11:30:42.018,346.762,-25.177,1821.676363
15 Jun 2022 11:31:42.000,343.445,-28.631,1422.070840
15 Jun 2022 11:32:42.000,336.904,-35.861,1049.838811
15 Jun 2022 11:33:42.000,319.516,-50.177,750.060375
15 Jun 2022 11:34:42.000,259.522,-62.430,637.106612
15 Jun 2022 11:35:42.000,209.569,-46.934,795.457305
15 Jun 2022 11:36:42.000,195.471,-34.117,1114.493166
15 Jun 2022 11:37:42.000,189.768,-27.793,1493.725001
15 Jun 2022 11:38:34.692,187.036,-25.040,1846.519380
15 Jun 2022 23:09:34.282,40.190,-25.052,1844.330935
15 Jun 2022 23:10:34.000,50.375,-27.277,1543.587849
15 Jun 2022 23:11:34.000,65.698,-30.162,1313.579830
15 Jun 2022 23:12:34.000,86.761,-32.204,1199.630276
15 Jun 2022 23:13:34.000,109.617,-31.513,1235.045675
15 Jun 2022 23:14:34.000,128.197,-28.802,1408.676115
15 Jun 2022 23:15:34.000,140.980,-26.119,1677.733922
15 Jun 2022 23:16:01.864,145.356,-25.165,1823.717014
16 Jun 2022 00:45:00.522,323.056,-25.047,1845.220882
16 Jun 2022 00:46:00.000,312.179,-27.157,1556.017074
16 Jun 2022 00:47:00.000,296.225,-29.696,1344.056716
16 Jun 2022 00:48:00.000,275.366,-31.158,1254.381380
16 Jun 2022 00:49:00.000,253.874,-30.177,1312.594932
16 Jun 2022 00:50:00.000,236.740,-27.712,1501.283669
16 Jun 2022 00:51:00.000,224.839,-25.430,1778.675482
16 Jun 2022 00:51:09.108,223.408,-25.152,1826.108754
16 Jun 2022 11:27:25.239,346.460,-25.177,1821.700436
16 Jun 2022 11:28:25.000,343.063,-28.607,1424.011706
16 Jun 2022 11:29:25.000,336.363,-35.784,1052.463559
16 Jun 2022 11:30:25.000,318.711,-49.891,753.733376
16 Jun 2022 11:31:25.000,259.728,-61.773,641.442637
16 Jun 2022 11:32:25.000,210.324,-46.708,798.958678
16 Jun 2022 11:33:25.000,195.974,-34.055,1117.021995
16 Jun 2022 11:34:25.000,190.130,-27.772,1495.641184
16 Jun 2022 11:35:17.459,187.335,-25.040,1846.515560
16 Jun 2022 23:06:18.006,40.560,-25.052,1844.292662
16 Jun 2022 23:07:18.000,50.875,-27.271,1544.230869
16 Jun 2022 23:08:18.000,66.268,-30.104,1317.231821
16 Jun 2022 23:09:18.000,87.274,-32.061,1206.758684
16 Jun 2022 23:10:18.000,109.906,-31.329,1244.962718
16 Jun 2022 23:11:18.000,128.271,-28.658,1419.953985
16 Jun 2022 23:12:18.000,140.938,-26.033,1689.330214
16 Jun 2022 23:12:43.734,144.981,-25.165,1823.766925
17 Jun 2022 00:41:42.645,323.428,-25.047,1845.250172
17 Jun 2022 00:42:42.000,312.648,-27.171,1554.569018
17 Jun 2022 00:43:42.000,296.740,-29.760,1339.720316
17 Jun 2022 00:44:42.000,275.802,-31.294,1246.879568
17 Jun 2022 00:45:42.000,254.105,-30.335,1302.711693
17 Jun 2022 00:46:42.000,236.792,-27.830,1490.301432
17 Jun 2022 00:47:42.000,224.795,-25.500,1767.466343
17 Jun 2022 00:47:53.215,223.033,-25.152,1826.041446
17 Jun 2022 11:24:08.467,346.157,-25.176,1821.724983
17 Jun 2022 11:25:08.000,342.682,-28.582,1426.013547
17 Jun 2022 11:26:08.000,335.826,-35.706,1055.164440
17 Jun 2022 11:27:08.000,317.924,-49.602,757.498608
17 Jun 2022 11:28:08.000,259.925,-61.125,645.872081
17 Jun 2022 11:29:08.000,211.066,-46.480,802.537708
17 Jun 2022 11:30:08.000,196.475,-33.991,1119.607374
17 Jun 2022 11:31:08.000,190.492,-27.751,1497.598011
17 Jun 2022 11:32:00.221,187.634,-25.040,1846.513542
17 Jun 2022 23:03:01.742,40.931,-25.052,1844.253844
17 Jun 2022 23:04:01.000,51.164,-27.220,1549.437890
17 Jun 2022 23:05:01.000,66.528,-30.001,1323.889094
17 Jun 2022 23:06:01.000,87.400,-31.906,1214.579315
17 Jun 2022 23:07:01.000,109.840,-31.183,1253.036170
17 Jun 2022 23:08:01.000,128.090,-28.564,1427.425458
17 Jun 2022 23:09:01.000,140.726,-25.985,1695.904420
17 Jun 2022 23:09:25.591,144.604,-25.165,1823.822603
18 Jun 2022 00:38:24.780,323.799,-25.047,1845.278976
18 Jun 2022 00:39:24.000,313.118,-27.184,1553.204182
18 Jun 2022 00:40:24.000,297.259,-29.824,1335.471325
18 Jun 2022 00:41:24.000,276.244,-31.431,1239.444557
18 Jun 2022 00:42:24.000,254.340,-30.496,1292.862696
18 Jun 2022 00:43:24.000,236.844,-27.952,1479.335106
18 Jun 2022 00:44:24.000,224.749,-25.572,1756.268599
18 Jun 2022 00:44:37.305,222.660,-25.153,1825.963564
18 Jun 2022 11:20:51.703,345.854,-25.176,1821.750003
18 Jun 2022 11:21:51.000,342.303,-28.556,1428.076360
18 Jun 2022 11:22:51.000,335.293,-35.626,1057.941107
18 Jun 2022 11:23:51.000,317.155,-49.311,761.354882
18 Jun 2022 11:24:51.000,260.112,-60.486,650.393064
18 Jun 2022 11:25:51.000,211.797,-46.251,806.193237
18 Jun 2022 11:26:51.000,196.973,-33.927,1122.248720
18 Jun 2022 11:27:51.000,190.852,-27.730,1499.595102
18 Jun 2022 11:28:42.979,187.934,-25.040,1846.511101
18 Jun 2022 22:59:45.490,41.304,-25.052,1844.214472
18 Jun 2022 23:00:45.000,51.661,-27.212,1550.231591
18 Jun 2022 23:01:45.000,67.091,-29.942,1327.695651
18 Jun 2022 23:02:45.000,87.901,-31.765,1221.823019
18 Jun 2022 23:03:45.000,110.122,-31.005,1263.010724
18 Jun 2022 23:04:45.000,128.164,-28.425,1438.732694
18 Jun 2022 23:05:45.000,140.687,-25.901,1707.526875
18 Jun 2022 23:06:07.438,144.226,-25.164,1823.907898
19 Jun 2022 00:35:06.926,324.167,-25.046,1845.307299
19 Jun 2022 00:36:06.000,313.589,-27.196,1551.923017
19 Jun 2022 00:37:06.000,297.782,-29.887,1331.310815
19 Jun 2022 00:38:06.000,276.692,-31.569,1232.077773
19 Jun 2022 00:39:06.000,254.579,-30.660,1283.048897
19 Jun 2022 00:40:06.000,236.896,-28.076,1468.385159
19 Jun 2022 00:41:06.000,224.702,-25.644,1745.082535
19 Jun 2022 00:41:21.381,222.289,-25.153,1825.883702
19 Jun 2022 11:17:34.947,345.551,-25.176,1821.775496
19 Jun 2022 11:18:34.000,341.925,-28.530,1430.199910
19 Jun 2022 11:19:34.000,334.765,-35.545,1060.793008
19 Jun 2022 11:20:34.000,316.404,-49.018,765.300888
19 Jun 2022 11:21:34.000,260.292,-59.857,655.003773
19 Jun 2022 11:22:34.000,212.514,-46.020,809.924299
19 Jun 2022 11:23:34.000,197.467,-33.861,1124.945688
19 Jun 2022 11:24:34.000,191.211,-27.708,1501.632332
19 Jun 2022 11:25:25.731,188.233,-25.040,1846.507618
19 Jun 2022 22:56:29.250,41.679,-25.053,1844.174541
19 Jun 2022 22:57:29.000,52.158,-27.204,1551.121724
19 Jun 2022 22:58:29.000,67.650,-29.883,1331.606032
19 Jun 2022 22:59:29.000,88.394,-31.624,1229.149881
19 Jun 2022 23:00:29.000,110.399,-30.830,1273.029690
19 Jun 2022 23:01:29.000,128.237,-28.289,1450.059874
19 Jun 2022 23:02:29.000,140.648,-25.820,1719.162030
19 Jun 2022 23:02:49.266,143.846,-25.164,1823.967101
20 Jun 2022 00:31:49.083,324.534,-25.046,1845.335146
20 Jun 2022 00:32:49.000,313.845,-27.251,1546.258224
20 Jun 2022 00:33:49.000,297.996,-29.993,1324.414794
20 Jun 2022 00:34:49.000,276.765,-31.716,1224.324693
20 Jun 2022 00:35:49.000,254.478,-30.791,1275.334493
20 Jun 2022 00:36:49.000,236.702,-28.156,1461.428158
20 Jun 2022 00:37:49.000,224.490,-25.684,1739.061759
20 Jun 2022 00:38:05.446,221.919,-25.153,1825.816210
20 Jun 2022 11:14:18.199,345.248,-25.176,1821.801464
20 Jun 2022 11:15:18.000,341.465,-28.583,1425.933691
20 Jun 2022 11:16:18.000,334.062,-35.624,1058.006437
20 Jun 2022 11:17:18.000,315.143,-48.997,765.586850
20 Jun 2022 11:18:18.000,259.287,-59.174,660.186888
20 Jun 2022 11:19:18.000,212.808,-45.530,818.037712
20 Jun 2022 11:20:18.000,197.808,-33.653,1133.618314
20 Jun 2022 11:21:18.000,191.495,-27.616,1510.241587
20 Jun 2022 11:22:08.479,188.533,-25.040,1846.503941
20 Jun 2022 22:53:13.022,42.056,-25.053,1844.134042
20 Jun 2022 22:54:13.000,52.654,-27.194,1552.107929
20 Jun 2022 22:55:13.000,68.205,-29.822,1335.619185
20 Jun 2022 22:56:13.000,88.880,-31.485,1236.558363
20 Jun 2022 22:57:13.000,110.671,-30.659,1283.092058
20 Jun 2022 22:58:13.000,128.309,-28.156,1461.406639
20 Jun 2022 22:59:13.000,140.610,-25.740,1730.809783
20 Jun 2022 22:59:31.076,143.464,-25.164,1824.009622
21 Jun 2022 00:28:31.251,324.900,-25.046,1845.362523
21 Jun 2022 00:29:31.000,314.318,-27.262,1545.103460
21 Jun 2022 00:30:31.000,298.526,-30.055,1320.380471
21 Jun 2022 00:31:31.000,277.224,-31.857,1217.047167
21 Jun 2022 00:32:31.000,254.721,-30.960,1265.563643
21 Jun 2022 00:33:31.000,236.754,-28.284,1450.502742
21 Jun 2022 00:34:31.000,224.440,-25.760,1727.900798
21 Jun 2022 00:34:49.497,221.552,-25.154,1825.748797
21 Jun 2022 11:11:01.458,344.944,-25.176,1821.827909
21 Jun 2022 11:12:01.000,341.088,-28.555,1428.187197
21 Jun 2022 11:13:01.000,333.538,-35.538,1061.022361
21 Jun 2022 11:14:01.000,314.425,-48.695,769.727696
21 Jun 2022 11:15:01.000,259.481,-58.566,664.967951
21 Jun 2022 11:16:01.000,213.499,-45.302,821.896961
21 Jun 2022 11:17:01.000,198.294,-33.587,1136.411539
21 Jun 2022 11:18:01.000,191.851,-27.594,1512.350421
21 Jun 2022 11:18:51.221,188.833,-25.040,1846.500069
21 Jun 2022 22:49:56.807,42.434,-25.053,1844.092968
21 Jun 2022 22:50:56.000,52.935,-27.142,1557.501672
21 Jun 2022 22:51:56.000,68.450,-29.720,1342.442575
21 Jun 2022 22:52:56.000,88.991,-31.338,1244.479096
21 Jun 2022 22:53:56.000,110.603,-30.523,1291.212448
21 Jun 2022 22:54:56.000,128.135,-28.069,1468.924473
21 Jun 2022 22:55:56.000,140.406,-25.695,1737.449028
21 Jun 2022 22:56:12.875,143.080,-25.163,1824.075737
22 Jun 2022 00:25:13.429,325.263,-25.046,1845.389436
22 Jun 2022 00:26:13.000,314.792,-27.273,1544.032775
22 Jun 2022 00:27:13.000,299.060,-30.117,1316.436819
22 Jun 2022 00:28:13.000,277.689,-31.999,1209.841144
22 Jun 2022 00:29:13.000,254.969,-31.132,1255.830354
22 Jun 2022 00:30:13.000,236.806,-28.415,1439.595218
22 Jun 2022 00:31:13.000,224.390,-25.836,1716.752854
22 Jun 2022 00:31:33.535,221.185,-25.154,1825.680983
22 Jun 2022 11:07:44.725,344.641,-25.176,1821.854830
22 Jun 2022 11:08:44.000,340.713,-28.526,1430.500098
22 Jun 2022 11:09:44.000,333.020,-35.451,1064.111308
22 Jun 2022 11:10:44.000,313.724,-48.393,773.953871
22 Jun 2022 11:11:44.000,259.667,-57.967,669.833150
22 Jun 2022 11:12:44.000,214.178,-45.072,825.828878
22 Jun 2022 11:13:44.000,198.777,-33.520,1139.259600
22 Jun 2022 11:14:44.000,192.205,-27.572,1514.499463
22 Jun 2022 11:15:33.958,189.134,-25.040,1846.496002
22 Jun 2022 22:46:40.605,42.815,-25.053,1844.051307
22 Jun 2022 22:47:40.000,53.429,-27.132,1558.634845
22 Jun 2022 22:48:40.000,68.998,-29.658,1346.602825
22 Jun 2022 22:49:40.000,89.466,-31.201,1251.994026
22 Jun 2022 22:50:40.000,110.869,-30.358,1301.327218
22 Jun 2022 22:51:40.000,128.207,-27.941,1480.298563
22 Jun 2022 22:52:40.000,140.371,-25.618,1749.121860
22 Jun 2022 22:52:54.659,142.693,-25.163,1824.142544
23 Jun 2022 00:21:55.619,325.625,-25.046,1845.415893
23 Jun 2022 00:22:55.000,315.267,-27.283,1543.045996
23 Jun 2022 00:23:55.000,299.597,-30.177,1312.584358
23 Jun 2022 00:24:55.000,278.160,-32.142,1202.707714
23 Jun 2022 00:25:55.000,255.222,-31.308,1246.135437
23 Jun 2022 00:26:55.000,236.859,-28.548,1428.706047
23 Jun 2022 00:27:55.000,224.339,-25.915,1705.618315
23 Jun 2022 00:28:17.559,220.821,-25.155,1825.612235
23 Jun 2022 11:04:28.000,344.336,-25.176,1821.882235
23 Jun 2022 11:05:28.000,340.250,-28.576,1426.459792
23 Jun 2022 11:06:28.000,332.315,-35.521,1061.627308
23 Jun 2022 11:07:28.000,312.499,-48.345,774.626197
23 Jun 2022 11:08:28.000,258.755,-57.313,675.332348
23 Jun 2022 11:09:28.000,214.433,-44.600,834.120566
23 Jun 2022 11:10:28.000,199.100,-33.317,1148.054138
23 Jun 2022 11:11:28.000,192.480,-27.482,1523.199745
23 Jun 2022 11:12:16.689,189.435,-25.040,1846.491738
23 Jun 2022 22:43:24.415,43.198,-25.053,1844.009051
23 Jun 2022 22:44:24.000,53.922,-27.120,1559.863219
23 Jun 2022 22:45:24.000,69.541,-29.596,1350.863323
23 Jun 2022 22:46:24.000,89.934,-31.065,1259.587239
23 Jun 2022 22:47:24.000,111.130,-30.195,1311.483561
23 Jun 2022 22:48:24.000,128.278,-27.815,1491.691833
23 Jun 2022 22:49:24.000,140.336,-25.542,1760.807339
23 Jun 2022 22:49:36.427,142.305,-25.162,1824.210057
24 Jun 2022 00:18:37.818,325.986,-25.046,1845.441900
24 Jun 2022 00:19:37.000,315.742,-27.292,1542.142925
24 Jun 2022 00:20:37.000,300.138,-30.237,1308.823566
24 Jun 2022 00:21:37.000,278.638,-32.285,1195.647921
24 Jun 2022 00:22:37.000,255.479,-31.486,1236.479650
24 Jun 2022 00:23:37.000,236.913,-28.685,1417.835615
24 Jun 2022 00:24:37.000,224.288,-25.995,1694.497490
24 Jun 2022 00:25:01.565,220.459,-25.155,1825.516071
24 Jun 2022 11:01:11.283,344.032,-25.175,1821.910117
24 Jun 2022 11:02:11.000,339.876,-28.546,1428.900429
24 Jun 2022 11:03:11.000,331.802,-35.429,1064.876371
24 Jun 2022 11:04:11.000,311.831,-48.036,779.038254
24 Jun 2022 11:05:11.000,258.951,-56.735,680.355615
24 Jun 2022 11:06:11.000,215.087,-44.374,838.173833
24 Jun 2022 11:07:11.000,199.574,-33.250,1150.995867
24 Jun 2022 11:08:11.000,192.831,-27.459,1525.419766
24 Jun 2022 11:08:59.416,189.736,-25.040,1846.487276
24 Jun 2022 22:40:08.238,43.583,-25.054,1843.966188
24 Jun 2022 22:41:08.000,54.414,-27.107,1561.186744
24 Jun 2022 22:42:08.000,70.081,-29.533,1355.223339
24 Jun 2022 22:43:08.000,90.395,-30.930,1267.257576
24 Jun 2022 22:44:08.000,111.387,-30.035,1321.680769
24 Jun 2022 22:45:08.000,128.348,-27.692,1503.104078
24 Jun 2022 22:46:08.000,140.302,-25.469,1772.505419
24 Jun 2022 22:46:18.177,141.915,-25.162,1824.266184
25 Jun 2022 00:15:20.028,326.345,-25.046,1845.467464
25 Jun 2022 00:16:20.000,316.007,-27.346,1536.671084
25 Jun 2022 00:17:20.000,300.369,-30.345,1302.096058
25 Jun 2022 00:18:20.000,278.728,-32.444,1187.989869
25 Jun 2022 00:19:20.000,255.378,-31.631,1228.810088
25 Jun 2022 00:20:20.000,236.709,-28.773,1410.935169
25 Jun 2022 00:21:20.000,224.065,-26.039,1688.560830
25 Jun 2022 00:21:45.563,220.098,-25.156,1825.449302
25 Jun 2022 10:57:54.574,343.727,-25.175,1821.938481
25 Jun 2022 10:58:54.000,339.504,-28.515,1431.399169
25 Jun 2022 10:59:54.000,331.294,-35.336,1068.196151
25 Jun 2022 11:00:54.000,311.178,-47.727,783.531019
25 Jun 2022 11:01:54.000,259.140,-56.166,685.457255
25 Jun 2022 11:02:54.000,215.730,-44.148,842.296482
25 Jun 2022 11:03:54.000,200.046,-33.182,1153.991159
25 Jun 2022 11:04:54.000,193.180,-27.436,1527.679606
25 Jun 2022 11:05:42.137,190.037,-25.040,1846.482617
25 Jun 2022 22:36:52.075,43.970,-25.054,1843.922706
25 Jun 2022 22:37:52.000,54.906,-27.094,1562.605419
25 Jun 2022 22:38:52.000,70.616,-29.469,1359.682176
25 Jun 2022 22:39:52.000,90.850,-30.796,1275.003903
25 Jun 2022 22:40:52.000,111.639,-29.878,1331.918134
25 Jun 2022 22:41:52.000,128.417,-27.572,1514.535057
25 Jun 2022 22:42:52.000,140.268,-25.396,1784.215999
25 Jun 2022 22:42:59.913,141.523,-25.162,1824.337234
26 Jun 2022 00:12:02.247,326.702,-25.045,1845.492591
26 Jun 2022 00:13:02.000,316.484,-27.354,1535.894506
26 Jun 2022 00:14:02.000,300.917,-30.404,1298.466307
26 Jun 2022 00:15:02.000,279.217,-32.590,1181.026816
26 Jun 2022 00:16:02.000,255.640,-31.815,1219.202197
26 Jun 2022 00:17:02.000,236.761,-28.914,1400.092569
26 Jun 2022 00:18:02.000,224.010,-26.121,1677.468507
26 Jun 2022 00:18:29.549,219.738,-25.156,1825.388599
26 Jun 2022 10:54:37.872,343.422,-25.175,1821.967327
26 Jun 2022 10:55:37.000,339.133,-28.484,1433.955641
26 Jun 2022 10:56:37.000,330.790,-35.242,1071.585900
26 Jun 2022 10:57:37.000,310.542,-47.419,788.102983
26 Jun 2022 10:58:37.000,259.322,-55.606,690.635384
26 Jun 2022 10:59:37.000,216.362,-43.921,846.487380
26 Jun 2022 11:00:37.000,200.514,-33.113,1157.039508
26 Jun 2022 11:01:37.000,193.528,-27.413,1529.979021
26 Jun 2022 11:02:24.853,190.339,-25.040,1846.477759
26 Jun 2022 22:33:35.927,44.359,-25.054,1843.866114
26 Jun 2022 22:34:35.000,55.177,-27.041,1568.228904
26 Jun 2022 22:35:35.000,70.844,-29.369,1366.704026
26 Jun 2022 22:36:35.000,90.944,-30.660,1283.039771
26 Jun 2022 22:37:35.000,111.569,-29.755,1340.091361
26 Jun 2022 22:38:35.000,128.250,-27.493,1522.106181
26 Jun 2022 22:39:35.000,140.073,-25.356,1790.931906
26 Jun 2022 22:39:41.636,141.129,-25.161,1824.425140
27 Jun 2022 00:08:44.476,327.058,-25.045,1845.517288
27 Jun 2022 00:09:44.000,316.962,-27.361,1535.201508
27 Jun 2022 00:10:44.000,301.469,-30.462,1294.929709
27 Jun 2022 00:11:44.000,279.713,-32.737,1174.140045
27 Jun 2022 00:12:44.000,255.907,-32.003,1209.635084
27 Jun 2022 00:13:44.000,236.814,-29.058,1389.269397
27 Jun 2022 00:14:44.000,223.954,-26.206,1666.390431
27 Jun 2022 00:15:13.523,219.379,-25.156,1825.333407
27 Jun 2022 10:51:21.178,343.117,-25.175,1821.996655
27 Jun 2022 10:52:21.000,338.667,-28.530,1430.209042
27 Jun 2022 10:53:21.000,330.087,-35.300,1069.488231
27 Jun 2022 10:54:21.000,309.373,-47.342,789.246744
27 Jun 2022 10:55:21.000,258.503,-54.991,696.497275
27 Jun 2022 10:56:21.000,216.570,-43.471,854.989256
27 Jun 2022 10:57:21.000,200.814,-32.915,1165.986101
27 Jun 2022 10:58:21.000,193.792,-27.325,1538.796499
27 Jun 2022 10:59:07.563,190.641,-25.040,1846.472655
27 Jun 2022 22:30:19.791,44.751,-25.054,1843.822206
27 Jun 2022 22:31:19.000,55.665,-27.026,1569.792736
27 Jun 2022 22:32:19.000,71.371,-29.304,1371.303579
27 Jun 2022 22:33:19.000,91.389,-30.529,1290.884676
27 Jun 2022 22:34:19.000,111.815,-29.603,1350.377176
27 Jun 2022 22:35:19.000,128.319,-27.377,1533.563314
27 Jun 2022 22:36:19.000,140.041,-25.286,1802.666877
27 Jun 2022 22:36:23.339,140.732,-25.161,1824.493975
28 Jun 2022 00:05:26.715,327.412,-25.045,1845.541561
28 Jun 2022 00:06:26.000,317.440,-27.367,1534.592067
28 Jun 2022 00:07:26.000,302.024,-30.519,1291.486854
28 Jun 2022 00:08:26.000,280.216,-32.885,1167.330694
28 Jun 2022 00:09:26.000,256.179,-32.194,1200.109506
28 Jun 2022 00:10:26.000,236.868,-29.205,1378.465909
28 Jun 2022 00:11:26.000,223.897,-26.292,1655.326711
28 Jun 2022 00:11:57.483,219.023,-25.157,1825.265276
28 Jun 2022 10:48:04.492,342.811,-25.175,1822.026467
28 Jun 2022 10:49:04.000,338.298,-28.497,1432.891476
28 Jun 2022 10:50:04.000,329.590,-35.202,1073.033498
28 Jun 2022 10:51:04.000,308.768,-47.029,793.992811
28 Jun 2022 10:52:04.000,258.692,-54.451,701.817377
28 Jun 2022 10:53:04.000,217.180,-43.249,859.291187
28 Jun 2022 10:54:04.000,201.273,-32.846,1169.122751
28 Jun 2022 10:55:04.000,194.136,-27.301,1541.163954
28 Jun 2022 10:55:50.269,190.943,-25.040,1846.470358
28 Jun 2022 22:27:03.669,45.145,-25.055,1843.777686
28 Jun 2022 22:28:03.000,56.153,-27.011,1571.451554
28 Jun 2022 22:29:03.000,71.895,-29.239,1375.999983
28 Jun 2022 22:30:03.000,91.827,-30.399,1298.802722
28 Jun 2022 22:31:03.000,112.058,-29.454,1360.701391
28 Jun 2022 22:32:03.000,128.387,-27.263,1545.038369
28 Jun 2022 22:33:03.000,140.010,-25.218,1814.413722
28 Jun 2022 22:33:05.024,140.332,-25.160,1824.563796
29 Jun 2022 00:02:08.964,327.765,-25.045,1845.565416
29 Jun 2022 00:03:08.000,317.918,-27.372,1534.066217
29 Jun 2022 00:04:08.000,302.581,-30.574,1288.138380
29 Jun 2022 00:05:08.000,280.727,-33.034,1160.599967
29 Jun 2022 00:06:08.000,256.456,-32.389,1190.626267
29 Jun 2022 00:07:08.000,236.923,-29.355,1367.682375
29 Jun 2022 00:08:08.000,223.839,-26.380,1644.277449
29 Jun 2022 00:08:41.430,218.667,-25.157,1825.197825
29 Jun 2022 10:44:47.814,342.505,-25.175,1822.056764
29 Jun 2022 10:45:47.000,337.932,-28.463,1435.631034
29 Jun 2022 10:46:47.000,329.099,-35.103,1076.646961
29 Jun 2022 10:47:47.000,308.179,-46.717,798.813847
29 Jun 2022 10:48:47.000,258.875,-53.920,707.208430
29 Jun 2022 10:49:47.000,217.779,-43.026,863.657623
29 Jun 2022 10:50:47.000,201.730,-32.777,1172.310410
29 Jun 2022 10:51:47.000,194.480,-27.278,1543.569733
29 Jun 2022 10:52:32.969,191.246,-25.040,1846.467716
29 Jun 2022 22:23:47.562,45.541,-25.055,1843.732536
29 Jun 2022 22:24:47.000,56.640,-26.994,1573.205307
29 Jun 2022 22:25:47.000,72.415,-29.173,1380.792458
29 Jun 2022 22:26:47.000,92.259,-30.269,1306.792715
29 Jun 2022 22:27:47.000,112.296,-29.308,1371.063190
29 Jun 2022 22:28:47.000,128.454,-27.152,1556.530924
29 Jun 2022 22:29:46.692,139.931,-25.160,1824.634621
29 Jun 2022 23:58:51.222,328.117,-25.045,1845.588858
29 Jun 2022 23:59:51.000,318.192,-27.425,1528.791440
30 Jun 2022 00:00:51.000,302.831,-30.684,1281.590186
30 Jun 2022 00:01:51.000,280.835,-33.203,1153.048036
30 Jun 2022 00:02:51.000,256.355,-32.548,1183.006651
30 Jun 2022 00:03:51.000,236.707,-29.452,1360.842776
30 Jun 2022 00:04:51.000,223.605,-26.427,1638.430447
30 Jun 2022 00:05:25.366,218.313,-25.157,1825.131074
30 Jun 2022 10:41:31.143,342.199,-25.174,1822.087547
30 Jun 2022 10:42:31.000,337.463,-28.506,1432.110253
30 Jun 2022 10:43:31.000,328.397,-35.152,1074.845761
30 Jun 2022 10:44:31.000,307.051,-46.621,800.314379
30 Jun 2022 10:45:31.000,258.120,-53.334,713.335507
30 Jun 2022 10:46:31.000,217.958,-42.595,872.305969
30 Jun 2022 10:47:31.000,202.013,-32.583,1181.361550
30 Jun 2022 10:48:31.000,194.735,-27.191,1552.468159
30 Jun 2022 10:49:15.664,191.549,-25.040,1846.464735
30 Jun 2022 12:20:55.111,85.256,-25.104,1834.750152
30 Jun 2022 12:21:04.637,87.449,-25.108,1834.016852
30 Jun 2022 12:21:14.163,89.640,-25.098,1835.765382
30 Jun 2022 22:20:31.470,45.940,-25.055,1843.687373
30 Jun 2022 22:21:31.000,57.125,-26.977,1575.053880
30 Jun 2022 22:22:31.000,72.931,-29.106,1385.680162
30 Jun 2022 22:23:31.000,92.685,-30.142,1314.853428
30 Jun 2022 22:24:31.000,112.530,-29.164,1381.461731
30 Jun 2022 22:25:31.000,128.521,-27.043,1568.040532
30 Jun 2022 22:26:28.342,139.526,-25.160,1824.703185
30 Jun 2022 23:55:33.489,328.467,-25.045,1845.611892
30 Jun 2022 23:56:33.000,318.672,-27.429,1528.393797
30 Jun 2022 23:57:33.000,303.396,-30.739,1278.378695
30 Jun 2022 23:58:33.000,281.358,-33.354,1146.422317
30 Jun 2022 23:59:33.000,256.638,-32.749,1173.575872
1 Jul 2022 00:00:33.000,236.761,-29.607,1350.088798
1 Jul 2022 00:01:33.000,223.544,-26.518,1627.410896
1 Jul 2022 00:02:09.289,217.960,-25.158,1825.065006
1 Jul 2022 10:38:14.481,341.893,-25.174,1822.118818
1 Jul 2022 10:39:14.000,337.098,-28.471,1434.975413
1 Jul 2022 10:40:14.000,327.913,-35.050,1078.612068
1 Jul 2022 10:41:14.000,306.492,-46.307,805.301250
1 Jul 2022 10:42:14.000,258.309,-52.822,718.857140
1 Jul 2022 10:43:14.000,218.537,-42.377,876.775559
1 Jul 2022 10:44:14.000,202.461,-32.514,1184.632751
1 Jul 2022 10:45:14.000,195.074,-27.167,1554.938848
1 Jul 2022 10:45:58.354,191.852,-25.040,1846.461410
1 Jul 2022 12:17:20.734,81.312,-25.109,1833.818873
1 Jul 2022 12:17:47.327,87.451,-25.155,1825.537793
1 Jul 2022 12:18:13.920,93.577,-25.093,1836.650132
1 Jul 2022 22:17:15.393,46.341,-25.055,1843.640806
1 Jul 2022 22:18:15.000,57.610,-26.959,1576.997082
1 Jul 2022 22:19:15.000,73.442,-29.039,1390.662187
1 Jul 2022 22:20:15.000,93.104,-30.015,1322.983603
1 Jul 2022 22:21:15.000,112.761,-29.023,1391.896160
1 Jul 2022 22:22:15.000,128.586,-26.936,1579.566736
1 Jul 2022 22:23:09.974,139.119,-25.159,1824.769231
1 Jul 2022 23:52:15.765,328.816,-25.045,1845.634523
1 Jul 2022 23:53:15.000,319.152,-27.432,1528.080353
1 Jul 2022 23:54:15.000,303.965,-30.792,1275.263768
1 Jul 2022 23:55:15.000,281.887,-33.506,1139.878679
1 Jul 2022 23:56:15.000,256.927,-32.954,1164.189649
1 Jul 2022 23:57:15.000,236.814,-29.766,1339.355608
1 Jul 2022 23:58:15.000,223.481,-26.611,1616.406228
1 Jul 2022 23:58:53.201,217.609,-25.158,1824.999607
2 Jul 2022 10:34:57.826,341.586,-25.174,1822.150578
2 Jul 2022 10:35:57.000,336.735,-28.435,1437.897227
2 Jul 2022 10:36:57.000,327.434,-34.946,1082.444929
2 Jul 2022 10:37:57.000,305.948,-45.994,810.359131
2 Jul 2022 10:38:57.000,258.492,-52.319,724.444701
2 Jul 2022 10:39:57.000,219.106,-42.159,881.306166
2 Jul 2022 10:40:57.000,202.906,-32.444,1187.952976
2 Jul 2022 10:41:57.000,195.413,-27.143,1557.446602
2 Jul 2022 10:42:41.038,192.156,-25.040,1846.457727
2 Jul 2022 12:13:53.690,79.047,-25.112,1833.275672
2 Jul 2022 12:14:53.000,92.782,-25.155,1825.577940
2 Jul 2022 12:15:06.353,95.836,-25.091,1837.145437
2 Jul 2022 22:13:59.331,46.745,-25.056,1843.593540
2 Jul 2022 22:14:59.000,58.093,-26.941,1579.034639
2 Jul 2022 22:15:59.000,73.950,-28.972,1395.737566
2 Jul 2022 22:16:59.000,93.518,-29.889,1331.181965
2 Jul 2022 22:17:59.000,112.987,-28.884,1402.365627
2 Jul 2022 22:18:59.000,128.650,-26.831,1591.109092
2 Jul 2022 22:19:51.587,138.710,-25.159,1824.838143
2 Jul 2022 23:48:58.050,329.164,-25.045,1845.656756
2 Jul 2022 23:49:58.000,319.432,-27.485,1522.920275
2 Jul 2022 23:50:58.000,304.225,-30.903,1268.822293
2 Jul 2022 23:51:58.000,282.007,-33.682,1132.393583
2 Jul 2022 23:52:58.000,256.825,-33.123,1156.606462
2 Jul 2022 23:53:58.000,236.592,-29.868,1332.561128
2 Jul 2022 23:54:58.000,223.241,-26.660,1610.621346
2 Jul 2022 23:55:37.097,217.259,-25.158,1824.915775
3 Jul 2022 10:31:41.180,341.278,-25.174,1822.182829
3 Jul 2022 10:32:41.000,336.265,-28.476,1434.603541
3 Jul 2022 10:33:41.000,326.735,-34.987,1080.938327
3 Jul 2022 10:34:41.000,304.863,-45.881,812.203996
3 Jul 2022 10:35:41.000,257.793,-51.761,730.816957
3 Jul 2022 10:36:41.000,219.258,-41.746,890.088046
3 Jul 2022 10:37:41.000,203.174,-32.256,1197.100652
3 Jul 2022 10:38:41.000,195.659,-27.058,1566.420565
3 Jul 2022 10:39:23.715,192.460,-25.040,1846.437674
3 Jul 2022 12:10:28.794,77.270,-25.114,1832.847058
3 Jul 2022 12:11:28.000,91.027,-25.228,1812.658422
3 Jul 2022 12:11:56.641,97.608,-25.089,1837.527859
3 Jul 2022 22:10:43.288,47.152,-25.056,1843.534342
3 Jul 2022 22:11:43.000,58.575,-26.921,1581.166203
3 Jul 2022 22:12:43.000,74.453,-28.903,1400.905277
3 Jul 2022 22:13:43.000,93.926,-29.764,1339.447228
3 Jul 2022 22:14:43.000,113.210,-28.748,1412.869300
3 Jul 2022 22:15:43.000,128.713,-26.729,1602.667183
3 Jul 2022 22:16:33.183,138.298,-25.159,1824.909666
3 Jul 2022 23:45:40.344,329.510,-25.044,1845.678595
3 Jul 2022 23:46:40.000,319.914,-27.487,1522.736933
3 Jul 2022 23:47:40.000,304.801,-30.955,1265.848792
3 Jul 2022 23:48:40.000,282.550,-33.837,1125.960926
3 Jul 2022 23:49:40.000,257.121,-33.335,1147.276392
3 Jul 2022 23:50:40.000,236.644,-30.032,1321.859305
3 Jul 2022 23:51:40.000,223.175,-26.756,1599.647705
3 Jul 2022 23:52:20.985,216.911,-25.159,1824.847262
4 Jul 2022 10:28:24.542,340.971,-25.174,1822.215570
4 Jul 2022 10:29:24.000,335.905,-28.438,1437.650328
4 Jul 2022 10:30:24.000,326.263,-34.880,1084.921119
4 Jul 2022 10:31:24.000,304.348,-45.567,817.419646
4 Jul 2022 10:32:24.000,257.980,-51.276,736.524910
4 Jul 2022 10:33:24.000,219.808,-41.533,894.714965
4 Jul 2022 10:34:24.000,203.611,-32.186,1200.500411
4 Jul 2022 10:35:24.000,195.994,-27.034,1568.990724
4 Jul 2022 10:36:06.389,192.765,-25.040,1846.435411
4 Jul 2022 12:07:05.065,75.756,-25.116,1832.482490
4 Jul 2022 12:08:05.000,89.714,-25.291,1801.923101
4 Jul 2022 12:08:45.768,99.117,-25.087,1837.853816
4 Jul 2022 22:07:27.258,47.561,-25.056,1843.487740
4 Jul 2022 22:08:27.000,59.056,-26.901,1583.391355
4 Jul 2022 22:09:27.000,74.952,-28.835,1406.164262
4 Jul 2022 22:10:27.000,94.328,-29.641,1347.778122
4 Jul 2022 22:11:27.000,113.429,-28.614,1423.406385
4 Jul 2022 22:12:27.000,128.775,-26.629,1614.240640
4 Jul 2022 22:13:14.760,137.883,-25.158,1824.983542
4 Jul 2022 23:42:22.648,329.855,-25.044,1845.700045
4 Jul 2022 23:43:22.000,320.396,-27.488,1522.638275
4 Jul 2022 23:44:22.000,305.379,-31.006,1262.974064
4 Jul 2022 23:45:22.000,283.100,-33.991,1119.614179
4 Jul 2022 23:46:22.000,257.422,-33.550,1137.993628
4 Jul 2022 23:47:22.000,236.697,-30.200,1311.179602
4 Jul 2022 23:48:22.000,223.108,-26.853,1588.689847
4 Jul 2022 23:49:04.861,216.563,-25.159,1824.778922
5 Jul 2022 10:25:07.912,340.663,-25.173,1822.248807
5 Jul 2022 10:26:07.000,335.546,-28.401,1440.752935
5 Jul 2022 10:27:07.000,325.797,-34.772,1088.968540
5 Jul 2022 10:28:07.000,303.846,-45.254,822.702398
5 Jul 2022 10:29:07.000,258.162,-50.800,742.294349
5 Jul 2022 10:30:07.000,220.350,-41.320,899.400027
5 Jul 2022 10:31:07.000,204.045,-32.117,1203.947768
5 Jul 2022 10:32:07.000,196.327,-27.009,1571.597232
5 Jul 2022 10:32:49.057,193.069,-25.040,1846.432631
5 Jul 2022 12:03:42.099,74.413,-25.118,1832.159967
5 Jul 2022 12:04:42.000,88.383,-25.349,1792.073087
5 Jul 2022 12:05:34.130,100.453,-25.085,1838.134549
5 Jul 2022 22:04:11.244,47.973,-25.057,1843.440485
5 Jul 2022 22:05:11.000,59.535,-26.880,1585.709626
5 Jul 2022 22:06:11.000,75.447,-28.765,1411.513444
5 Jul 2022 22:07:11.000,94.724,-29.519,1356.173407
5 Jul 2022 22:08:11.000,113.644,-28.483,1433.976143
5 Jul 2022 22:09:11.000,128.837,-26.531,1625.829158
5 Jul 2022 22:09:56.318,137.465,-25.158,1825.059546
5 Jul 2022 23:39:04.959,330.199,-25.044,1845.722651
5 Jul 2022 23:40:04.000,320.877,-27.488,1522.624218
5 Jul 2022 23:41:04.000,305.960,-31.055,1260.198716
5 Jul 2022 23:42:04.000,283.658,-34.146,1113.354791
5 Jul 2022 23:43:04.000,257.729,-33.769,1128.759373
5 Jul 2022 23:44:04.000,236.751,-30.371,1300.522642
5 Jul 2022 23:45:04.000,223.039,-26.953,1577.748206
5 Jul 2022 23:45:48.729,216.217,-25.160,1824.727770
6 Jul 2022 10:21:51.290,340.354,-25.173,1822.282539
6 Jul 2022 10:22:51.000,335.074,-28.438,1437.686427
6 Jul 2022 10:23:51.000,325.103,-34.804,1087.753461
6 Jul 2022 10:24:51.000,302.803,-45.127,824.878676
6 Jul 2022 10:25:51.000,257.511,-50.269,748.893716
6 Jul 2022 10:26:51.000,220.479,-40.925,908.304671
6 Jul 2022 10:27:51.000,204.298,-31.933,1213.185808
6 Jul 2022 10:28:51.000,196.566,-26.926,1580.642997
6 Jul 2022 10:29:31.720,193.375,-25.040,1846.429334
6 Jul 2022 12:00:19.686,73.193,-25.120,1831.867463
6 Jul 2022 12:01:19.000,87.035,-25.403,1783.125307
6 Jul 2022 12:02:19.000,101.012,-25.111,1833.425722
6 Jul 2022 12:02:21.937,101.666,-25.084,1838.378385
6 Jul 2022 22:00:55.248,48.388,-25.057,1843.392571
6 Jul 2022 22:01:55.000,60.013,-26.858,1588.120518
6 Jul 2022 22:02:55.000,75.937,-28.696,1416.951752
6 Jul 2022 22:03:55.000,95.115,-29.398,1364.631897
6 Jul 2022 22:04:55.000,113.856,-28.355,1444.577909
6 Jul 2022 22:05:55.000,128.897,-26.435,1637.432506
6 Jul 2022 22:06:37.856,137.045,-25.157,1825.137459
6 Jul 2022 23:35:47.280,330.541,-25.044,1845.743905
6 Jul 2022 23:36:47.000,321.164,-27.539,1517.628998
6 Jul 2022 23:37:47.000,306.236,-31.167,1253.916039
6 Jul 2022 23:38:47.000,283.796,-34.331,1105.972834
6 Jul 2022 23:39:47.000,257.629,-33.951,1121.228751
6 Jul 2022 23:40:47.000,236.519,-30.481,1293.787890
6 Jul 2022 23:41:47.000,222.789,-27.005,1572.045666
6 Jul 2022 23:42:32.583,215.872,-25.160,1824.662716
7 Jul 2022 10:18:34.676,340.046,-25.173,1822.316769
7 Jul 2022 10:19:34.000,334.719,-28.399,1440.912229
7 Jul 2022 10:20:34.000,324.645,-34.693,1091.946884
7 Jul 2022 10:21:34.000,302.329,-44.815,830.310829
7 Jul 2022 10:22:34.000,257.697,-49.810,754.774420
7 Jul 2022 10:23:34.000,221.003,-40.718,913.080550
7 Jul 2022 10:24:34.000,204.725,-31.864,1216.710021
7 Jul 2022 10:25:34.000,196.895,-26.902,1583.310741
7 Jul 2022 10:26:14.378,193.680,-25.040,1846.425503
7 Jul 2022 11:56:57.697,72.066,-25.121,1831.597719
7 Jul 2022 11:57:57.000,85.910,-25.453,1774.952577
7 Jul 2022 11:58:57.000,100.028,-25.199,1817.723127
7 Jul 2022 11:59:09.333,102.787,-25.083,1838.615413
7 Jul 2022 21:57:39.269,48.805,-25.057,1843.343993
7 Jul 2022 21:58:39.000,60.489,-26.836,1590.623540
7 Jul 2022 21:59:39.000,76.424,-28.626,1422.478153
7 Jul 2022 22:00:39.000,95.500,-29.278,1373.152488
7 Jul 2022 22:01:39.000,114.064,-28.228,1455.211113
7 Jul 2022 22:02:39.000,128.957,-26.342,1649.050546
7 Jul 2022 22:03:19.375,136.621,-25.157,1825.217109
7 Jul 2022 23:32:29.609,330.883,-25.044,1845.764793
7 Jul 2022 23:33:29.000,321.647,-27.538,1517.745974
7 Jul 2022 23:34:29.000,306.824,-31.214,1251.287121
7 Jul 2022 23:35:29.000,284.367,-34.488,1099.832922
7 Jul 2022 23:36:29.000,257.943,-34.178,1112.056879
7 Jul 2022 23:37:29.000,236.571,-30.658,1283.166139
7 Jul 2022 23:38:29.000,222.717,-27.108,1561.138392
7 Jul 2022 23:39:16.425,215.528,-25.160,1824.598076
8 Jul 2022 10:15:18.070,339.736,-25.173,1822.351497
8 Jul 2022 10:16:18.000,334.245,-28.434,1438.003840
8 Jul 2022 10:17:18.000,323.952,-34.720,1090.937540
8 Jul 2022 10:18:18.000,301.313,-44.679,832.724096
8 Jul 2022 10:19:18.000,257.081,-49.297,761.536310
8 Jul 2022 10:20:18.000,221.120,-40.336,922.067326
8 Jul 2022 10:21:18.000,204.969,-31.684,1226.005411
8 Jul 2022 10:22:18.000,197.128,-26.820,1592.401829
8 Jul 2022 10:22:57.027,193.986,-25.041,1846.407475
8 Jul 2022 11:53:36.046,71.015,-25.123,1831.346033
8 Jul 2022 11:54:36.000,85.014,-25.502,1767.165705
8 Jul 2022 11:55:36.000,99.253,-25.279,1803.960663
8 Jul 2022 11:55:56.388,103.833,-25.082,1838.826539
8 Jul 2022 21:54:23.310,49.227,-25.057,1843.280961
8 Jul 2022 21:55:23.000,60.964,-26.813,1593.218250
8 Jul 2022 21:56:23.000,76.906,-28.556,1428.091695
8 Jul 2022 21:57:23.000,95.880,-29.160,1381.734178
8 Jul 2022 21:58:23.000,114.269,-28.104,1465.875285
8 Jul 2022 21:59:23.000,129.016,-26.250,1660.683222
8 Jul 2022 22:00:00.873,136.195,-25.156,1825.298510
8 Jul 2022 23:29:11.946,331.223,-25.044,1845.785319
8 Jul 2022 23:30:11.000,322.130,-27.536,1517.946987
8 Jul 2022 23:31:11.000,307.415,-31.260,1248.758891
8 Jul 2022 23:32:11.000,284.947,-34.645,1093.783869
8 Jul 2022 23:33:11.000,258.264,-34.409,1102.936445
8 Jul 2022 23:34:11.000,236.624,-30.838,1272.568858
8 Jul 2022 23:35:11.000,222.643,-27.212,1550.248800
8 Jul 2022 23:36:00.257,215.185,-25.161,1824.533810
9 Jul 2022 10:12:01.473,339.427,-25.173,1822.386729
9 Jul 2022 10:13:01.000,333.892,-28.394,1441.350999
9 Jul 2022 10:14:01.000,323.503,-34.606,1095.273693
9 Jul 2022 10:15:01.000,300.867,-44.367,838.299520
9 Jul 2022 10:16:01.000,257.269,-48.855,767.522212
9 Jul 2022 10:17:01.000,221.627,-40.134,926.930693
9 Jul 2022 10:18:01.000,205.387,-31.616,1229.605076
9 Jul 2022 10:19:01.000,197.455,-26.796,1595.130476
9 Jul 2022 10:19:39.674,194.293,-25.041,1846.405330
9 Jul 2022 11:50:14.675,70.024,-25.124,1831.109181
9 Jul 2022 11:51:14.000,83.866,-25.547,1760.137265
9 Jul 2022 11:52:14.000,98.232,-25.366,1789.174135
9 Jul 2022 11:52:43.167,104.817,-25.080,1839.023022
9 Jul 2022 21:51:07.368,49.651,-25.058,1843.221859
9 Jul 2022 21:52:07.000,61.437,-26.789,1595.904311
9 Jul 2022 21:53:07.000,77.384,-28.486,1433.791536
9 Jul 2022 21:54:07.000,96.254,-29.043,1390.376088
9 Jul 2022 21:55:07.000,114.471,-27.983,1476.570047
9 Jul 2022 21:56:07.000,129.074,-26.160,1672.330538
9 Jul 2022 21:56:42.350,135.765,-25.156,1825.381459
9 Jul 2022 23:25:54.292,331.562,-25.044,1845.805490
9 Jul 2022 23:26:54.000,322.422,-27.587,1513.071621
9 Jul 2022 23:27:54.000,307.702,-31.373,1242.594778
9 Jul 2022 23:28:54.000,285.098,-34.838,1086.483099
9 Jul 2022 23:29:54.000,258.164,-34.602,1095.452046
9 Jul 2022 23:30:54.000,236.383,-30.954,1265.887931
9 Jul 2022 23:31:54.000,222.385,-27.267,1544.617291
9 Jul 2022 23:32:44.080,214.843,-25.161,1824.485149
10 Jul 2022 10:08:44.883,339.117,-25.173,1822.422460
10 Jul 2022 10:09:44.000,333.541,-28.353,1444.751258
10 Jul 2022 10:10:44.000,323.059,-34.492,1099.670029
10 Jul 2022 10:11:44.000,300.432,-44.059,843.934897
10 Jul 2022 10:12:44.000,257.451,-48.421,773.562668
10 Jul 2022 10:13:44.000,222.127,-39.932,931.848141
10 Jul 2022 10:14:44.000,205.803,-31.547,1233.250788
10 Jul 2022 10:15:44.000,197.780,-26.771,1597.895232
10 Jul 2022 10:16:22.314,194.600,-25.041,1846.402344
10 Jul 2022 11:46:53.541,69.084,-25.125,1830.884843
10 Jul 2022 11:47:53.000,82.950,-25.591,1753.268830
10 Jul 2022 11:48:53.000,97.427,-25.446,1776.141020
10 Jul 2022 11:49:29.712,105.751,-25.079,1839.207239
10 Jul 2022 21:47:51.443,50.078,-25.058,1843.169391
10 Jul 2022 21:48:51.000,61.909,-26.764,1598.681530
10 Jul 2022 21:49:51.000,77.857,-28.415,1439.576966
10 Jul 2022 21:50:51.000,96.623,-28.927,1399.077443
10 Jul 2022 21:51:51.000,114.669,-27.863,1487.295077
10 Jul 2022 21:52:51.000,129.131,-26.072,1683.992502
10 Jul 2022 21:53:23.806,135.332,-25.155,1825.465755
10 Jul 2022 23:22:36.645,331.900,-25.044,1845.825311
10 Jul 2022 23:23:36.000,322.906,-27.583,1513.402562
10 Jul 2022 23:24:36.000,308.299,-31.417,1240.214878
10 Jul 2022 23:25:36.000,285.692,-34.997,1080.558468
10 Jul 2022 23:26:36.000,258.493,-34.840,1086.397881
10 Jul 2022 23:27:36.000,236.434,-31.141,1255.328506
10 Jul 2022 23:28:36.000,222.308,-27.375,1533.764739
10 Jul 2022 23:29:27.890,214.502,-25.161,1824.423629
11 Jul 2022 10:05:28.302,338.806,-25.172,1822.458696
11 Jul 2022 10:06:28.000,333.067,-28.385,1442.066346
11 Jul 2022 10:07:28.000,322.372,-34.511,1098.943055
11 Jul 2022 10:08:28.000,299.458,-43.912,846.655093
11 Jul 2022 10:09:28.000,256.873,-47.933,780.522827
11 Jul 2022 10:10:28.000,222.225,-39.567,940.942371
11 Jul 2022 10:11:28.000,206.033,-31.372,1242.629020
11 Jul 2022 10:12:28.000,198.005,-26.691,1607.054786
11 Jul 2022 10:13:04.949,194.907,-25.041,1846.398507
11 Jul 2022 11:43:32.609,68.188,-25.126,1830.671263
11 Jul 2022 11:44:32.000,82.025,-25.633,1746.815793
11 Jul 2022 11:45:32.000,96.607,-25.526,1763.440182
11 Jul 2022 11:46:16.057,106.641,-25.079,1839.380930
11 Jul 2022 21:44:35.538,50.509,-25.058,1843.114827
11 Jul 2022 21:45:35.000,62.379,-26.739,1601.549858
11 Jul 2022 21:46:35.000,78.327,-28.344,1445.447377
11 Jul 2022 21:47:35.000,96.987,-28.813,1407.837516
11 Jul 2022 21:48:35.000,114.865,-27.746,1498.050022
11 Jul 2022 21:49:35.000,129.187,-25.987,1695.669027
11 Jul 2022 21:50:05.239,134.896,-25.155,1825.551191
11 Jul 2022 23:19:19.007,332.238,-25.044,1845.844788
11 Jul 2022 23:20:19.000,323.201,-27.634,1508.600349
11 Jul 2022 23:21:19.000,308.593,-31.530,1234.123703
11 Jul 2022 23:22:19.000,285.851,-35.195,1073.309544
11 Jul 2022 23:23:19.000,258.391,-35.040,1078.948014
11 Jul 2022 23:24:19.000,236.187,-31.261,1248.690804
11 Jul 2022 23:25:19.000,222.045,-27.431,1528.187991
11 Jul 2022 23:26:11.689,214.163,-25.162,1824.362602
12 Jul 2022 10:02:11.728,338.495,-25.172,1822.495435
12 Jul 2022 10:03:11.000,332.719,-28.343,1445.585214
12 Jul 2022 10:04:11.000,321.936,-34.395,1103.476931
12 Jul 2022 10:05:11.000,299.048,-43.606,852.424379
12 Jul 2022 10:06:11.000,257.058,-47.515,786.659098
12 Jul 2022 10:07:11.000,222.709,-39.371,945.941269
12 Jul 2022 10:08:11.000,206.441,-31.304,1246.346876
12 Jul 2022 10:09:11.000,198.326,-26.667,1609.878749
12 Jul 2022 10:09:47.576,195.215,-25.041,1846.379684
12 Jul 2022 11:40:11.855,67.330,-25.128,1830.467128
12 Jul 2022 11:41:11.000,81.092,-25.673,1740.784118
12 Jul 2022 11:42:11.000,95.773,-25.605,1751.080322
12 Jul 2022 11:43:02.227,107.493,-25.078,1839.545591
12 Jul 2022 21:41:19.652,50.944,-25.059,1843.058086
12 Jul 2022 21:42:19.000,62.847,-26.713,1604.509314
12 Jul 2022 21:43:19.000,78.792,-28.273,1451.402166
12 Jul 2022 21:44:19.000,97.346,-28.700,1416.655524
12 Jul 2022 21:45:19.000,115.057,-27.631,1508.834407
12 Jul 2022 21:46:19.000,129.243,-25.903,1707.359849
12 Jul 2022 21:46:46.650,134.456,-25.154,1825.637574
12 Jul 2022 23:16:01.376,332.573,-25.043,1845.863926
12 Jul 2022 23:17:01.000,323.686,-27.629,1509.061056
12 Jul 2022 23:18:01.000,309.197,-31.572,1231.893504
12 Jul 2022 23:19:01.000,286.459,-35.355,1067.512112
12 Jul 2022 23:20:01.000,258.729,-35.287,1069.961750
12 Jul 2022 23:21:01.000,236.236,-31.455,1238.169898
12 Jul 2022 23:22:01.000,221.963,-27.542,1517.373075
12 Jul 2022 23:22:55.477,213.824,-25.162,1824.302060
13 Jul 2022 09:58:55.163,338.184,-25.172,1822.532679
13 Jul 2022 09:59:55.000,332.245,-28.373,1443.056870
13 Jul 2022 10:00:55.000,321.253,-34.408,1102.949948
13 Jul 2022 10:01:55.000,298.101,-43.452,855.364354
13 Jul 2022 10:02:55.000,256.508,-47.044,793.760824
13 Jul 2022 10:03:55.000,222.797,-39.018,955.105662
13 Jul 2022 10:04:55.000,206.663,-31.133,1255.775488
13 Jul 2022 10:05:55.000,198.546,-26.588,1619.079375
13 Jul 2022 10:06:30.197,195.524,-25.041,1846.364247
13 Jul 2022 11:36:51.257,66.505,-25.129,1830.271347
13 Jul 2022 11:37:51.000,80.395,-25.716,1734.385671
13 Jul 2022 11:38:51.000,95.168,-25.678,1740.019545
13 Jul 2022 11:39:48.243,108.312,-25.077,1839.701242
13 Jul 2022 21:38:03.788,51.382,-25.059,1842.999084
13 Jul 2022 21:39:03.000,63.313,-26.687,1607.559841
13 Jul 2022 21:40:03.000,79.253,-28.202,1457.440618
13 Jul 2022 21:41:03.000,97.699,-28.588,1425.530534
13 Jul 2022 21:42:03.000,115.246,-27.519,1519.647566
13 Jul 2022 21:43:03.000,129.298,-25.820,1719.064490
13 Jul 2022 21:43:28.038,134.012,-25.154,1825.724737
13 Jul 2022 23:12:43.753,332.908,-25.043,1845.882731
13 Jul 2022 23:13:43.000,324.170,-27.623,1509.605169
13 Jul 2022 23:14:43.000,309.803,-31.613,1229.765895
13 Jul 2022 23:15:43.000,287.076,-35.516,1061.810662
13 Jul 2022 23:16:43.000,259.073,-35.538,1061.030636
13 Jul 2022 23:17:43.000,236.286,-31.652,1227.674782
13 Jul 2022 23:18:43.000,221.879,-27.655,1506.576609
13 Jul 2022 23:19:39.255,213.487,-25.162,1824.241995
14 Jul 2022 09:55:38.607,337.872,-25.172,1822.570430
14 Jul 2022 09:56:38.000,331.900,-28.329,1446.694256
14 Jul 2022 09:57:38.000,320.827,-34.290,1107.619306
14 Jul 2022 09:58:38.000,297.716,-43.148,861.262032
14 Jul 2022 09:59:38.000,256.694,-46.642,799.986512
14 Jul 2022 10:00:38.000,223.266,-38.827,960.180885
14 Jul 2022 10:01:38.000,207.063,-31.066,1259.561578
14 Jul 2022 10:02:38.000,198.864,-26.564,1621.959474
14 Jul 2022 10:03:12.814,195.832,-25.041,1846.356013
14 Jul 2022 11:33:30.799,65.709,-25.130,1830.083044
14 Jul 2022 11:34:30.000,79.447,-25.751,1729.102261
14 Jul 2022 11:35:30.000,94.309,-25.757,1728.265994
14 Jul 2022 11:36:30.000,108.220,-25.133,1829.488284
14 Jul 2022 11:36:34.120,109.101,-25.076,1839.844003
14 Jul 2022 21:34:47.944,51.823,-25.059,1842.937735
14 Jul 2022 21:35:47.000,63.778,-26.659,1610.701173
14 Jul 2022 21:36:47.000,79.710,-28.131,1463.561804
14 Jul 2022 21:37:47.000,98.048,-28.477,1434.461426
14 Jul 2022 21:38:47.000,115.433,-27.408,1530.488669
14 Jul 2022 21:39:47.000,129.352,-25.740,1730.782333
14 Jul 2022 21:40:09.402,133.565,-25.153,1825.812541
14 Jul 2022 23:09:26.138,333.242,-25.043,1845.901205
14 Jul 2022 23:10:26.000,324.470,-27.673,1504.925357
14 Jul 2022 23:11:26.000,310.108,-31.727,1223.799708
14 Jul 2022 23:12:26.000,287.250,-35.721,1054.650756
14 Jul 2022 23:13:26.000,258.972,-35.750,1053.631013
14 Jul 2022 23:14:26.000,236.029,-31.779,1221.093922
14 Jul 2022 23:15:26.000,221.608,-27.714,1501.073976
14 Jul 2022 23:16:23.022,213.150,-25.163,1824.182402
15 Jul 2022 09:52:22.058,337.560,-25.171,1822.608688
15 Jul 2022 09:53:22.000,331.424,-28.358,1444.323876
15 Jul 2022 09:54:22.000,320.147,-34.298,1107.291653
15 Jul 2022 09:55:22.000,296.795,-42.988,864.415900
15 Jul 2022 09:56:22.000,256.170,-46.187,807.221702
15 Jul 2022 09:57:22.000,223.346,-38.486,969.409871
15 Jul 2022 09:58:22.000,207.277,-30.900,1269.036293
15 Jul 2022 09:59:22.000,199.079,-26.487,1631.197634
15 Jul 2022 09:59:55.426,196.142,-25.041,1846.346893
15 Jul 2022 11:30:10.468,64.940,-25.131,1829.901492
