data/Partner_Institute/Skyhopper_Partner-Munich_AER_1year.csv

"Time (UTCG)","Azimuth (deg)","Elevation (deg)","Range (km)"
1 Jun 2022 05:56:26.494,340.613,-25.237,1829.617865
1 Jun 2022 05:57:26.000,335.319,-28.463,1446.842819
1 Jun 2022 05:58:26.000,325.350,-34.742,1097.418601
1 Jun 2022 05:59:26.000,303.288,-44.874,834.429850
1 Jun 2022 06:00:26.000,258.792,-50.077,755.927347
1 Jun 2022 06:01:26.000,221.732,-41.049,911.228142
1 Jun 2022 06:02:26.000,205.286,-32.101,1213.205898
1 Jun 2022 06:03:26.000,197.401,-27.064,1578.988440
1 Jun 2022 06:04:08.264,194.045,-25.102,1854.257258
1 Jun 2022 07:33:21.372,48.494,-25.211,1834.123627
1 Jun 2022 07:34:21.000,60.971,-26.747,1614.495557
1 Jun 2022 07:35:21.000,77.025,-28.007,1486.197651
1 Jun 2022 07:36:21.000,94.897,-28.126,1475.640475
1 Jun 2022 07:37:21.000,111.422,-27.009,1585.028364
1 Jun 2022 07:38:21.000,124.555,-25.456,1791.966937
1 Jun 2022 07:38:35.017,127.102,-25.119,1851.083595
1 Jun 2022 17:30:13.209,52.491,-25.118,1851.137874
1 Jun 2022 17:31:13.000,64.670,-26.666,1623.915000
1 Jun 2022 17:32:13.000,80.495,-28.012,1485.761620
1 Jun 2022 17:33:13.000,98.433,-28.258,1464.140328
1 Jun 2022 17:34:13.000,115.304,-27.203,1564.172799
1 Jun 2022 17:35:13.000,128.839,-25.624,1765.102415
1 Jun 2022 17:35:29.515,131.919,-25.212,1834.035934
1 Jun 2022 19:04:41.275,345.680,-25.102,1854.253513
1 Jun 2022 19:05:41.000,340.434,-28.198,1469.370873
1 Jun 2022 19:06:41.000,330.720,-34.217,1118.007964
1 Jun 2022 19:07:41.000,309.589,-44.042,849.507220
1 Jun 2022 19:08:41.000,266.529,-49.817,759.296090
1 Jun 2022 19:09:41.000,228.547,-41.420,902.873228
1 Jun 2022 19:10:41.000,211.306,-32.397,1198.564894
1 Jun 2022 19:11:41.000,203.080,-27.230,1561.386230
1 Jun 2022 19:12:22.377,199.664,-25.236,1829.653591
2 Jun 2022 05:53:09.826,340.353,-25.237,1829.651689
2 Jun 2022 05:54:09.000,335.021,-28.430,1449.605931
2 Jun 2022 05:55:09.000,324.968,-34.649,1100.991970
2 Jun 2022 05:56:09.000,302.894,-44.615,839.038564
2 Jun 2022 05:57:09.000,258.937,-49.693,760.922533
2 Jun 2022 05:58:09.000,222.169,-40.872,915.308042
2 Jun 2022 05:59:09.000,205.645,-32.041,1216.227521
2 Jun 2022 06:00:09.000,197.680,-27.043,1581.281230
2 Jun 2022 06:00:50.971,194.302,-25.102,1854.257221
2 Jun 2022 07:30:02.815,48.107,-25.212,1834.040822
2 Jun 2022 07:31:02.000,60.432,-26.757,1613.339054
2 Jun 2022 07:32:02.000,76.472,-28.061,1481.416004
2 Jun 2022 07:33:02.000,94.437,-28.222,1467.306594
2 Jun 2022 07:34:02.000,111.121,-27.110,1574.045810
2 Jun 2022 07:35:02.000,124.395,-25.533,1779.464909
2 Jun 2022 07:35:18.954,127.484,-25.118,1851.134979
2 Jun 2022 17:26:57.145,52.872,-25.119,1851.085023
2 Jun 2022 17:27:57.000,65.115,-26.648,1626.049168
2 Jun 2022 17:28:57.000,80.940,-27.956,1490.820976
2 Jun 2022 17:29:57.000,98.788,-28.168,1472.002983
2 Jun 2022 17:30:57.000,115.518,-27.110,1574.045557
2 Jun 2022 17:31:57.000,128.933,-25.555,1776.036540
2 Jun 2022 17:32:10.960,131.532,-25.212,1834.120617
2 Jun 2022 19:01:23.981,345.938,-25.102,1854.258194
2 Jun 2022 19:02:23.000,340.846,-28.155,1473.136917
2 Jun 2022 19:03:23.000,331.331,-34.166,1120.091505
2 Jun 2022 19:04:23.000,310.533,-44.100,848.433200
2 Jun 2022 19:05:23.000,267.284,-50.245,753.778799
2 Jun 2022 19:06:23.000,228.556,-41.797,894.595411
2 Jun 2022 19:07:23.000,211.139,-32.582,1189.610168
2 Jun 2022 19:08:23.000,202.901,-27.316,1552.446856
2 Jun 2022 19:09:05.709,199.404,-25.237,1829.613937
3 Jun 2022 05:49:53.164,340.093,-25.236,1829.685917
3 Jun 2022 05:50:53.000,334.606,-28.471,1446.225625
3 Jun 2022 05:51:53.000,324.352,-34.692,1099.346147
3 Jun 2022 05:52:53.000,301.963,-44.529,840.587091
3 Jun 2022 05:53:53.000,258.286,-49.258,766.718047
3 Jun 2022 05:54:53.000,222.197,-40.521,923.525861
3 Jun 2022 05:55:53.000,205.820,-31.870,1224.972815
3 Jun 2022 05:56:53.000,197.861,-26.964,1589.966026
3 Jun 2022 05:57:33.674,194.560,-25.102,1854.256663
3 Jun 2022 07:26:44.282,47.723,-25.213,1833.937282
3 Jun 2022 07:27:44.000,60.130,-26.793,1609.216051
3 Jun 2022 07:28:44.000,76.206,-28.128,1475.446520
3 Jun 2022 07:29:44.000,94.271,-28.309,1459.828396
3 Jun 2022 07:30:44.000,111.070,-27.188,1565.770693
3 Jun 2022 07:31:44.000,124.425,-25.586,1771.040963
3 Jun 2022 07:32:02.870,127.862,-25.118,1851.163126
3 Jun 2022 17:23:41.098,53.258,-25.119,1851.030322
3 Jun 2022 17:24:41.000,65.559,-26.630,1628.266055
3 Jun 2022 17:25:41.000,81.382,-27.900,1495.957854
3 Jun 2022 17:26:41.000,99.139,-28.078,1479.920717
3 Jun 2022 17:27:41.000,115.729,-27.018,1583.948032
3 Jun 2022 17:28:41.000,129.025,-25.487,1786.985010
3 Jun 2022 17:28:52.386,131.142,-25.211,1834.206315
3 Jun 2022 18:58:06.690,346.195,-25.102,1854.262749
3 Jun 2022 18:59:06.000,341.145,-28.183,1470.694364
3 Jun 2022 19:00:06.000,331.720,-34.247,1116.836276
3 Jun 2022 19:01:06.000,310.966,-44.337,844.067537
3 Jun 2022 19:02:06.000,267.221,-50.641,748.781118
3 Jun 2022 19:03:06.000,228.131,-41.996,890.315044
3 Jun 2022 19:04:06.000,210.779,-32.651,1186.336520
3 Jun 2022 19:05:06.000,202.622,-27.341,1549.894013
3 Jun 2022 19:05:49.038,199.145,-25.237,1829.593611
4 Jun 2022 05:46:36.509,339.833,-25.236,1829.720552
4 Jun 2022 05:47:36.000,334.310,-28.437,1449.080970
4 Jun 2022 05:48:36.000,323.976,-34.597,1103.026239
4 Jun 2022 05:49:36.000,301.589,-44.270,845.300352
4 Jun 2022 05:50:36.000,258.435,-48.887,771.783862
4 Jun 2022 05:51:36.000,222.622,-40.348,927.659072
4 Jun 2022 05:52:36.000,206.173,-31.811,1228.039127
4 Jun 2022 05:53:36.000,198.137,-26.943,1592.293795
4 Jun 2022 05:54:16.374,194.818,-25.102,1854.255576
4 Jun 2022 07:23:25.763,47.342,-25.213,1833.854235
4 Jun 2022 07:24:25.000,59.587,-26.801,1608.266907
4 Jun 2022 07:25:25.000,75.644,-28.181,1470.851149
4 Jun 2022 07:26:25.000,93.800,-28.406,1451.617067
4 Jun 2022 07:27:25.000,110.761,-27.293,1554.840256
4 Jun 2022 07:28:25.000,124.261,-25.666,1758.546008
4 Jun 2022 07:28:46.775,128.238,-25.118,1851.210507
4 Jun 2022 17:20:25.065,53.645,-25.119,1850.984808
4 Jun 2022 17:21:25.000,66.002,-26.610,1630.565401
4 Jun 2022 17:22:25.000,81.820,-27.843,1501.171491
4 Jun 2022 17:23:25.000,99.486,-27.988,1487.892635
4 Jun 2022 17:24:25.000,115.938,-26.928,1593.879609
4 Jun 2022 17:25:25.000,129.117,-25.420,1797.947467
4 Jun 2022 17:25:33.792,130.749,-25.211,1834.293189
4 Jun 2022 18:54:49.403,346.452,-25.102,1854.267175
4 Jun 2022 18:55:49.000,341.446,-28.210,1468.277170
4 Jun 2022 18:56:49.000,332.111,-34.327,1113.614404
4 Jun 2022 18:57:49.000,311.407,-44.576,839.741198
4 Jun 2022 18:58:49.000,267.156,-51.043,743.825405
4 Jun 2022 18:59:49.000,227.699,-42.196,886.081786
4 Jun 2022 19:00:49.000,210.417,-32.720,1183.107636
4 Jun 2022 19:01:49.000,202.341,-27.366,1547.380269
4 Jun 2022 19:02:32.358,198.885,-25.237,1829.557090
5 Jun 2022 05:43:19.860,339.572,-25.236,1829.755590
5 Jun 2022 05:44:19.000,334.016,-28.402,1451.976727
5 Jun 2022 05:45:19.000,323.605,-34.501,1106.751070
5 Jun 2022 05:46:19.000,301.224,-44.013,850.056908
5 Jun 2022 05:47:19.000,258.581,-48.521,776.887084
5 Jun 2022 05:48:19.000,223.042,-40.175,931.827814
5 Jun 2022 05:49:19.000,206.525,-31.752,1231.134714
5 Jun 2022 05:50:19.000,198.412,-26.921,1594.643562
5 Jun 2022 05:50:59.071,195.076,-25.102,1854.253962
5 Jun 2022 07:20:07.262,46.963,-25.213,1833.771170
5 Jun 2022 07:21:07.000,59.280,-26.836,1604.265356
5 Jun 2022 07:22:07.000,75.371,-28.249,1464.977327
5 Jun 2022 07:23:07.000,93.626,-28.496,1444.188993
5 Jun 2022 07:24:07.000,110.705,-27.374,1546.575757
5 Jun 2022 07:25:07.000,124.289,-25.721,1750.112893
5 Jun 2022 07:25:30.665,128.612,-25.118,1851.256495
5 Jun 2022 17:17:09.050,54.036,-25.120,1850.930611
5 Jun 2022 17:18:09.000,66.443,-26.591,1632.946872
5 Jun 2022 17:19:09.000,82.255,-27.786,1506.461074
5 Jun 2022 17:20:09.000,99.829,-27.900,1495.917818
5 Jun 2022 17:21:09.000,116.144,-26.840,1603.839669
5 Jun 2022 17:22:09.000,129.207,-25.355,1808.923558
5 Jun 2022 17:22:15.184,130.353,-25.210,1834.401062
5 Jun 2022 18:51:32.120,346.709,-25.102,1854.271474
5 Jun 2022 18:52:32.000,341.747,-28.238,1465.885624
5 Jun 2022 18:53:32.000,332.505,-34.408,1110.426361
5 Jun 2022 18:54:32.000,311.855,-44.816,835.454985
5 Jun 2022 18:55:32.000,267.087,-51.452,738.912662
5 Jun 2022 18:56:32.000,227.258,-42.396,881.896400
5 Jun 2022 18:57:32.000,210.052,-32.788,1179.923910
5 Jun 2022 18:58:32.000,202.059,-27.390,1544.905806
5 Jun 2022 18:59:15.672,198.626,-25.237,1829.520692
6 Jun 2022 05:40:03.217,339.311,-25.236,1829.791036
6 Jun 2022 05:41:03.000,333.599,-28.440,1448.772654
6 Jun 2022 05:42:03.000,322.992,-34.537,1105.327891
6 Jun 2022 05:43:03.000,300.323,-43.917,851.849526
6 Jun 2022 05:44:03.000,257.967,-48.104,782.835801
6 Jun 2022 05:45:03.000,223.059,-39.839,940.112999
6 Jun 2022 05:46:03.000,206.690,-31.586,1239.924019
6 Jun 2022 05:47:03.000,198.586,-26.844,1603.362039
6 Jun 2022 05:47:41.762,195.335,-25.102,1854.244385
6 Jun 2022 07:16:48.779,46.587,-25.214,1833.688101
6 Jun 2022 07:17:48.000,58.734,-26.842,1603.526018
6 Jun 2022 07:18:48.000,74.800,-28.300,1460.572765
6 Jun 2022 07:19:48.000,93.143,-28.594,1436.104762
6 Jun 2022 07:20:48.000,110.387,-27.482,1535.699922
6 Jun 2022 07:21:48.000,124.122,-25.804,1737.625729
6 Jun 2022 07:22:14.540,128.983,-25.118,1851.301189
6 Jun 2022 17:13:53.054,54.431,-25.120,1850.874957
6 Jun 2022 17:14:53.000,66.883,-26.570,1635.410066
6 Jun 2022 17:15:53.000,82.686,-27.729,1511.825745
6 Jun 2022 17:16:53.000,100.167,-27.812,1503.995344
6 Jun 2022 17:17:53.000,116.347,-26.753,1613.827605
6 Jun 2022 17:18:53.000,129.296,-25.292,1819.912958
6 Jun 2022 17:18:56.551,129.953,-25.209,1834.494582
6 Jun 2022 18:48:14.840,346.965,-25.102,1854.275646
6 Jun 2022 18:49:14.000,342.156,-28.193,1469.816101
6 Jun 2022 18:50:14.000,333.116,-34.349,1112.746980
6 Jun 2022 18:51:14.000,312.830,-44.860,834.681927
6 Jun 2022 18:52:14.000,267.896,-51.901,733.628246
6 Jun 2022 18:53:14.000,227.246,-42.792,873.762031
6 Jun 2022 18:54:14.000,209.868,-32.979,1171.094150
6 Jun 2022 18:55:14.000,201.871,-27.479,1536.082812
6 Jun 2022 18:55:58.980,198.367,-25.237,1829.484426
7 Jun 2022 05:36:46.581,339.050,-25.236,1829.826889
7 Jun 2022 05:37:46.000,333.307,-28.404,1451.760198
7 Jun 2022 05:38:46.000,322.627,-34.440,1109.157491
7 Jun 2022 05:39:46.000,299.977,-43.660,856.705912
7 Jun 2022 05:40:46.000,258.117,-47.750,788.004620
7 Jun 2022 05:41:46.000,223.469,-39.671,944.331664
7 Jun 2022 05:42:46.000,207.036,-31.527,1243.062105
7 Jun 2022 05:43:46.000,198.859,-26.823,1605.745309
7 Jun 2022 05:44:24.450,195.594,-25.102,1854.231862
7 Jun 2022 07:13:30.314,46.214,-25.214,1833.605038
7 Jun 2022 07:14:30.000,58.423,-26.877,1599.647975
7 Jun 2022 07:15:30.000,74.520,-28.368,1454.797608
7 Jun 2022 07:16:30.000,92.962,-28.686,1428.729255
7 Jun 2022 07:17:30.000,110.327,-27.566,1527.446998
7 Jun 2022 07:18:30.000,124.149,-25.862,1729.183460
7 Jun 2022 07:18:58.401,129.351,-25.117,1851.344714
7 Jun 2022 17:10:37.072,54.828,-25.120,1850.830865
7 Jun 2022 17:11:37.000,67.322,-26.549,1637.954524
7 Jun 2022 17:12:37.000,83.114,-27.672,1517.264624
7 Jun 2022 17:13:37.000,100.502,-27.726,1512.124298
7 Jun 2022 17:14:37.000,116.547,-26.667,1623.842844
7 Jun 2022 17:15:37.000,129.385,-25.229,1830.915384
7 Jun 2022 17:15:37.898,129.550,-25.209,1834.589308
7 Jun 2022 18:44:57.564,347.221,-25.102,1854.279692
7 Jun 2022 18:45:57.000,342.459,-28.220,1467.486795
7 Jun 2022 18:46:57.000,333.513,-34.427,1109.643698
7 Jun 2022 18:47:57.000,313.295,-45.099,830.496693
7 Jun 2022 18:48:57.000,267.835,-52.322,728.802906
7 Jun 2022 18:49:57.000,226.790,-42.997,869.657102
7 Jun 2022 18:50:57.000,209.495,-33.047,1167.987886
7 Jun 2022 18:51:57.000,201.585,-27.503,1533.678365
7 Jun 2022 18:52:42.284,198.109,-25.238,1829.465764
8 Jun 2022 05:33:29.950,338.789,-25.235,1829.863152
8 Jun 2022 05:34:29.000,333.017,-28.368,1454.787555
8 Jun 2022 05:35:29.000,322.265,-34.342,1113.030600
8 Jun 2022 05:36:29.000,299.638,-43.406,861.603484
8 Jun 2022 05:37:29.000,258.264,-47.402,793.208834
8 Jun 2022 05:38:29.000,223.873,-39.504,948.584569
8 Jun 2022 05:39:29.000,207.380,-31.469,1246.228833
8 Jun 2022 05:40:29.000,199.130,-26.802,1608.150298
8 Jun 2022 05:41:07.134,195.853,-25.102,1854.221321
8 Jun 2022 07:10:11.865,45.843,-25.215,1833.521994
8 Jun 2022 07:11:11.000,57.874,-26.881,1599.120389
8 Jun 2022 07:12:11.000,73.940,-28.418,1450.588098
8 Jun 2022 07:13:11.000,92.467,-28.786,1420.776650
8 Jun 2022 07:14:11.000,110.001,-27.678,1516.628344
8 Jun 2022 07:15:11.000,123.976,-25.949,1716.704940
8 Jun 2022 07:15:42.249,129.716,-25.117,1851.387206
8 Jun 2022 17:07:21.111,55.230,-25.120,1850.775286
8 Jun 2022 17:08:21.000,67.760,-26.528,1640.579755
8 Jun 2022 17:09:21.000,83.539,-27.614,1522.776826
8 Jun 2022 17:10:21.000,100.833,-27.640,1520.303803
8 Jun 2022 17:11:21.000,116.745,-26.583,1633.884870
8 Jun 2022 17:12:19.223,129.144,-25.208,1834.685267
8 Jun 2022 18:41:40.291,347.477,-25.102,1854.283612
8 Jun 2022 18:42:40.000,342.762,-28.246,1465.183496
8 Jun 2022 18:43:40.000,333.914,-34.505,1106.575190
8 Jun 2022 18:44:40.000,313.769,-45.339,826.353770
8 Jun 2022 18:45:40.000,267.770,-52.749,724.023616
8 Jun 2022 18:46:40.000,226.326,-43.201,865.602626
8 Jun 2022 18:47:40.000,209.120,-33.115,1164.928417
8 Jun 2022 18:48:40.000,201.299,-27.527,1531.314237
8 Jun 2022 18:49:25.581,197.850,-25.238,1829.432046
9 Jun 2022 05:30:13.326,338.527,-25.235,1829.899826
9 Jun 2022 05:31:13.000,332.599,-28.404,1451.759526
9 Jun 2022 05:32:13.000,321.656,-34.372,1111.827625
9 Jun 2022 05:33:13.000,298.767,-43.302,863.631830
9 Jun 2022 05:34:13.000,257.683,-47.002,799.301011
9 Jun 2022 05:35:13.000,223.880,-39.182,956.932012
9 Jun 2022 05:36:13.000,207.536,-31.307,1255.059258
9 Jun 2022 05:37:13.000,199.299,-26.726,1616.900716
9 Jun 2022 05:37:49.816,196.112,-25.102,1854.216083
9 Jun 2022 07:06:53.433,45.475,-25.215,1833.438977
9 Jun 2022 07:07:53.000,57.558,-26.915,1595.367495
9 Jun 2022 07:08:53.000,73.652,-28.487,1444.914421
9 Jun 2022 07:09:53.000,92.278,-28.880,1413.456208
9 Jun 2022 07:10:53.000,109.936,-27.765,1508.388146
9 Jun 2022 07:11:53.000,124.002,-26.009,1708.253809
9 Jun 2022 07:12:26.082,130.080,-25.117,1851.428823
9 Jun 2022 17:04:05.170,55.635,-25.121,1850.718434
9 Jun 2022 17:05:05.000,68.196,-26.505,1643.285261
9 Jun 2022 17:06:05.000,83.961,-27.557,1528.361501
9 Jun 2022 17:07:05.000,101.159,-27.555,1528.533050
9 Jun 2022 17:08:05.000,116.940,-26.500,1643.953250
9 Jun 2022 17:09:00.526,128.734,-25.208,1834.782087
9 Jun 2022 18:38:23.021,347.733,-25.102,1854.287407
9 Jun 2022 18:39:23.000,343.066,-28.273,1462.906179
9 Jun 2022 18:40:23.000,334.317,-34.583,1103.541644
9 Jun 2022 18:41:23.000,314.250,-45.580,822.253791
9 Jun 2022 18:42:23.000,267.702,-53.182,719.291428
9 Jun 2022 18:43:23.000,225.854,-43.406,861.599550
9 Jun 2022 18:44:23.000,208.742,-33.182,1161.916373
9 Jun 2022 18:45:23.000,201.011,-27.551,1528.990878
9 Jun 2022 18:46:08.871,197.592,-25.238,1829.398603
10 Jun 2022 05:26:56.709,338.265,-25.235,1829.936912
10 Jun 2022 05:27:56.000,332.311,-28.367,1454.877136
10 Jun 2022 05:28:56.000,321.301,-34.272,1115.802671
10 Jun 2022 05:29:56.000,298.446,-43.049,868.624294
10 Jun 2022 05:30:56.000,257.834,-46.665,804.566543
10 Jun 2022 05:31:56.000,224.274,-39.019,961.232632
10 Jun 2022 05:32:56.000,207.874,-31.250,1258.267611
10 Jun 2022 05:33:56.000,199.568,-26.705,1619.339099
10 Jun 2022 05:34:32.494,196.372,-25.102,1854.210297
10 Jun 2022 07:03:35.017,45.109,-25.216,1833.356000
10 Jun 2022 07:04:35.000,57.241,-26.948,1591.662041
10 Jun 2022 07:05:35.000,73.361,-28.555,1439.276737
10 Jun 2022 07:06:35.000,92.086,-28.975,1406.153130
10 Jun 2022 07:07:35.000,109.871,-27.854,1500.150452
10 Jun 2022 07:08:35.000,124.028,-26.070,1699.798887
10 Jun 2022 07:09:09.903,130.440,-25.117,1851.469731
10 Jun 2022 17:00:49.247,56.043,-25.121,1850.664585
10 Jun 2022 17:01:49.000,68.630,-26.483,1646.070593
10 Jun 2022 17:02:49.000,84.379,-27.499,1534.017878
10 Jun 2022 17:03:49.000,101.482,-27.471,1536.811339
10 Jun 2022 17:04:49.000,117.133,-26.419,1654.047665
10 Jun 2022 17:05:41.807,128.320,-25.207,1834.877489
10 Jun 2022 18:35:05.755,347.989,-25.102,1854.291077
10 Jun 2022 18:36:05.000,343.472,-28.225,1466.999518
10 Jun 2022 18:37:05.000,334.927,-34.518,1106.100187
10 Jun 2022 18:38:05.000,315.255,-45.608,821.792016
10 Jun 2022 18:39:05.000,268.573,-53.654,714.258829
10 Jun 2022 18:40:05.000,225.815,-43.823,853.622915
10 Jun 2022 18:41:05.000,208.540,-33.379,1153.221496
10 Jun 2022 18:42:05.000,200.813,-27.640,1520.291193
10 Jun 2022 18:42:52.155,197.334,-25.238,1829.365432
11 Jun 2022 05:23:40.097,338.003,-25.235,1829.974409
11 Jun 2022 05:24:40.000,331.893,-28.402,1451.972875
11 Jun 2022 05:25:40.000,320.693,-34.298,1114.757866
11 Jun 2022 05:26:40.000,297.594,-42.938,870.826739
11 Jun 2022 05:27:40.000,257.277,-46.276,810.768309
11 Jun 2022 05:28:40.000,224.276,-38.707,969.625491
11 Jun 2022 05:29:40.000,208.024,-31.092,1267.125092
11 Jun 2022 05:30:40.000,199.734,-26.631,1628.109844
11 Jun 2022 05:31:15.168,196.632,-25.102,1854.204382
11 Jun 2022 07:00:16.618,44.745,-25.216,1833.273071
11 Jun 2022 07:01:16.000,56.687,-26.950,1591.426938
11 Jun 2022 07:02:16.000,72.768,-28.604,1435.334861
11 Jun 2022 07:03:16.000,91.574,-29.078,1398.377606
11 Jun 2022 07:04:16.000,109.531,-27.972,1489.404014
11 Jun 2022 07:05:16.000,123.850,-26.162,1687.326325
11 Jun 2022 07:05:53.711,130.799,-25.116,1851.510100
11 Jun 2022 16:57:33.344,56.455,-25.121,1850.609442
11 Jun 2022 16:58:33.000,69.064,-26.460,1648.935416
11 Jun 2022 16:59:33.000,84.794,-27.442,1539.745317
11 Jun 2022 17:00:33.000,101.802,-27.388,1545.138106
11 Jun 2022 17:01:33.000,117.323,-26.339,1664.167922
11 Jun 2022 17:02:23.063,127.902,-25.207,1834.974252
11 Jun 2022 18:31:48.492,348.244,-25.101,1854.294622
11 Jun 2022 18:32:48.000,343.777,-28.251,1464.783398
11 Jun 2022 18:33:48.000,335.334,-34.593,1103.151879
11 Jun 2022 18:34:48.000,315.754,-45.847,817.797565
11 Jun 2022 18:35:48.000,268.514,-54.101,709.622254
11 Jun 2022 18:36:48.000,225.326,-44.032,849.707685
11 Jun 2022 18:37:48.000,208.154,-33.446,1150.292324
11 Jun 2022 18:38:48.000,200.521,-27.664,1518.041864
11 Jun 2022 18:39:35.433,197.077,-25.238,1829.332542
12 Jun 2022 05:20:23.492,337.740,-25.234,1830.012321
12 Jun 2022 05:21:23.000,331.607,-28.364,1455.178947
12 Jun 2022 05:22:23.000,320.345,-34.197,1118.832174
12 Jun 2022 05:23:23.000,297.291,-42.687,875.910067
12 Jun 2022 05:24:23.000,257.430,-45.950,816.091986
12 Jun 2022 05:25:23.000,224.661,-38.548,973.972435
12 Jun 2022 05:26:23.000,208.358,-31.035,1270.374739
12 Jun 2022 05:27:23.000,200.000,-26.610,1630.581906
12 Jun 2022 05:27:57.838,196.893,-25.102,1854.197285
12 Jun 2022 06:56:58.233,44.384,-25.217,1833.190209
12 Jun 2022 06:57:58.000,56.365,-26.983,1587.848938
12 Jun 2022 06:58:58.000,72.469,-28.673,1429.803047
12 Jun 2022 06:59:58.000,91.374,-29.175,1391.133973
12 Jun 2022 07:00:58.000,109.461,-28.063,1481.181827
12 Jun 2022 07:01:58.000,123.875,-26.226,1678.864329
12 Jun 2022 07:02:37.506,131.155,-25.116,1851.550112
12 Jun 2022 16:54:17.461,56.872,-25.122,1850.553270
12 Jun 2022 16:55:17.000,69.495,-26.436,1651.879563
12 Jun 2022 16:56:17.000,85.205,-27.384,1545.543341
12 Jun 2022 16:57:17.000,102.117,-27.306,1553.512932
12 Jun 2022 16:58:17.000,117.511,-26.260,1674.313927
12 Jun 2022 16:59:04.296,127.481,-25.206,1835.072514
12 Jun 2022 18:28:31.233,348.499,-25.101,1854.298045
12 Jun 2022 18:29:31.000,344.083,-28.276,1462.592632
12 Jun 2022 18:30:31.000,335.743,-34.669,1100.238463
12 Jun 2022 18:31:31.000,316.261,-46.087,813.847363
12 Jun 2022 18:32:31.000,268.452,-54.553,705.035510
12 Jun 2022 18:33:31.000,224.828,-44.240,845.846503
12 Jun 2022 18:34:31.000,207.765,-33.512,1147.412496
12 Jun 2022 18:35:31.000,200.229,-27.687,1515.834764
12 Jun 2022 18:36:18.705,196.819,-25.238,1829.299927
13 Jun 2022 05:17:06.893,337.477,-25.234,1830.050646
13 Jun 2022 05:18:06.000,331.323,-28.325,1458.422451
13 Jun 2022 05:19:06.000,320.001,-34.095,1122.946625
13 Jun 2022 05:20:06.000,296.994,-42.437,881.030147
13 Jun 2022 05:21:06.000,257.580,-45.628,821.447517
13 Jun 2022 05:22:06.000,225.041,-38.390,978.351746
13 Jun 2022 05:23:06.000,208.690,-30.978,1273.652522
13 Jun 2022 05:24:06.000,200.265,-26.590,1633.075962
13 Jun 2022 05:24:40.505,197.154,-25.102,1854.193454
13 Jun 2022 06:53:39.860,44.024,-25.217,1833.129921
13 Jun 2022 06:54:39.000,55.808,-26.983,1587.829947
13 Jun 2022 06:55:39.000,71.868,-28.719,1426.067216
13 Jun 2022 06:56:39.000,90.849,-29.279,1383.502992
13 Jun 2022 06:57:39.000,109.112,-28.185,1470.501370
13 Jun 2022 06:58:39.000,123.692,-26.321,1666.405266
13 Jun 2022 06:59:21.288,131.509,-25.116,1851.589934
13 Jun 2022 16:51:01.601,57.292,-25.122,1850.496030
13 Jun 2022 16:52:01.000,69.926,-26.412,1654.903050
13 Jun 2022 16:53:01.000,85.614,-27.326,1551.411613
13 Jun 2022 16:54:01.000,102.429,-27.225,1561.935479
13 Jun 2022 16:55:01.000,117.697,-26.183,1684.485605
13 Jun 2022 16:55:45.505,127.055,-25.206,1835.172428
13 Jun 2022 18:25:13.977,348.754,-25.101,1854.301344
13 Jun 2022 18:26:13.000,344.485,-28.227,1466.808552
13 Jun 2022 18:27:13.000,336.350,-34.598,1102.981434
13 Jun 2022 18:28:13.000,317.285,-46.099,813.639538
13 Jun 2022 18:29:13.000,269.381,-55.040,700.221818
13 Jun 2022 18:30:13.000,224.768,-44.673,838.004508
13 Jun 2022 18:31:13.000,207.550,-33.713,1138.827139
13 Jun 2022 18:32:13.000,200.023,-27.778,1507.232974
13 Jun 2022 18:33:01.971,196.562,-25.239,1829.267601
14 Jun 2022 05:13:50.300,337.213,-25.234,1830.089384
14 Jun 2022 05:14:50.000,330.904,-28.358,1455.690069
14 Jun 2022 05:15:50.000,319.398,-34.116,1122.114029
14 Jun 2022 05:16:50.000,296.170,-42.321,883.451250
14 Jun 2022 05:17:50.000,257.050,-45.256,827.775835
14 Jun 2022 05:18:50.000,225.035,-38.091,986.799226
14 Jun 2022 05:19:50.000,208.831,-30.825,1282.547939
14 Jun 2022 05:20:50.000,200.425,-26.517,1641.877801
14 Jun 2022 05:21:23.168,197.415,-25.102,1854.189382
14 Jun 2022 06:50:21.506,43.667,-25.217,1833.048501
14 Jun 2022 06:51:21.000,55.483,-27.014,1584.382045
14 Jun 2022 06:52:21.000,71.562,-28.788,1420.645623
14 Jun 2022 06:53:21.000,90.641,-29.379,1376.323290
14 Jun 2022 06:54:21.000,109.037,-28.280,1462.297845
14 Jun 2022 06:55:21.000,123.715,-26.388,1657.938329
14 Jun 2022 06:56:05.059,131.861,-25.116,1851.629458
14 Jun 2022 16:47:45.762,57.717,-25.122,1850.437679
14 Jun 2022 16:48:45.000,70.354,-26.387,1658.005986
14 Jun 2022 16:49:45.000,86.019,-27.269,1557.349827
14 Jun 2022 16:50:45.000,102.738,-27.144,1570.405373
14 Jun 2022 16:51:45.000,117.880,-26.107,1694.682773
14 Jun 2022 16:52:26.688,126.624,-25.205,1835.274168
14 Jun 2022 18:21:56.724,349.008,-25.101,1854.304521
14 Jun 2022 18:22:56.000,344.791,-28.252,1464.677847
14 Jun 2022 18:23:56.000,336.763,-34.671,1100.152882
14 Jun 2022 18:24:56.000,317.811,-46.336,809.797188
14 Jun 2022 18:25:56.000,269.329,-55.507,695.735802
14 Jun 2022 18:26:56.000,224.252,-44.885,834.235552
14 Jun 2022 18:27:56.000,207.153,-33.779,1136.033127
14 Jun 2022 18:28:56.000,199.727,-27.801,1505.101916
14 Jun 2022 18:29:45.231,196.305,-25.239,1829.239921
15 Jun 2022 05:10:33.714,336.950,-25.234,1830.128535
15 Jun 2022 05:11:33.000,330.622,-28.318,1459.019844
15 Jun 2022 05:12:33.000,319.061,-34.013,1126.323818
15 Jun 2022 05:13:33.000,295.891,-42.074,888.655874
15 Jun 2022 05:14:33.000,257.203,-44.945,833.183644
15 Jun 2022 05:15:33.000,225.406,-37.937,991.220819
15 Jun 2022 05:16:33.000,209.158,-30.769,1285.864396
15 Jun 2022 05:17:33.000,200.688,-26.496,1644.403862
15 Jun 2022 05:18:05.828,197.676,-25.102,1854.185088
15 Jun 2022 06:47:03.167,43.312,-25.218,1832.968094
15 Jun 2022 06:48:03.000,55.156,-27.046,1580.984715
15 Jun 2022 06:49:03.000,71.252,-28.857,1415.264462
15 Jun 2022 06:50:03.000,90.429,-29.479,1369.165091
15 Jun 2022 06:51:03.000,108.961,-28.377,1454.099610
15 Jun 2022 06:52:03.000,123.738,-26.455,1649.469549
15 Jun 2022 06:52:48.817,132.211,-25.116,1851.668764
15 Jun 2022 16:44:29.947,58.146,-25.122,1850.378175
15 Jun 2022 16:45:29.000,70.781,-26.362,1661.188424
15 Jun 2022 16:46:29.000,86.420,-27.211,1563.357562
15 Jun 2022 16:47:29.000,103.042,-27.065,1578.922071
15 Jun 2022 16:48:29.000,118.061,-26.033,1704.905032
15 Jun 2022 16:49:07.845,126.190,-25.205,1835.377930
15 Jun 2022 18:18:39.474,349.262,-25.101,1854.307576
15 Jun 2022 18:19:39.000,345.099,-28.277,1462.573054
15 Jun 2022 18:20:39.000,337.178,-34.744,1097.360112
15 Jun 2022 18:21:39.000,318.345,-46.574,806.000902
15 Jun 2022 18:22:39.000,269.273,-55.979,691.302104
15 Jun 2022 18:23:39.000,223.726,-45.097,830.522281
15 Jun 2022 18:24:39.000,206.754,-33.845,1133.289014
15 Jun 2022 18:25:39.000,199.430,-27.823,1503.013068
15 Jun 2022 18:26:28.485,196.048,-25.239,1829.211311
16 Jun 2022 05:07:17.133,336.686,-25.234,1830.168097
16 Jun 2022 05:08:17.000,330.202,-28.349,1456.409792
16 Jun 2022 05:09:17.000,318.460,-34.029,1125.644698
16 Jun 2022 05:10:17.000,295.085,-41.953,891.238816
16 Jun 2022 05:11:17.000,256.694,-44.584,839.607877
16 Jun 2022 05:12:17.000,225.396,-37.647,999.705893
16 Jun 2022 05:13:17.000,209.294,-30.619,1294.781887
16 Jun 2022 05:14:17.000,200.844,-26.425,1653.222561
16 Jun 2022 05:14:48.483,197.938,-25.102,1854.180568
16 Jun 2022 06:43:44.842,42.960,-25.218,1832.888677
16 Jun 2022 06:44:44.000,54.595,-27.043,1581.268031
16 Jun 2022 06:45:44.000,70.638,-28.901,1411.815363
16 Jun 2022 06:46:44.000,89.886,-29.585,1361.732600
16 Jun 2022 06:47:44.000,108.598,-28.504,1443.506074
16 Jun 2022 06:48:44.000,123.549,-26.557,1637.024765
16 Jun 2022 06:49:32.563,132.559,-25.115,1851.707959
16 Jun 2022 16:41:14.155,58.580,-25.123,1850.317477
16 Jun 2022 16:42:14.000,71.447,-26.356,1662.015893
16 Jun 2022 16:43:14.000,87.094,-27.159,1568.784623
16 Jun 2022 16:44:14.000,103.611,-26.975,1588.756810
16 Jun 2022 16:45:14.000,118.464,-25.939,1718.097158
16 Jun 2022 16:45:48.975,125.750,-25.204,1835.483940
16 Jun 2022 18:15:22.227,349.517,-25.101,1854.310511
16 Jun 2022 18:16:22.000,345.407,-28.301,1460.494827
16 Jun 2022 18:17:22.000,337.596,-34.816,1094.603900
16 Jun 2022 18:18:22.000,318.889,-46.812,802.251717
16 Jun 2022 18:19:22.000,269.214,-56.459,686.921835
16 Jun 2022 18:20:22.000,223.191,-45.309,826.865232
16 Jun 2022 18:21:22.000,206.351,-33.909,1130.594791
16 Jun 2022 18:22:22.000,199.131,-27.845,1500.966166
16 Jun 2022 18:23:11.733,195.791,-25.239,1829.183110
17 Jun 2022 05:04:00.560,336.421,-25.233,1830.208074
17 Jun 2022 05:05:00.000,329.923,-28.309,1459.826295
17 Jun 2022 05:06:00.000,318.130,-33.925,1129.948857
17 Jun 2022 05:07:00.000,294.822,-41.708,896.524816
17 Jun 2022 05:08:00.000,256.848,-44.283,845.064234
17 Jun 2022 05:09:00.000,225.759,-37.497,1004.166359
17 Jun 2022 05:10:00.000,209.615,-30.564,1298.133952
17 Jun 2022 05:11:00.000,201.104,-26.405,1655.777898
17 Jun 2022 05:11:31.135,198.200,-25.102,1854.175817
17 Jun 2022 06:40:26.532,42.609,-25.219,1832.810230
17 Jun 2022 06:41:26.000,54.264,-27.073,1578.005920
17 Jun 2022 06:42:26.000,70.321,-28.970,1406.551159
17 Jun 2022 06:43:26.000,89.666,-29.688,1354.644276
17 Jun 2022 06:44:26.000,108.516,-28.604,1435.329571
17 Jun 2022 06:45:26.000,123.571,-26.627,1628.551958
17 Jun 2022 06:46:16.299,132.905,-25.115,1851.747193
17 Jun 2022 16:37:58.389,59.019,-25.123,1850.255541
17 Jun 2022 16:38:58.000,71.871,-26.329,1665.402646
17 Jun 2022 16:39:58.000,87.488,-27.101,1574.974780
17 Jun 2022 16:40:58.000,103.907,-26.897,1597.399520
17 Jun 2022 16:41:58.000,118.638,-25.867,1728.387933
17 Jun 2022 16:42:30.082,125.307,-25.203,1835.609753
17 Jun 2022 18:12:04.984,349.771,-25.101,1854.313325
17 Jun 2022 18:13:04.000,345.805,-28.250,1464.868559
17 Jun 2022 18:14:04.000,338.200,-34.738,1097.582055
17 Jun 2022 18:15:04.000,319.939,-46.805,802.367298
17 Jun 2022 18:16:04.000,270.227,-56.968,682.390482
17 Jun 2022 18:17:04.000,223.096,-45.762,819.203472
17 Jun 2022 18:18:04.000,206.116,-34.115,1122.158599
17 Jun 2022 18:19:04.000,198.915,-27.937,1492.496838
17 Jun 2022 18:19:54.976,195.534,-25.239,1829.155317
18 Jun 2022 05:00:43.992,336.157,-25.233,1830.248466
18 Jun 2022 05:01:43.000,329.646,-28.268,1463.280126
18 Jun 2022 05:02:43.000,317.803,-33.821,1134.291613
18 Jun 2022 05:03:43.000,294.564,-41.466,901.844204
18 Jun 2022 05:04:43.000,257.000,-43.986,850.548544
18 Jun 2022 05:05:43.000,226.117,-37.348,1008.655491
18 Jun 2022 05:06:43.000,209.935,-30.509,1301.511084
18 Jun 2022 05:07:43.000,201.363,-26.385,1658.352647
18 Jun 2022 05:08:13.783,198.463,-25.102,1854.170836
18 Jun 2022 06:37:08.236,42.261,-25.219,1832.732731
18 Jun 2022 06:38:08.000,53.931,-27.103,1574.796365
18 Jun 2022 06:39:08.000,70.001,-29.039,1401.329696
18 Jun 2022 06:40:08.000,89.442,-29.792,1347.579070
18 Jun 2022 06:41:08.000,108.433,-28.706,1427.158648
18 Jun 2022 06:42:08.000,123.592,-26.699,1620.076747
18 Jun 2022 06:43:00.023,133.248,-25.115,1851.786592
18 Jun 2022 16:34:42.648,59.463,-25.123,1850.192324
18 Jun 2022 16:35:42.000,72.292,-26.302,1668.867551
18 Jun 2022 16:36:42.000,87.878,-27.043,1581.231530
18 Jun 2022 16:37:42.000,104.199,-26.820,1606.085864
18 Jun 2022 16:38:42.000,118.810,-25.797,1738.701410
18 Jun 2022 16:39:11.154,124.857,-25.203,1835.708852
18 Jun 2022 18:08:47.745,350.025,-25.101,1854.316017
18 Jun 2022 18:09:47.000,346.114,-28.273,1462.853633
18 Jun 2022 18:10:47.000,338.621,-34.808,1094.914760
18 Jun 2022 18:11:47.000,320.501,-47.039,798.732798
18 Jun 2022 18:12:47.000,270.182,-57.461,678.119628
18 Jun 2022 18:13:47.000,222.540,-45.977,815.643694
18 Jun 2022 18:14:47.000,205.705,-34.179,1119.551648
18 Jun 2022 18:15:47.000,198.613,-27.959,1490.525453
18 Jun 2022 18:16:38.212,195.278,-25.239,1829.127934
19 Jun 2022 04:57:27.432,335.892,-25.233,1830.289277
19 Jun 2022 04:58:27.000,329.227,-28.297,1460.843713
19 Jun 2022 04:59:27.000,317.209,-33.832,1133.821045
19 Jun 2022 05:00:27.000,293.787,-41.341,904.631182
19 Jun 2022 05:01:27.000,256.515,-43.641,857.082221
19 Jun 2022 05:02:27.000,226.100,-37.071,1017.183171
19 Jun 2022 05:03:27.000,210.064,-30.364,1310.456732
19 Jun 2022 05:04:27.000,201.515,-26.315,1667.194060
19 Jun 2022 05:04:56.428,198.726,-25.102,1854.165621
19 Jun 2022 06:33:49.951,41.913,-25.220,1832.669566
19 Jun 2022 06:34:49.000,53.367,-27.098,1575.387878
19 Jun 2022 06:35:49.000,69.374,-29.081,1398.177609
19 Jun 2022 06:36:49.000,88.880,-29.900,1340.355690
19 Jun 2022 06:37:49.000,108.055,-28.839,1416.657343
19 Jun 2022 06:38:49.000,123.396,-26.806,1607.646710
19 Jun 2022 06:39:43.737,133.590,-25.115,1851.826300
19 Jun 2022 16:31:26.935,59.912,-25.124,1850.127781
19 Jun 2022 16:32:26.000,72.713,-26.275,1672.409849
19 Jun 2022 16:33:26.000,88.266,-26.986,1587.553824
19 Jun 2022 16:34:26.000,104.488,-26.744,1614.814906
19 Jun 2022 16:35:26.000,118.981,-25.728,1749.036997
19 Jun 2022 16:35:52.199,124.402,-25.202,1835.822209
19 Jun 2022 18:05:30.508,350.278,-25.101,1854.318589
19 Jun 2022 18:06:30.000,346.424,-28.297,1460.866323
19 Jun 2022 18:07:30.000,339.045,-34.877,1092.285591
19 Jun 2022 18:08:30.000,321.073,-47.273,795.148220
19 Jun 2022 18:09:30.000,270.134,-57.961,673.906026
19 Jun 2022 18:10:30.000,221.975,-46.191,812.142801
19 Jun 2022 18:11:30.000,205.292,-34.243,1116.995826
19 Jun 2022 18:12:30.000,198.310,-27.981,1488.596497
19 Jun 2022 18:13:21.443,195.022,-25.240,1829.100961
20 Jun 2022 04:54:10.878,335.626,-25.233,1830.330505
20 Jun 2022 04:55:10.000,328.952,-28.256,1464.384399
20 Jun 2022 04:56:10.000,316.890,-33.726,1138.256841
20 Jun 2022 04:57:10.000,293.545,-41.102,910.028703
20 Jun 2022 04:58:10.000,256.668,-43.354,862.612142
20 Jun 2022 04:59:10.000,226.451,-36.926,1021.708923
20 Jun 2022 05:00:10.000,210.379,-30.309,1313.867679
20 Jun 2022 05:01:10.000,201.771,-26.295,1669.796647
20 Jun 2022 05:01:39.066,198.989,-25.102,1854.144533
20 Jun 2022 06:30:31.683,41.568,-25.220,1832.595709
20 Jun 2022 06:31:31.000,53.030,-27.126,1572.315943
20 Jun 2022 06:32:31.000,69.046,-29.149,1393.077178
20 Jun 2022 06:33:31.000,88.647,-30.006,1333.363928
20 Jun 2022 06:34:31.000,107.966,-28.944,1408.509092
20 Jun 2022 06:35:31.000,123.416,-26.881,1599.166559
20 Jun 2022 06:36:27.440,133.930,-25.114,1851.866460
20 Jun 2022 16:28:11.248,60.367,-25.124,1850.061859
20 Jun 2022 16:29:11.000,73.372,-26.264,1673.805615
20 Jun 2022 16:30:11.000,88.920,-26.932,1593.503278
20 Jun 2022 16:31:11.000,105.033,-26.657,1625.025111
20 Jun 2022 16:32:11.000,119.365,-25.641,1762.442778
20 Jun 2022 16:32:33.211,123.942,-25.201,1835.928896
20 Jun 2022 18:02:13.276,350.532,-25.101,1854.321041
20 Jun 2022 18:03:13.000,346.735,-28.320,1458.906601
20 Jun 2022 18:04:13.000,339.472,-34.946,1089.694738
20 Jun 2022 18:05:13.000,321.654,-47.508,791.614262
20 Jun 2022 18:06:13.000,270.082,-58.468,669.750943
20 Jun 2022 18:07:13.000,221.399,-46.405,808.701847
20 Jun 2022 18:08:13.000,204.876,-34.305,1114.491791
20 Jun 2022 18:09:13.000,198.005,-28.002,1486.710436
20 Jun 2022 18:10:04.668,194.766,-25.240,1829.074399
21 Jun 2022 04:50:54.330,335.360,-25.232,1830.372156
21 Jun 2022 04:51:54.000,328.532,-28.283,1462.071658
21 Jun 2022 04:52:54.000,316.299,-33.734,1137.937973
21 Jun 2022 04:53:54.000,292.786,-40.973,912.968921
21 Jun 2022 04:54:54.000,256.201,-43.018,869.232322
21 Jun 2022 04:55:54.000,226.431,-36.657,1030.269007
21 Jun 2022 04:56:54.000,210.502,-30.168,1322.831679
21 Jun 2022 04:57:54.000,201.919,-26.227,1678.651883
21 Jun 2022 04:58:21.703,199.253,-25.102,1854.140471
21 Jun 2022 06:27:13.427,41.225,-25.220,1832.522704
21 Jun 2022 06:28:13.000,52.691,-27.155,1569.297207
21 Jun 2022 06:29:13.000,68.715,-29.217,1388.020878
21 Jun 2022 06:30:13.000,88.411,-30.113,1326.396536
21 Jun 2022 06:31:13.000,107.875,-29.052,1400.366825
21 Jun 2022 06:32:13.000,123.436,-26.957,1590.683944
21 Jun 2022 06:33:11.133,134.269,-25.114,1851.907223
21 Jun 2022 16:24:55.586,60.827,-25.124,1850.010061
21 Jun 2022 16:25:55.000,73.789,-26.236,1677.546567
21 Jun 2022 16:26:55.000,89.300,-26.874,1599.998171
21 Jun 2022 16:27:55.000,105.313,-26.583,1633.870461
21 Jun 2022 16:28:55.000,119.529,-25.575,1772.840522
21 Jun 2022 16:29:14.194,123.476,-25.201,1836.044580
21 Jun 2022 17:58:56.046,350.785,-25.101,1854.323372
21 Jun 2022 17:59:56.000,347.047,-28.342,1456.974338
21 Jun 2022 18:00:56.000,339.901,-35.014,1087.142278
21 Jun 2022 18:01:56.000,322.245,-47.742,788.131513
21 Jun 2022 18:02:56.000,270.026,-58.981,665.655576
21 Jun 2022 18:03:56.000,220.813,-46.617,805.321858
21 Jun 2022 18:04:56.000,204.458,-34.367,1112.040205
21 Jun 2022 18:05:56.000,197.700,-28.022,1484.867756
21 Jun 2022 18:06:47.887,194.510,-25.240,1829.048247
22 Jun 2022 04:47:37.789,335.094,-25.232,1830.414231
22 Jun 2022 04:48:37.000,328.261,-28.240,1465.697716
22 Jun 2022 04:49:37.000,315.987,-33.627,1142.464539
22 Jun 2022 04:50:37.000,292.558,-40.737,918.441500
22 Jun 2022 04:51:37.000,256.356,-42.741,874.805969
22 Jun 2022 04:52:37.000,226.774,-36.516,1034.830785
22 Jun 2022 04:53:37.000,210.813,-30.115,1326.276519
22 Jun 2022 04:54:37.000,202.173,-26.207,1681.282802
22 Jun 2022 04:55:04.336,199.517,-25.102,1854.136083
22 Jun 2022 06:23:55.185,40.884,-25.221,1832.450530
22 Jun 2022 06:24:55.000,52.351,-27.183,1566.331914
22 Jun 2022 06:25:55.000,68.380,-29.286,1383.009228
22 Jun 2022 06:26:55.000,88.170,-30.221,1319.454048
22 Jun 2022 06:27:55.000,107.783,-29.160,1392.230891
22 Jun 2022 06:28:55.000,123.455,-27.034,1582.199130
22 Jun 2022 06:29:54.816,134.605,-25.114,1851.947771
22 Jun 2022 16:21:39.959,61.293,-25.125,1849.940737
22 Jun 2022 16:22:39.000,74.203,-26.207,1681.363032
22 Jun 2022 16:23:39.000,89.676,-26.816,1606.555852
22 Jun 2022 16:24:39.000,105.590,-26.510,1642.756202
22 Jun 2022 16:25:39.000,119.691,-25.510,1783.259267
22 Jun 2022 16:25:55.144,123.004,-25.200,1836.162149
22 Jun 2022 17:55:38.820,351.038,-25.101,1854.325584
22 Jun 2022 17:56:38.000,347.440,-28.289,1461.542431
22 Jun 2022 17:57:38.000,340.500,-34.927,1090.409472
22 Jun 2022 17:58:38.000,323.328,-47.707,788.649684
22 Jun 2022 17:59:38.000,271.160,-59.518,661.488390
22 Jun 2022 18:00:38.000,220.667,-47.093,797.900702
22 Jun 2022 18:01:38.000,204.196,-34.577,1103.802097
22 Jun 2022 18:02:38.000,197.471,-28.115,1476.571271
22 Jun 2022 18:03:31.101,194.254,-25.240,1829.022505
23 Jun 2022 04:44:21.255,334.828,-25.232,1830.456728
23 Jun 2022 04:45:21.000,327.841,-28.266,1463.507466
23 Jun 2022 04:46:21.000,315.399,-33.631,1142.295108
23 Jun 2022 04:47:21.000,291.817,-40.605,921.530470
23 Jun 2022 04:48:21.000,255.905,-42.414,881.508843
23 Jun 2022 04:49:21.000,226.753,-36.255,1043.422012
23 Jun 2022 04:50:21.000,210.932,-29.977,1335.258646
23 Jun 2022 04:51:21.000,202.318,-26.141,1690.152118
23 Jun 2022 04:51:46.965,199.781,-25.102,1854.131363
23 Jun 2022 06:20:36.956,40.544,-25.221,1832.378305
23 Jun 2022 06:21:36.000,51.782,-27.173,1567.319349
23 Jun 2022 06:22:36.000,67.736,-29.324,1380.242321
23 Jun 2022 06:23:36.000,87.582,-30.331,1312.502889
23 Jun 2022 06:24:36.000,107.385,-29.302,1381.846903
23 Jun 2022 06:25:36.000,123.251,-27.150,1569.784448
23 Jun 2022 06:26:36.000,134.555,-25.182,1839.538165
23 Jun 2022 06:26:38.487,134.940,-25.114,1851.982519
23 Jun 2022 16:18:24.362,61.765,-25.125,1849.869811
23 Jun 2022 16:19:24.000,74.857,-26.193,1683.196142
23 Jun 2022 16:20:24.000,90.316,-26.761,1612.901237
23 Jun 2022 16:21:24.000,106.117,-26.425,1653.248507
23 Jun 2022 16:22:24.000,120.061,-25.427,1796.826416
23 Jun 2022 16:22:36.060,122.526,-25.200,1836.281688
23 Jun 2022 17:52:21.597,351.291,-25.101,1854.327677
23 Jun 2022 17:53:21.000,347.752,-28.311,1459.672363
23 Jun 2022 17:54:21.000,340.932,-34.993,1087.946456
23 Jun 2022 17:55:21.000,323.937,-47.936,785.287301
23 Jun 2022 17:56:21.000,271.122,-60.046,657.514538
23 Jun 2022 17:57:21.000,220.058,-47.308,794.628439
23 Jun 2022 17:58:21.000,203.770,-34.637,1101.444687
23 Jun 2022 17:59:21.000,197.162,-28.136,1474.808940
23 Jun 2022 18:00:14.308,193.999,-25.240,1828.997171
24 Jun 2022 04:41:04.727,334.561,-25.232,1830.499651
24 Jun 2022 04:42:04.000,327.572,-28.223,1467.217028
24 Jun 2022 04:43:04.000,315.094,-33.524,1146.909678
24 Jun 2022 04:44:04.000,291.603,-40.372,927.074492
24 Jun 2022 04:45:04.000,256.061,-42.146,887.123772
24 Jun 2022 04:46:04.000,227.089,-36.118,1048.018683
24 Jun 2022 04:47:04.000,211.238,-29.924,1338.737010
24 Jun 2022 04:48:04.000,202.570,-26.121,1692.811500
24 Jun 2022 04:48:29.590,200.046,-25.102,1854.126311
24 Jun 2022 06:17:18.740,40.206,-25.222,1832.307695
24 Jun 2022 06:18:18.000,51.439,-27.200,1564.493952
24 Jun 2022 06:19:18.000,67.394,-29.392,1375.357422
24 Jun 2022 06:20:18.000,87.332,-30.441,1305.640387
24 Jun 2022 06:21:18.000,107.286,-29.415,1373.737796
24 Jun 2022 06:22:18.000,123.268,-27.231,1561.297055
24 Jun 2022 06:23:18.000,134.631,-25.228,1831.192413
24 Jun 2022 06:23:22.147,135.273,-25.114,1852.008107
24 Jun 2022 16:15:08.802,62.245,-25.126,1849.786118
24 Jun 2022 16:16:08.000,75.268,-26.163,1687.208244
24 Jun 2022 16:17:08.000,90.684,-26.703,1619.625934
24 Jun 2022 16:18:08.000,106.386,-26.354,1662.245548
24 Jun 2022 16:19:08.000,120.218,-25.365,1807.304907
24 Jun 2022 16:19:16.944,122.043,-25.199,1836.418017
24 Jun 2022 17:49:04.377,351.544,-25.101,1854.329650
24 Jun 2022 17:50:04.000,348.064,-28.332,1457.829280
24 Jun 2022 17:51:04.000,341.366,-35.058,1085.521837
24 Jun 2022 17:52:04.000,324.556,-48.164,781.977540
24 Jun 2022 17:53:04.000,271.081,-60.580,653.603632
24 Jun 2022 17:54:04.000,219.439,-47.521,791.419936
24 Jun 2022 17:55:04.000,203.340,-34.697,1099.141484
24 Jun 2022 17:56:04.000,196.853,-28.155,1473.091227
24 Jun 2022 17:56:57.509,193.743,-25.240,1828.972247
25 Jun 2022 04:37:48.206,334.293,-25.231,1830.542998
25 Jun 2022 04:38:48.000,327.152,-28.247,1465.148081
25 Jun 2022 04:39:48.000,314.511,-33.524,1146.887236
25 Jun 2022 04:40:48.000,290.879,-40.238,930.307413
25 Jun 2022 04:41:48.000,255.625,-41.829,893.905107
25 Jun 2022 04:42:48.000,227.064,-35.865,1056.639165
25 Jun 2022 04:43:48.000,211.353,-29.789,1347.736373
25 Jun 2022 04:44:48.000,202.712,-26.056,1701.694503
25 Jun 2022 04:45:12.211,200.312,-25.102,1854.120931
25 Jun 2022 06:14:00.536,39.870,-25.222,1832.237919
25 Jun 2022 06:15:00.000,51.093,-27.227,1561.723262
25 Jun 2022 06:16:00.000,67.048,-29.460,1370.519501
25 Jun 2022 06:17:00.000,87.079,-30.553,1298.805269
25 Jun 2022 06:18:00.000,107.186,-29.529,1365.636696
25 Jun 2022 06:19:00.000,123.286,-27.313,1552.808591
25 Jun 2022 06:20:00.000,134.708,-25.275,1822.843413
25 Jun 2022 06:20:05.798,135.604,-25.114,1852.040051
25 Jun 2022 16:11:53.271,62.731,-25.126,1849.712948
25 Jun 2022 16:12:53.000,75.919,-26.147,1689.355008
25 Jun 2022 16:13:53.000,91.314,-26.647,1626.253909
25 Jun 2022 16:14:53.000,106.900,-26.271,1672.939747
25 Jun 2022 16:15:53.000,120.579,-25.286,1820.989367
25 Jun 2022 16:15:57.787,121.551,-25.198,1836.541389
25 Jun 2022 17:45:47.160,351.796,-25.101,1854.331506
25 Jun 2022 17:46:47.000,348.378,-28.354,1456.013211
25 Jun 2022 17:47:47.000,341.802,-35.122,1083.135800
25 Jun 2022 17:48:47.000,325.186,-48.392,778.721004
25 Jun 2022 17:49:47.000,271.037,-61.121,649.756773
25 Jun 2022 17:50:47.000,218.808,-47.732,788.275976
25 Jun 2022 17:51:47.000,202.908,-34.756,1096.892860
25 Jun 2022 17:52:47.000,196.542,-28.174,1471.418328
25 Jun 2022 17:53:40.705,193.488,-25.240,1828.947729
26 Jun 2022 04:34:31.691,334.025,-25.231,1830.586770
26 Jun 2022 04:35:31.000,326.886,-28.203,1468.939549
26 Jun 2022 04:36:31.000,314.213,-33.416,1151.587170
26 Jun 2022 04:37:31.000,290.679,-40.008,935.919210
26 Jun 2022 04:38:31.000,255.782,-41.570,899.558521
26 Jun 2022 04:39:31.000,227.393,-35.732,1061.268975
26 Jun 2022 04:40:31.000,211.655,-29.738,1351.247167
26 Jun 2022 04:41:31.000,202.961,-26.037,1704.381731
26 Jun 2022 04:41:54.826,200.578,-25.103,1854.100619
26 Jun 2022 06:10:42.342,39.535,-25.222,1832.182130
26 Jun 2022 06:11:42.000,50.746,-27.253,1559.007808
26 Jun 2022 06:12:42.000,66.699,-29.528,1365.729357
26 Jun 2022 06:13:42.000,86.821,-30.666,1291.998316
26 Jun 2022 06:14:42.000,107.083,-29.646,1357.544101
26 Jun 2022 06:15:42.000,123.303,-27.396,1544.319369
26 Jun 2022 06:16:42.000,134.786,-25.323,1814.491417
26 Jun 2022 06:16:49.440,135.934,-25.113,1852.071350
26 Jun 2022 16:08:37.777,63.224,-25.126,1849.638099
26 Jun 2022 16:09:37.000,76.325,-26.116,1693.561255
26 Jun 2022 16:10:37.000,91.675,-26.589,1633.142163
26 Jun 2022 16:11:37.000,107.161,-26.202,1682.044834
26 Jun 2022 16:12:37.000,120.730,-25.226,1831.525900
26 Jun 2022 16:12:38.591,121.053,-25.197,1836.666917
26 Jun 2022 17:42:29.947,352.049,-25.101,1854.333242
26 Jun 2022 17:43:29.000,348.766,-28.298,1460.733952
26 Jun 2022 17:44:29.000,342.396,-35.028,1086.635792
26 Jun 2022 17:45:29.000,326.287,-48.331,779.579015
26 Jun 2022 17:46:29.000,272.295,-61.677,645.918928
26 Jun 2022 17:47:29.000,218.615,-48.227,781.072560
26 Jun 2022 17:48:29.000,202.625,-34.969,1088.827422
26 Jun 2022 17:49:29.000,196.302,-28.269,1463.269438
26 Jun 2022 17:50:23.894,193.233,-25.241,1828.923269
27 Jun 2022 04:31:15.183,333.757,-25.231,1830.630968
27 Jun 2022 04:32:15.000,326.466,-28.225,1466.991097
27 Jun 2022 04:33:15.000,313.633,-33.413,1151.709498
27 Jun 2022 04:34:15.000,289.972,-39.872,939.291372
27 Jun 2022 04:35:15.000,255.362,-41.262,906.413966
27 Jun 2022 04:36:15.000,227.367,-35.487,1069.916368
27 Jun 2022 04:37:15.000,211.766,-29.606,1360.262248
27 Jun 2022 04:38:15.000,203.099,-25.973,1713.277340
27 Jun 2022 04:38:37.439,200.844,-25.103,1854.093243
27 Jun 2022 06:07:24.163,39.202,-25.223,1832.114765
27 Jun 2022 06:08:24.000,50.397,-27.278,1556.348153
27 Jun 2022 06:09:24.000,66.346,-29.596,1360.987807
27 Jun 2022 06:10:24.000,86.559,-30.780,1285.220306
27 Jun 2022 06:11:24.000,106.978,-29.764,1349.460480
27 Jun 2022 06:12:24.000,123.321,-27.481,1535.829654
27 Jun 2022 06:13:24.000,134.864,-25.372,1806.136619
27 Jun 2022 06:13:33.072,136.262,-25.113,1852.102013
27 Jun 2022 16:05:22.320,63.725,-25.127,1849.561502
27 Jun 2022 16:06:22.000,76.971,-26.098,1696.019956
27 Jun 2022 16:07:22.000,92.294,-26.532,1640.047408
27 Jun 2022 16:08:22.000,107.663,-26.120,1692.935168
27 Jun 2022 16:09:19.354,120.546,-25.197,1836.794691
27 Jun 2022 17:39:12.737,352.301,-25.101,1854.334862
27 Jun 2022 17:40:12.000,349.080,-28.319,1458.979320
27 Jun 2022 17:41:12.000,342.834,-35.090,1084.339265
27 Jun 2022 17:42:12.000,326.934,-48.552,776.446386
27 Jun 2022 17:43:12.000,272.274,-62.233,642.202255
27 Jun 2022 17:44:12.000,217.959,-48.439,778.043345
27 Jun 2022 17:45:12.000,202.185,-35.027,1086.677000
27 Jun 2022 17:46:12.000,195.988,-28.287,1461.679317
27 Jun 2022 17:47:07.078,192.978,-25.241,1828.898355
28 Jun 2022 04:27:58.681,333.488,-25.231,1830.675594
28 Jun 2022 04:28:58.000,326.203,-28.181,1470.863340
28 Jun 2022 04:29:58.000,313.343,-33.304,1156.492527
28 Jun 2022 04:30:58.000,289.785,-39.646,944.967532
28 Jun 2022 04:31:58.000,255.519,-41.011,912.103049
28 Jun 2022 04:32:58.000,227.689,-35.357,1074.577229
28 Jun 2022 04:33:58.000,212.063,-29.555,1363.803878
28 Jun 2022 04:34:58.000,203.347,-25.954,1715.991220
28 Jun 2022 04:35:20.048,201.110,-25.103,1854.088886
28 Jun 2022 06:04:05.996,38.870,-25.223,1832.048171
28 Jun 2022 06:05:05.000,49.824,-27.264,1557.825924
28 Jun 2022 06:06:05.000,65.682,-29.629,1358.708711
28 Jun 2022 06:07:05.000,85.938,-30.892,1278.622678
28 Jun 2022 06:08:05.000,106.555,-29.916,1339.232496
28 Jun 2022 06:09:05.000,123.105,-27.608,1523.439558
28 Jun 2022 06:10:05.000,134.782,-25.452,1792.776231
28 Jun 2022 06:10:16.695,136.588,-25.113,1852.132047
28 Jun 2022 16:02:06.902,64.234,-25.127,1849.483091
28 Jun 2022 16:03:06.000,77.373,-26.065,1700.418746
28 Jun 2022 16:04:06.000,92.647,-26.475,1647.095632
28 Jun 2022 16:05:06.000,107.916,-26.053,1702.144886
28 Jun 2022 16:06:00.075,120.032,-25.196,1836.924807
28 Jun 2022 17:35:55.529,352.553,-25.101,1854.336363
28 Jun 2022 17:36:55.000,349.395,-28.339,1457.252084
28 Jun 2022 17:37:55.000,343.275,-35.151,1082.082061
28 Jun 2022 17:38:55.000,327.592,-48.773,773.368883
28 Jun 2022 17:39:55.000,272.250,-62.795,638.552964
28 Jun 2022 17:40:55.000,217.291,-48.650,775.080983
28 Jun 2022 17:41:55.000,201.742,-35.083,1084.582137
28 Jun 2022 17:42:55.000,195.673,-28.305,1460.134376
28 Jun 2022 17:43:50.256,192.723,-25.241,1828.873944
29 Jun 2022 04:24:42.187,333.219,-25.231,1830.720647
29 Jun 2022 04:25:42.000,325.783,-28.202,1469.035036
29 Jun 2022 04:26:42.000,312.768,-33.298,1156.757754
29 Jun 2022 04:27:42.000,289.095,-39.508,948.474530
29 Jun 2022 04:28:42.000,255.112,-40.712,919.028431
29 Jun 2022 04:29:42.000,227.661,-35.119,1083.249058
29 Jun 2022 04:30:42.000,212.170,-29.427,1372.832849
29 Jun 2022 04:31:42.000,203.482,-25.892,1724.897947
29 Jun 2022 04:32:02.653,201.378,-25.103,1854.084062
29 Jun 2022 06:00:47.841,38.540,-25.223,1831.982335
29 Jun 2022 06:01:47.000,49.472,-27.288,1555.311486
29 Jun 2022 06:02:47.000,65.322,-29.696,1354.103475
29 Jun 2022 06:03:47.000,85.666,-31.008,1271.935127
29 Jun 2022 06:04:47.000,106.443,-30.039,1331.182366
29 Jun 2022 06:05:47.000,123.121,-27.696,1514.950730
29 Jun 2022 06:06:47.000,134.861,-25.503,1784.411547
29 Jun 2022 06:07:00.308,136.913,-25.113,1852.161457
29 Jun 2022 15:58:51.526,64.751,-25.128,1849.402797
29 Jun 2022 15:59:51.000,78.015,-26.045,1703.187248
29 Jun 2022 16:00:51.000,93.256,-26.417,1654.272487
29 Jun 2022 16:01:51.000,108.407,-25.973,1713.225365
29 Jun 2022 16:02:40.751,119.509,-25.195,1837.057371
29 Jun 2022 17:32:38.325,352.805,-25.101,1854.337747
29 Jun 2022 17:33:38.000,349.711,-28.359,1455.552532
29 Jun 2022 17:34:38.000,343.719,-35.211,1079.864612
29 Jun 2022 17:35:38.000,328.261,-48.992,770.347320
29 Jun 2022 17:36:38.000,272.223,-63.364,634.972279
29 Jun 2022 17:37:38.000,216.613,-48.858,772.186190
29 Jun 2022 17:38:38.000,201.297,-35.138,1082.543045
29 Jun 2022 17:39:38.000,195.357,-28.323,1458.634621
29 Jun 2022 17:40:33.427,192.468,-25.241,1828.850046
30 Jun 2022 04:21:25.699,332.950,-25.230,1830.766128
30 Jun 2022 04:22:25.000,325.523,-28.156,1472.987339
30 Jun 2022 04:23:25.000,312.484,-33.189,1161.622010
30 Jun 2022 04:24:25.000,288.920,-39.286,954.212046
30 Jun 2022 04:25:25.000,255.270,-40.469,924.750623
30 Jun 2022 04:26:25.000,227.977,-34.993,1087.938900
30 Jun 2022 04:27:25.000,212.463,-29.377,1376.403575
30 Jun 2022 04:28:25.000,203.727,-25.873,1727.637051
30 Jun 2022 04:28:45.253,201.645,-25.103,1854.078778
30 Jun 2022 05:57:29.697,38.212,-25.224,1831.917250
30 Jun 2022 05:58:29.000,49.118,-27.312,1552.854532
30 Jun 2022 05:59:29.000,64.959,-29.763,1349.549445
30 Jun 2022 06:00:29.000,85.390,-31.125,1265.279110
30 Jun 2022 06:01:29.000,106.330,-30.163,1323.142617
30 Jun 2022 06:02:29.000,123.136,-27.786,1506.461925
30 Jun 2022 06:03:29.000,134.940,-25.555,1776.044246
30 Jun 2022 06:03:43.912,137.237,-25.113,1852.190253
30 Jun 2022 15:55:36.193,65.277,-25.128,1849.320547
30 Jun 2022 15:56:36.000,78.655,-26.024,1706.146046
30 Jun 2022 15:57:36.000,93.860,-26.359,1661.618351
30 Jun 2022 15:58:36.000,108.890,-25.895,1724.426598
30 Jun 2022 15:59:21.381,118.977,-25.194,1837.192499
30 Jun 2022 17:29:21.125,353.057,-25.101,1854.339014
30 Jun 2022 17:30:21.000,350.027,-28.379,1453.880971
30 Jun 2022 17:31:21.000,344.164,-35.271,1077.687371
30 Jun 2022 17:32:21.000,328.940,-49.209,767.382541
30 Jun 2022 17:33:21.000,272.193,-63.940,631.461457
30 Jun 2022 17:34:21.000,215.922,-49.064,769.359694
30 Jun 2022 17:35:21.000,200.849,-35.192,1080.559936
30 Jun 2022 17:36:21.000,195.040,-28.340,1457.180059
30 Jun 2022 17:37:16.594,192.214,-25.241,1828.827157
1 Jul 2022 04:18:09.217,332.680,-25.230,1830.812039
1 Jul 2022 04:19:09.000,325.104,-28.176,1471.279110
1 Jul 2022 04:20:09.000,311.914,-33.180,1162.028561
1 Jul 2022 04:21:09.000,288.247,-39.147,957.849869
1 Jul 2022 04:22:09.000,254.876,-40.179,931.742183
1 Jul 2022 04:23:09.000,227.947,-34.763,1096.632897
1 Jul 2022 04:24:09.000,212.566,-29.253,1385.444666
1 Jul 2022 04:25:09.000,203.859,-25.812,1736.553381
1 Jul 2022 04:25:27.850,201.913,-25.103,1854.073030
1 Jul 2022 05:54:11.566,37.885,-25.224,1831.852906
1 Jul 2022 05:55:11.000,48.763,-27.336,1550.455558
1 Jul 2022 05:56:11.000,64.591,-29.829,1345.047348
1 Jul 2022 05:57:11.000,85.109,-31.243,1258.655289
1 Jul 2022 05:58:11.000,106.214,-30.290,1315.113540
1 Jul 2022 05:59:11.000,123.150,-27.878,1497.973185
1 Jul 2022 06:00:11.000,135.019,-25.607,1767.674286
1 Jul 2022 06:00:27.507,137.559,-25.113,1852.218439
1 Jul 2022 15:52:20.907,65.813,-25.129,1849.236275
1 Jul 2022 15:53:20.000,79.050,-25.990,1710.851992
1 Jul 2022 15:54:20.000,94.200,-26.302,1668.919001
1 Jul 2022 15:55:20.000,109.131,-25.830,1733.800296
1 Jul 2022 15:56:01.960,118.436,-25.194,1837.327609
1 Jul 2022 17:26:03.927,353.309,-25.101,1854.340164
1 Jul 2022 17:27:03.000,350.409,-28.321,1458.787167
1 Jul 2022 17:28:03.000,344.751,-35.168,1081.469606
1 Jul 2022 17:29:03.000,330.062,-49.115,768.657222
1 Jul 2022 17:30:03.000,273.642,-64.519,628.042719
1 Jul 2022 17:31:03.000,215.657,-49.578,762.442791
1 Jul 2022 17:32:03.000,200.538,-35.408,1072.720685
1 Jul 2022 17:33:03.000,194.787,-28.435,1449.221797
1 Jul 2022 17:33:59.755,191.959,-25.241,1828.813283
2 Jul 2022 04:14:52.743,332.410,-25.230,1830.858381
2 Jul 2022 04:15:52.000,324.847,-28.130,1475.310971
2 Jul 2022 04:16:52.000,311.638,-33.070,1166.972459
2 Jul 2022 04:17:52.000,288.083,-38.928,963.646154
2 Jul 2022 04:18:52.000,255.035,-39.945,937.495375
2 Jul 2022 04:19:52.000,228.257,-34.640,1101.349988
2 Jul 2022 04:20:52.000,212.856,-29.204,1389.042982
2 Jul 2022 04:21:52.000,204.102,-25.793,1739.316437
2 Jul 2022 04:22:10.443,202.181,-25.103,1854.066821
2 Jul 2022 05:50:53.446,37.559,-25.225,1831.789296
2 Jul 2022 05:51:53.000,48.406,-27.359,1548.115008
2 Jul 2022 05:52:53.000,64.221,-29.896,1340.597861
2 Jul 2022 05:53:53.000,84.824,-31.362,1252.064291
2 Jul 2022 05:54:53.000,106.095,-30.418,1307.095392
2 Jul 2022 05:55:53.000,123.165,-27.971,1489.484521
2 Jul 2022 05:56:53.000,135.099,-25.661,1759.301600
2 Jul 2022 05:57:11.097,137.880,-25.112,1852.260666
2 Jul 2022 15:49:05.670,66.359,-25.129,1849.148428
2 Jul 2022 15:50:05.000,79.684,-25.967,1714.115952
2 Jul 2022 15:51:05.000,94.793,-26.243,1676.526481
2 Jul 2022 15:52:05.000,109.603,-25.754,1745.181450
2 Jul 2022 15:52:42.485,117.883,-25.193,1837.459465
2 Jul 2022 17:22:46.733,353.560,-25.101,1854.341197
2 Jul 2022 17:23:46.000,350.726,-28.340,1457.178586
2 Jul 2022 17:24:46.000,345.198,-35.224,1079.384291
2 Jul 2022 17:25:46.000,330.758,-49.325,765.822574
2 Jul 2022 17:26:46.000,273.645,-65.109,624.674062
2 Jul 2022 17:27:46.000,214.939,-49.783,759.739436
2 Jul 2022 17:28:46.000,200.082,-35.461,1070.839400
2 Jul 2022 17:29:46.000,194.467,-28.451,1447.851272
2 Jul 2022 17:30:42.909,191.705,-25.241,1828.783552
3 Jul 2022 04:11:36.275,332.139,-25.229,1830.905156
3 Jul 2022 04:12:36.000,324.428,-28.148,1473.722801
3 Jul 2022 04:13:36.000,311.073,-33.058,1167.518883
3 Jul 2022 04:14:36.000,287.427,-38.788,967.411138
3 Jul 2022 04:15:36.000,254.653,-39.663,944.549887
3 Jul 2022 04:16:36.000,228.225,-34.417,1110.064358
3 Jul 2022 04:17:36.000,212.955,-29.082,1398.094820
3 Jul 2022 04:18:36.000,204.231,-25.733,1748.241194
3 Jul 2022 04:18:53.031,202.450,-25.103,1854.060155
3 Jul 2022 05:47:35.338,37.235,-25.225,1831.726403
3 Jul 2022 05:48:35.000,48.048,-27.381,1545.833264
3 Jul 2022 05:49:35.000,63.846,-29.962,1336.201612
3 Jul 2022 05:50:35.000,84.535,-31.482,1245.506712
3 Jul 2022 05:51:35.000,105.975,-30.548,1299.088414
3 Jul 2022 05:52:35.000,123.179,-28.065,1480.995935
3 Jul 2022 05:53:35.000,135.179,-25.716,1750.926124
3 Jul 2022 05:53:54.675,138.199,-25.112,1852.289391
3 Jul 2022 15:45:50.486,66.916,-25.130,1849.056406
3 Jul 2022 15:46:50.000,80.316,-25.943,1717.567292
3 Jul 2022 15:47:50.000,95.380,-26.185,1684.296823
3 Jul 2022 15:48:50.000,110.067,-25.678,1756.677034
3 Jul 2022 15:49:22.961,117.322,-25.192,1837.612163
3 Jul 2022 17:19:29.542,353.812,-25.101,1854.342113
3 Jul 2022 17:20:29.000,351.043,-28.359,1455.598621
3 Jul 2022 17:21:29.000,345.648,-35.281,1077.340188
3 Jul 2022 17:22:29.000,331.465,-49.532,763.046915
3 Jul 2022 17:23:29.000,273.646,-65.706,621.379062
3 Jul 2022 17:24:29.000,214.209,-49.985,757.106920
3 Jul 2022 17:25:29.000,199.623,-35.512,1069.015144
3 Jul 2022 17:26:29.000,194.146,-28.467,1446.526316
3 Jul 2022 17:27:26.060,191.451,-25.241,1828.774242
4 Jul 2022 04:08:19.815,331.867,-25.229,1830.952366
4 Jul 2022 04:09:19.000,324.175,-28.101,1477.833644
4 Jul 2022 04:10:19.000,310.804,-32.947,1172.540894
4 Jul 2022 04:11:19.000,287.275,-38.574,973.263914
4 Jul 2022 04:12:19.000,254.812,-39.436,950.332460
4 Jul 2022 04:13:19.000,228.529,-34.297,1114.807493
4 Jul 2022 04:14:19.000,213.240,-29.034,1401.719726
4 Jul 2022 04:15:19.000,204.471,-25.715,1751.027405
4 Jul 2022 04:15:35.616,202.719,-25.103,1854.060075
4 Jul 2022 05:44:17.241,36.913,-25.225,1831.664221
4 Jul 2022 05:45:17.000,47.688,-27.403,1543.610647
4 Jul 2022 05:46:17.000,63.469,-30.029,1331.859186
4 Jul 2022 05:47:17.000,84.241,-31.603,1238.983129
4 Jul 2022 05:48:17.000,105.852,-30.681,1291.092843
4 Jul 2022 05:49:17.000,123.193,-28.162,1472.507443
4 Jul 2022 05:50:17.000,135.260,-25.771,1742.547818
4 Jul 2022 05:50:38.245,138.517,-25.112,1852.317634
4 Jul 2022 15:42:35.357,67.485,-25.130,1848.961575
4 Jul 2022 15:43:35.000,80.945,-25.917,1721.204818
4 Jul 2022 15:44:35.000,95.960,-26.125,1692.227689
4 Jul 2022 15:45:35.000,110.526,-25.603,1768.284700
4 Jul 2022 15:46:03.372,116.747,-25.191,1837.748311
4 Jul 2022 17:16:12.354,354.063,-25.101,1854.342911
4 Jul 2022 17:17:12.000,351.361,-28.377,1454.047421
4 Jul 2022 17:18:12.000,346.100,-35.336,1075.337611
4 Jul 2022 17:19:12.000,332.182,-49.738,760.331002
4 Jul 2022 17:20:12.000,273.646,-66.309,618.159039
4 Jul 2022 17:21:12.000,213.467,-50.185,754.546105
4 Jul 2022 17:22:12.000,199.162,-35.562,1067.248296
4 Jul 2022 17:23:12.000,193.824,-28.483,1445.247115
4 Jul 2022 17:24:09.203,191.196,-25.242,1828.753960
5 Jul 2022 04:05:03.361,331.596,-25.229,1831.000013
5 Jul 2022 04:06:03.000,323.757,-28.118,1476.365267
5 Jul 2022 04:07:03.000,310.243,-32.932,1173.225610
5 Jul 2022 04:08:03.000,286.634,-38.433,977.152584
5 Jul 2022 04:09:03.000,254.443,-39.162,957.447198
5 Jul 2022 04:10:03.000,228.496,-34.081,1123.541011
5 Jul 2022 04:11:03.000,213.336,-28.915,1410.781522
5 Jul 2022 04:12:03.000,204.598,-25.657,1759.959985
5 Jul 2022 04:12:18.196,202.989,-25.103,1854.050653
5 Jul 2022 05:40:59.155,36.591,-25.226,1831.602739
5 Jul 2022 05:41:59.000,47.326,-27.425,1541.447420
5 Jul 2022 05:42:59.000,63.087,-30.094,1327.571130
5 Jul 2022 05:43:59.000,83.943,-31.726,1232.494117
5 Jul 2022 05:44:59.000,105.726,-30.815,1283.108939
5 Jul 2022 05:45:59.000,123.207,-28.260,1464.019096
5 Jul 2022 05:46:59.000,135.342,-25.828,1734.166692
5 Jul 2022 05:47:21.807,138.833,-25.112,1852.345394
5 Jul 2022 15:39:20.288,68.065,-25.131,1848.863667
5 Jul 2022 15:40:20.000,81.571,-25.891,1725.027276
5 Jul 2022 15:41:20.000,96.535,-26.066,1700.316746
5 Jul 2022 15:42:20.000,110.977,-25.530,1780.002163
5 Jul 2022 15:42:43.725,116.160,-25.191,1837.899057
5 Jul 2022 17:12:55.169,354.314,-25.101,1854.343595
5 Jul 2022 17:13:55.000,351.680,-28.395,1452.525051
5 Jul 2022 17:14:55.000,346.554,-35.390,1073.376791
5 Jul 2022 17:15:55.000,332.910,-49.942,757.675533
5 Jul 2022 17:16:55.000,273.643,-66.919,615.015301
5 Jul 2022 17:17:55.000,212.713,-50.380,752.057880
5 Jul 2022 17:18:55.000,198.699,-35.610,1065.539287
5 Jul 2022 17:19:55.000,193.501,-28.498,1444.013925
5 Jul 2022 17:20:52.342,190.942,-25.242,1828.744941
6 Jul 2022 04:01:46.914,331.323,-25.229,1831.048099
6 Jul 2022 04:02:46.000,323.507,-28.070,1480.554157
6 Jul 2022 04:03:46.000,309.982,-32.822,1178.323996
6 Jul 2022 04:04:46.000,286.493,-38.222,983.059664
6 Jul 2022 04:05:46.000,254.601,-38.943,963.257910
6 Jul 2022 04:06:46.000,228.795,-33.965,1128.309514
6 Jul 2022 04:07:46.000,213.618,-28.868,1414.432606
6 Jul 2022 04:08:46.000,204.836,-25.639,1762.769163
6 Jul 2022 04:09:00.771,203.260,-25.103,1854.041063
6 Jul 2022 05:37:41.080,36.271,-25.226,1831.541951
6 Jul 2022 05:38:41.000,46.963,-27.446,1539.343790
6 Jul 2022 05:39:41.000,62.703,-30.160,1323.337968
6 Jul 2022 05:40:41.000,83.640,-31.850,1226.040265
6 Jul 2022 05:41:41.000,105.598,-30.952,1275.137001
6 Jul 2022 05:42:41.000,123.221,-28.360,1455.531006
6 Jul 2022 05:43:41.000,135.424,-25.885,1725.782825
6 Jul 2022 05:44:05.360,139.148,-25.112,1852.369878
6 Jul 2022 15:36:05.281,68.659,-25.131,1848.762457
6 Jul 2022 15:37:05.000,82.194,-25.863,1729.033374
6 Jul 2022 15:38:05.000,97.103,-26.007,1708.561697
6 Jul 2022 15:39:05.000,111.422,-25.457,1791.827234
6 Jul 2022 15:39:24.012,115.561,-25.190,1838.053876
6 Jul 2022 17:09:37.988,354.565,-25.101,1854.344163
6 Jul 2022 17:10:37.000,352.056,-28.335,1457.615935
6 Jul 2022 17:11:37.000,347.131,-35.278,1077.440870
6 Jul 2022 17:12:37.000,334.044,-49.811,759.375878
6 Jul 2022 17:13:37.000,275.350,-67.515,612.048564
6 Jul 2022 17:14:37.000,212.365,-50.910,745.454318
6 Jul 2022 17:15:37.000,198.359,-35.827,1057.940383
6 Jul 2022 17:16:37.000,193.235,-28.593,1436.253597
6 Jul 2022 17:17:35.475,190.688,-25.242,1828.729049
7 Jul 2022 03:58:30.475,331.051,-25.228,1831.096627
7 Jul 2022 03:59:30.000,323.090,-28.086,1479.204801
7 Jul 2022 04:00:30.000,309.427,-32.804,1179.145038
7 Jul 2022 04:01:30.000,285.868,-38.081,987.068490
7 Jul 2022 04:02:30.000,254.243,-38.677,970.430452
7 Jul 2022 04:03:30.000,228.760,-33.755,1137.061420
7 Jul 2022 04:04:30.000,213.710,-28.752,1423.504126
7 Jul 2022 04:05:30.000,204.960,-25.582,1771.709563
7 Jul 2022 04:05:43.342,203.531,-25.103,1854.031304
7 Jul 2022 05:34:23.016,35.952,-25.226,1831.481846
7 Jul 2022 05:35:23.000,46.598,-27.466,1537.299932
7 Jul 2022 05:36:23.000,62.314,-30.226,1319.160220
7 Jul 2022 05:37:23.000,83.332,-31.974,1219.622200
7 Jul 2022 05:38:23.000,105.467,-31.091,1267.177399
7 Jul 2022 05:39:23.000,123.234,-28.461,1447.043366
7 Jul 2022 05:40:23.000,135.507,-25.944,1717.396393
7 Jul 2022 05:40:48.907,139.463,-25.112,1852.401625
7 Jul 2022 15:32:50.342,69.268,-25.132,1848.657687
7 Jul 2022 15:33:50.000,82.814,-25.834,1733.221828
7 Jul 2022 15:34:50.000,97.665,-25.947,1716.960311
7 Jul 2022 15:35:50.000,111.860,-25.386,1803.757841
