data/Partner_Institute/Skyhopper_Partner-Munich_Access_1year.csv

"Access","Start Time (UTCG)","Stop Time (UTCG)","Duration (sec)"
1,1 Jun 2022 05:56:26.494,1 Jun 2022 06:04:08.264,461.771
2,1 Jun 2022 07:33:21.372,1 Jun 2022 07:38:35.017,313.646
3,1 Jun 2022 17:30:13.209,1 Jun 2022 17:35:29.515,316.306
4,1 Jun 2022 19:04:41.275,1 Jun 2022 19:12:22.377,461.102
5,2 Jun 2022 05:53:09.826,2 Jun 2022 06:00:50.971,461.145
6,2 Jun 2022 07:30:02.815,2 Jun 2022 07:35:18.954,316.139
7,2 Jun 2022 17:26:57.145,2 Jun 2022 17:32:10.960,313.815
8,2 Jun 2022 19:01:23.981,2 Jun 2022 19:09:05.709,461.728
9,3 Jun 2022 05:49:53.164,3 Jun 2022 05:57:33.674,460.510
10,3 Jun 2022 07:26:44.282,3 Jun 2022 07:32:02.870,318.588
11,3 Jun 2022 17:23:41.098,3 Jun 2022 17:28:52.386,311.288
12,3 Jun 2022 18:58:06.690,3 Jun 2022 19:05:49.038,462.347
13,4 Jun 2022 05:46:36.509,4 Jun 2022 05:54:16.374,459.865
14,4 Jun 2022 07:23:25.763,4 Jun 2022 07:28:46.775,321.012
15,4 Jun 2022 17:20:25.065,4 Jun 2022 17:25:33.792,308.728
16,4 Jun 2022 18:54:49.403,4 Jun 2022 19:02:32.358,462.954
17,5 Jun 2022 05:43:19.860,5 Jun 2022 05:50:59.071,459.211
18,5 Jun 2022 07:20:07.262,5 Jun 2022 07:25:30.665,323.403
19,5 Jun 2022 17:17:09.050,5 Jun 2022 17:22:15.184,306.134
20,5 Jun 2022 18:51:32.120,5 Jun 2022 18:59:15.672,463.552
21,6 Jun 2022 05:40:03.217,6 Jun 2022 05:47:41.762,458.545
22,6 Jun 2022 07:16:48.779,6 Jun 2022 07:22:14.540,325.761
23,6 Jun 2022 17:13:53.054,6 Jun 2022 17:18:56.551,303.498
24,6 Jun 2022 18:48:14.840,6 Jun 2022 18:55:58.980,464.140
25,7 Jun 2022 05:36:46.581,7 Jun 2022 05:44:24.450,457.869
26,7 Jun 2022 07:13:30.314,7 Jun 2022 07:18:58.401,328.088
27,7 Jun 2022 17:10:37.072,7 Jun 2022 17:15:37.898,300.826
28,7 Jun 2022 18:44:57.564,7 Jun 2022 18:52:42.284,464.721
29,8 Jun 2022 05:33:29.950,8 Jun 2022 05:41:07.134,457.184
30,8 Jun 2022 07:10:11.865,8 Jun 2022 07:15:42.249,330.384
31,8 Jun 2022 17:07:21.111,8 Jun 2022 17:12:19.223,298.112
32,8 Jun 2022 18:41:40.291,8 Jun 2022 18:49:25.581,465.290
33,9 Jun 2022 05:30:13.326,9 Jun 2022 05:37:49.816,456.490
34,9 Jun 2022 07:06:53.433,9 Jun 2022 07:12:26.082,332.649
35,9 Jun 2022 17:04:05.170,9 Jun 2022 17:09:00.526,295.357
36,9 Jun 2022 18:38:23.021,9 Jun 2022 18:46:08.871,465.850
37,10 Jun 2022 05:26:56.709,10 Jun 2022 05:34:32.494,455.785
38,10 Jun 2022 07:03:35.017,10 Jun 2022 07:09:09.903,334.886
39,10 Jun 2022 17:00:49.247,10 Jun 2022 17:05:41.807,292.560
40,10 Jun 2022 18:35:05.755,10 Jun 2022 18:42:52.155,466.400
41,11 Jun 2022 05:23:40.097,11 Jun 2022 05:31:15.168,455.071
42,11 Jun 2022 07:00:16.618,11 Jun 2022 07:05:53.711,337.093
43,11 Jun 2022 16:57:33.344,11 Jun 2022 17:02:23.063,289.720
44,11 Jun 2022 18:31:48.492,11 Jun 2022 18:39:35.433,466.941
45,12 Jun 2022 05:20:23.492,12 Jun 2022 05:27:57.838,454.346
46,12 Jun 2022 06:56:58.233,12 Jun 2022 07:02:37.506,339.272
47,12 Jun 2022 16:54:17.461,12 Jun 2022 16:59:04.296,286.835
48,12 Jun 2022 18:28:31.233,12 Jun 2022 18:36:18.705,467.472
49,13 Jun 2022 05:17:06.893,13 Jun 2022 05:24:40.505,453.612
50,13 Jun 2022 06:53:39.860,13 Jun 2022 06:59:21.288,341.428
51,13 Jun 2022 16:51:01.601,13 Jun 2022 16:55:45.505,283.904
52,13 Jun 2022 18:25:13.977,13 Jun 2022 18:33:01.971,467.994
53,14 Jun 2022 05:13:50.300,14 Jun 2022 05:21:23.168,452.868
54,14 Jun 2022 06:50:21.506,14 Jun 2022 06:56:05.059,343.553
55,14 Jun 2022 16:47:45.762,14 Jun 2022 16:52:26.688,280.926
56,14 Jun 2022 18:21:56.724,14 Jun 2022 18:29:45.231,468.507
57,15 Jun 2022 05:10:33.714,15 Jun 2022 05:18:05.828,452.114
58,15 Jun 2022 06:47:03.167,15 Jun 2022 06:52:48.817,345.650
59,15 Jun 2022 16:44:29.947,15 Jun 2022 16:49:07.845,277.898
60,15 Jun 2022 18:18:39.474,15 Jun 2022 18:26:28.485,469.011
61,16 Jun 2022 05:07:17.133,16 Jun 2022 05:14:48.483,451.350
62,16 Jun 2022 06:43:44.842,16 Jun 2022 06:49:32.563,347.721
63,16 Jun 2022 16:41:14.155,16 Jun 2022 16:45:48.975,274.820
64,16 Jun 2022 18:15:22.227,16 Jun 2022 18:23:11.733,469.506
65,17 Jun 2022 05:04:00.560,17 Jun 2022 05:11:31.135,450.575
66,17 Jun 2022 06:40:26.532,17 Jun 2022 06:46:16.299,349.767
67,17 Jun 2022 16:37:58.389,17 Jun 2022 16:42:30.082,271.693
68,17 Jun 2022 18:12:04.984,17 Jun 2022 18:19:54.976,469.991
69,18 Jun 2022 05:00:43.992,18 Jun 2022 05:08:13.783,449.791
70,18 Jun 2022 06:37:08.236,18 Jun 2022 06:43:00.023,351.787
71,18 Jun 2022 16:34:42.648,18 Jun 2022 16:39:11.154,268.505
72,18 Jun 2022 18:08:47.745,18 Jun 2022 18:16:38.212,470.468
73,19 Jun 2022 04:57:27.432,19 Jun 2022 05:04:56.428,448.996
74,19 Jun 2022 06:33:49.951,19 Jun 2022 06:39:43.737,353.785
75,19 Jun 2022 16:31:26.935,19 Jun 2022 16:35:52.199,265.264
76,19 Jun 2022 18:05:30.508,19 Jun 2022 18:13:21.443,470.935
77,20 Jun 2022 04:54:10.878,20 Jun 2022 05:01:39.066,448.188
78,20 Jun 2022 06:30:31.683,20 Jun 2022 06:36:27.440,355.757
79,20 Jun 2022 16:28:11.248,20 Jun 2022 16:32:33.211,261.963
80,20 Jun 2022 18:02:13.276,20 Jun 2022 18:10:04.668,471.393
81,21 Jun 2022 04:50:54.330,21 Jun 2022 04:58:21.703,447.373
82,21 Jun 2022 06:27:13.427,21 Jun 2022 06:33:11.133,357.705
83,21 Jun 2022 16:24:55.586,21 Jun 2022 16:29:14.194,258.608
84,21 Jun 2022 17:58:56.046,21 Jun 2022 18:06:47.887,471.841
85,22 Jun 2022 04:47:37.789,22 Jun 2022 04:55:04.336,446.547
86,22 Jun 2022 06:23:55.185,22 Jun 2022 06:29:54.816,359.630
87,22 Jun 2022 16:21:39.959,22 Jun 2022 16:25:55.144,255.185
88,22 Jun 2022 17:55:38.820,22 Jun 2022 18:03:31.101,472.281
89,23 Jun 2022 04:44:21.255,23 Jun 2022 04:51:46.965,445.711
90,23 Jun 2022 06:20:36.956,23 Jun 2022 06:26:38.487,361.531
91,23 Jun 2022 16:18:24.362,23 Jun 2022 16:22:36.060,251.697
92,23 Jun 2022 17:52:21.597,23 Jun 2022 18:00:14.308,472.711
93,24 Jun 2022 04:41:04.727,24 Jun 2022 04:48:29.590,444.863
94,24 Jun 2022 06:17:18.740,24 Jun 2022 06:23:22.147,363.407
95,24 Jun 2022 16:15:08.802,24 Jun 2022 16:19:16.944,248.143
96,24 Jun 2022 17:49:04.377,24 Jun 2022 17:56:57.509,473.132
97,25 Jun 2022 04:37:48.206,25 Jun 2022 04:45:12.211,444.006
98,25 Jun 2022 06:14:00.536,25 Jun 2022 06:20:05.798,365.262
99,25 Jun 2022 16:11:53.271,25 Jun 2022 16:15:57.787,244.516
100,25 Jun 2022 17:45:47.160,25 Jun 2022 17:53:40.705,473.544
101,26 Jun 2022 04:34:31.691,26 Jun 2022 04:41:54.826,443.135
102,26 Jun 2022 06:10:42.342,26 Jun 2022 06:16:49.440,367.098
103,26 Jun 2022 16:08:37.777,26 Jun 2022 16:12:38.591,240.814
104,26 Jun 2022 17:42:29.947,26 Jun 2022 17:50:23.894,473.948
105,27 Jun 2022 04:31:15.183,27 Jun 2022 04:38:37.439,442.256
106,27 Jun 2022 06:07:24.163,27 Jun 2022 06:13:33.072,368.909
107,27 Jun 2022 16:05:22.320,27 Jun 2022 16:09:19.354,237.035
108,27 Jun 2022 17:39:12.737,27 Jun 2022 17:47:07.078,474.341
109,28 Jun 2022 04:27:58.681,28 Jun 2022 04:35:20.048,441.366
110,28 Jun 2022 06:04:05.996,28 Jun 2022 06:10:16.695,370.699
111,28 Jun 2022 16:02:06.902,28 Jun 2022 16:06:00.075,233.173
112,28 Jun 2022 17:35:55.529,28 Jun 2022 17:43:50.256,474.726
113,29 Jun 2022 04:24:42.187,29 Jun 2022 04:32:02.653,440.466
114,29 Jun 2022 06:00:47.841,29 Jun 2022 06:07:00.308,372.467
115,29 Jun 2022 15:58:51.526,29 Jun 2022 16:02:40.751,229.226
116,29 Jun 2022 17:32:38.325,29 Jun 2022 17:40:33.427,475.102
117,30 Jun 2022 04:21:25.699,30 Jun 2022 04:28:45.253,439.555
118,30 Jun 2022 05:57:29.697,30 Jun 2022 06:03:43.912,374.215
119,30 Jun 2022 15:55:36.193,30 Jun 2022 15:59:21.381,225.187
120,30 Jun 2022 17:29:21.125,30 Jun 2022 17:37:16.594,475.469
121,1 Jul 2022 04:18:09.217,1 Jul 2022 04:25:27.850,438.633
122,1 Jul 2022 05:54:11.566,1 Jul 2022 06:00:27.507,375.941
123,1 Jul 2022 15:52:20.907,1 Jul 2022 15:56:01.960,221.053
124,1 Jul 2022 17:26:03.927,1 Jul 2022 17:33:59.755,475.828
125,2 Jul 2022 04:14:52.743,2 Jul 2022 04:22:10.443,437.700
126,2 Jul 2022 05:50:53.446,2 Jul 2022 05:57:11.097,377.651
127,2 Jul 2022 15:49:05.670,2 Jul 2022 15:52:42.485,216.815
128,2 Jul 2022 17:22:46.733,2 Jul 2022 17:30:42.909,476.176
129,3 Jul 2022 04:11:36.275,3 Jul 2022 04:18:53.031,436.756
130,3 Jul 2022 05:47:35.338,3 Jul 2022 05:53:54.675,379.337
131,3 Jul 2022 15:45:50.486,3 Jul 2022 15:49:22.961,212.475
132,3 Jul 2022 17:19:29.542,3 Jul 2022 17:27:26.060,476.518
133,4 Jul 2022 04:08:19.815,4 Jul 2022 04:15:35.616,435.802
134,4 Jul 2022 05:44:17.241,4 Jul 2022 05:50:38.245,381.004
135,4 Jul 2022 15:42:35.357,4 Jul 2022 15:46:03.372,208.015
136,4 Jul 2022 17:16:12.354,4 Jul 2022 17:24:09.203,476.849
137,5 Jul 2022 04:05:03.361,5 Jul 2022 04:12:18.196,434.835
138,5 Jul 2022 05:40:59.155,5 Jul 2022 05:47:21.807,382.652
139,5 Jul 2022 15:39:20.288,5 Jul 2022 15:42:43.725,203.437
140,5 Jul 2022 17:12:55.169,5 Jul 2022 17:20:52.342,477.173
141,6 Jul 2022 04:01:46.914,6 Jul 2022 04:09:00.771,433.857
142,6 Jul 2022 05:37:41.080,6 Jul 2022 05:44:05.360,384.280
143,6 Jul 2022 15:36:05.281,6 Jul 2022 15:39:24.012,198.731
144,6 Jul 2022 17:09:37.988,6 Jul 2022 17:17:35.475,477.487
145,7 Jul 2022 03:58:30.475,7 Jul 2022 04:05:43.342,432.867
146,7 Jul 2022 05:34:23.016,7 Jul 2022 05:40:48.907,385.891
147,7 Jul 2022 15:32:50.342,7 Jul 2022 15:36:04.228,193.886
148,7 Jul 2022 17:06:20.810,7 Jul 2022 17:14:18.597,477.787
149,8 Jul 2022 03:55:14.042,8 Jul 2022 04:02:25.909,431.866
150,8 Jul 2022 05:31:04.963,8 Jul 2022 05:37:32.446,387.483
151,8 Jul 2022 15:29:35.476,8 Jul 2022 15:32:44.369,188.892
152,8 Jul 2022 17:03:03.635,8 Jul 2022 17:11:01.718,478.084
153,9 Jul 2022 03:51:57.616,9 Jul 2022 03:59:08.469,430.852
154,9 Jul 2022 05:27:46.920,9 Jul 2022 05:34:15.978,389.058
155,9 Jul 2022 15:26:20.690,9 Jul 2022 15:29:24.427,183.738
156,9 Jul 2022 16:59:46.462,9 Jul 2022 17:07:44.835,478.373
157,10 Jul 2022 03:48:41.198,10 Jul 2022 03:55:51.024,429.826
158,10 Jul 2022 05:24:28.888,10 Jul 2022 05:30:59.502,390.614
159,10 Jul 2022 15:23:05.990,10 Jul 2022 15:26:04.396,178.406
160,10 Jul 2022 16:56:29.293,10 Jul 2022 17:04:27.944,478.650
161,11 Jul 2022 03:45:24.786,11 Jul 2022 03:52:33.576,428.790
162,11 Jul 2022 05:21:10.866,11 Jul 2022 05:27:43.017,392.151
163,11 Jul 2022 15:19:51.384,11 Jul 2022 15:22:44.265,172.881
164,11 Jul 2022 16:53:12.127,11 Jul 2022 17:01:11.046,478.919
165,12 Jul 2022 03:42:08.382,12 Jul 2022 03:49:16.129,427.747
166,12 Jul 2022 05:17:52.854,12 Jul 2022 05:24:26.524,393.670
167,12 Jul 2022 15:16:36.883,12 Jul 2022 15:19:24.027,167.145
168,12 Jul 2022 16:49:54.964,12 Jul 2022 16:57:54.143,479.179
169,13 Jul 2022 03:38:51.984,13 Jul 2022 03:45:58.672,426.688
170,13 Jul 2022 05:14:34.852,13 Jul 2022 05:21:10.024,395.172
171,13 Jul 2022 15:13:22.497,13 Jul 2022 15:16:03.671,161.173
172,13 Jul 2022 16:46:37.804,13 Jul 2022 16:54:37.234,479.430
173,14 Jul 2022 03:35:35.594,14 Jul 2022 03:42:41.210,425.616
174,14 Jul 2022 05:11:16.861,14 Jul 2022 05:17:53.516,396.655
175,14 Jul 2022 15:10:08.242,14 Jul 2022 15:12:43.182,154.940
176,14 Jul 2022 16:43:20.648,14 Jul 2022 16:51:20.319,479.672
177,15 Jul 2022 03:32:19.211,15 Jul 2022 03:39:23.742,424.532
178,15 Jul 2022 05:07:58.879,15 Jul 2022 05:14:37.000,398.120
179,15 Jul 2022 15:06:54.132,15 Jul 2022 15:09:22.544,148.412
180,15 Jul 2022 16:40:03.494,15 Jul 2022 16:48:03.399,479.905
181,16 Jul 2022 03:29:02.835,16 Jul 2022 03:36:06.274,423.438
182,16 Jul 2022 05:04:40.908,16 Jul 2022 05:11:20.477,399.569
183,16 Jul 2022 15:03:40.188,16 Jul 2022 15:06:01.738,141.550
184,16 Jul 2022 16:36:46.344,16 Jul 2022 16:44:46.473,480.129
185,17 Jul 2022 03:25:46.467,17 Jul 2022 03:32:48.798,422.331
186,17 Jul 2022 05:01:22.947,17 Jul 2022 05:08:03.948,401.002
187,17 Jul 2022 15:00:26.436,17 Jul 2022 15:02:40.737,134.301
188,17 Jul 2022 16:33:29.197,17 Jul 2022 16:41:29.542,480.345
189,18 Jul 2022 03:22:30.107,18 Jul 2022 03:29:31.321,421.214
190,18 Jul 2022 04:58:04.995,18 Jul 2022 05:04:47.412,402.417
191,18 Jul 2022 14:57:12.906,18 Jul 2022 14:59:19.507,126.601
192,18 Jul 2022 16:30:12.053,18 Jul 2022 16:38:12.604,480.551
193,19 Jul 2022 03:19:13.754,19 Jul 2022 03:26:13.836,420.082
194,19 Jul 2022 04:54:47.053,19 Jul 2022 05:01:30.870,403.817
195,19 Jul 2022 14:53:59.647,19 Jul 2022 14:55:58.009,118.362
196,19 Jul 2022 16:26:54.912,19 Jul 2022 16:34:55.661,480.749
197,20 Jul 2022 03:15:57.408,20 Jul 2022 03:22:56.347,418.939
198,20 Jul 2022 04:51:29.120,20 Jul 2022 04:58:14.320,405.200
199,20 Jul 2022 14:50:46.714,20 Jul 2022 14:52:36.177,109.463
200,20 Jul 2022 16:23:37.774,20 Jul 2022 16:31:38.709,480.935
201,21 Jul 2022 03:12:41.070,21 Jul 2022 03:19:38.854,417.784
202,21 Jul 2022 04:48:11.197,21 Jul 2022 04:54:57.764,406.568
203,21 Jul 2022 14:47:34.202,21 Jul 2022 14:49:13.924,99.722
204,21 Jul 2022 16:20:20.640,21 Jul 2022 16:28:21.755,481.115
205,22 Jul 2022 03:09:24.740,22 Jul 2022 03:16:21.355,416.615
206,22 Jul 2022 04:44:53.283,22 Jul 2022 04:51:41.205,407.922
207,22 Jul 2022 14:44:22.245,22 Jul 2022 14:45:51.112,88.867
208,22 Jul 2022 16:17:03.508,22 Jul 2022 16:25:04.794,481.286
209,23 Jul 2022 03:06:08.417,23 Jul 2022 03:13:03.852,415.435
210,23 Jul 2022 04:41:35.378,23 Jul 2022 04:48:24.636,409.258
211,23 Jul 2022 14:41:11.080,23 Jul 2022 14:42:27.500,76.421
212,23 Jul 2022 16:13:46.380,23 Jul 2022 16:21:47.828,481.448
213,24 Jul 2022 03:02:52.102,24 Jul 2022 03:09:46.341,414.239
214,24 Jul 2022 04:38:17.482,24 Jul 2022 04:45:08.061,410.578
215,24 Jul 2022 14:38:01.185,24 Jul 2022 14:39:02.622,61.437
216,24 Jul 2022 16:10:29.254,24 Jul 2022 16:18:30.856,481.601
217,25 Jul 2022 02:59:35.794,25 Jul 2022 03:06:28.827,413.033
218,25 Jul 2022 04:34:59.596,25 Jul 2022 04:41:51.479,411.883
219,25 Jul 2022 14:34:53.907,25 Jul 2022 14:35:35.115,41.208
220,25 Jul 2022 16:07:12.132,25 Jul 2022 16:15:13.880,481.749
221,26 Jul 2022 02:56:19.494,26 Jul 2022 03:03:11.308,411.814
222,26 Jul 2022 04:31:41.718,26 Jul 2022 04:38:34.891,413.173
223,26 Jul 2022 16:03:55.012,26 Jul 2022 16:11:56.897,481.885
224,27 Jul 2022 02:53:03.202,27 Jul 2022 02:59:53.784,410.582
225,27 Jul 2022 04:28:23.849,27 Jul 2022 04:35:18.296,414.447
226,27 Jul 2022 16:00:37.896,27 Jul 2022 16:08:39.908,482.012
227,28 Jul 2022 02:49:46.918,28 Jul 2022 02:56:36.255,409.337
228,28 Jul 2022 04:25:05.990,28 Jul 2022 04:32:01.696,415.706
229,28 Jul 2022 15:57:20.783,28 Jul 2022 16:05:22.913,482.130
230,29 Jul 2022 02:46:30.642,29 Jul 2022 02:53:18.720,408.079
231,29 Jul 2022 04:21:48.139,29 Jul 2022 04:28:45.092,416.954
232,29 Jul 2022 15:54:03.673,29 Jul 2022 16:02:05.913,482.240
233,30 Jul 2022 02:43:14.374,30 Jul 2022 02:50:01.181,406.807
234,30 Jul 2022 04:18:30.297,30 Jul 2022 04:25:28.480,418.183
235,30 Jul 2022 15:50:46.566,30 Jul 2022 15:58:48.907,482.341
236,31 Jul 2022 02:39:58.114,31 Jul 2022 02:46:43.633,405.520
237,31 Jul 2022 04:15:12.463,31 Jul 2022 04:22:11.862,419.399
238,31 Jul 2022 15:47:29.462,31 Jul 2022 15:55:31.895,482.433
239,1 Aug 2022 02:36:41.862,1 Aug 2022 02:43:26.083,404.221
240,1 Aug 2022 04:11:54.639,1 Aug 2022 04:18:55.239,420.600
241,1 Aug 2022 15:44:12.362,1 Aug 2022 15:52:14.878,482.516
242,2 Aug 2022 02:33:25.618,2 Aug 2022 02:40:08.528,402.909
243,2 Aug 2022 04:08:36.823,2 Aug 2022 04:15:38.608,421.786
244,2 Aug 2022 15:40:55.264,2 Aug 2022 15:48:57.855,482.590
245,3 Aug 2022 02:30:09.383,3 Aug 2022 02:36:50.966,401.583
246,3 Aug 2022 04:05:19.015,3 Aug 2022 04:12:21.974,422.959
247,3 Aug 2022 15:37:38.170,3 Aug 2022 15:45:40.826,482.656
248,4 Aug 2022 02:26:53.156,4 Aug 2022 02:33:33.399,400.243
249,4 Aug 2022 04:02:01.216,4 Aug 2022 04:09:05.333,424.117
250,4 Aug 2022 15:34:21.079,4 Aug 2022 15:42:23.791,482.713
251,5 Aug 2022 02:23:36.938,5 Aug 2022 02:30:15.826,398.888
252,5 Aug 2022 03:58:43.425,5 Aug 2022 04:05:48.688,425.264
253,5 Aug 2022 15:31:03.991,5 Aug 2022 15:39:06.751,482.761
254,6 Aug 2022 02:20:20.728,6 Aug 2022 02:26:58.247,397.519
255,6 Aug 2022 03:55:25.642,6 Aug 2022 04:02:32.038,426.396
256,6 Aug 2022 15:27:46.905,6 Aug 2022 15:35:49.705,482.800
257,7 Aug 2022 02:17:04.526,7 Aug 2022 02:23:40.664,396.138
258,7 Aug 2022 03:52:07.867,7 Aug 2022 03:59:15.382,427.515
259,7 Aug 2022 15:24:29.823,7 Aug 2022 15:32:32.654,482.830
260,8 Aug 2022 02:13:48.333,8 Aug 2022 02:20:23.073,394.739
261,8 Aug 2022 03:48:50.101,8 Aug 2022 03:55:58.720,428.619
262,8 Aug 2022 15:21:12.744,8 Aug 2022 15:29:15.596,482.852
263,9 Aug 2022 02:10:32.149,9 Aug 2022 02:17:05.475,393.327
264,9 Aug 2022 03:45:32.342,9 Aug 2022 03:52:42.048,429.705
265,9 Aug 2022 15:17:55.668,9 Aug 2022 15:25:58.533,482.865
266,10 Aug 2022 02:07:15.973,10 Aug 2022 02:13:47.872,391.899
267,10 Aug 2022 03:42:14.592,10 Aug 2022 03:49:25.375,430.784
268,10 Aug 2022 15:14:38.595,10 Aug 2022 15:22:41.463,482.869
269,11 Aug 2022 02:03:59.805,11 Aug 2022 02:10:30.262,390.457
270,11 Aug 2022 03:38:56.849,11 Aug 2022 03:46:08.699,431.850
271,11 Aug 2022 15:11:21.525,11 Aug 2022 15:19:24.389,482.864
272,12 Aug 2022 02:00:43.647,12 Aug 2022 02:07:12.646,388.999
273,12 Aug 2022 03:35:39.115,12 Aug 2022 03:42:52.016,432.901
274,12 Aug 2022 15:08:04.458,12 Aug 2022 15:16:07.308,482.850
275,12 Aug 2022 16:46:41.883,12 Aug 2022 16:46:59.999,18.116
276,13 Aug 2022 01:57:27.498,13 Aug 2022 02:03:55.023,387.525
277,13 Aug 2022 03:32:21.388,13 Aug 2022 03:39:35.327,433.938
278,13 Aug 2022 15:04:47.395,13 Aug 2022 15:12:50.222,482.828
279,13 Aug 2022 16:43:10.852,13 Aug 2022 16:43:57.533,46.681
280,14 Aug 2022 01:54:11.358,14 Aug 2022 02:00:37.394,386.036
281,14 Aug 2022 03:29:03.670,14 Aug 2022 03:36:18.633,434.963
282,14 Aug 2022 15:01:30.334,14 Aug 2022 15:09:33.131,482.796
283,14 Aug 2022 16:39:45.726,14 Aug 2022 16:40:49.155,63.430
284,15 Aug 2022 01:50:55.227,15 Aug 2022 01:57:19.759,384.532
285,15 Aug 2022 03:25:45.960,15 Aug 2022 03:33:01.934,435.974
286,15 Aug 2022 14:58:13.277,15 Aug 2022 15:06:16.034,482.756
287,15 Aug 2022 16:36:22.410,15 Aug 2022 16:37:38.968,76.557
288,16 Aug 2022 01:47:39.105,16 Aug 2022 01:54:02.122,383.017
289,16 Aug 2022 03:22:28.257,16 Aug 2022 03:29:45.230,436.973
290,16 Aug 2022 14:54:56.224,16 Aug 2022 15:02:58.931,482.707
291,16 Aug 2022 16:33:00.086,16 Aug 2022 16:34:27.787,87.701
292,17 Aug 2022 01:44:22.993,17 Aug 2022 01:50:44.475,381.482
293,17 Aug 2022 03:19:10.562,17 Aug 2022 03:26:28.520,437.958
294,17 Aug 2022 14:51:39.173,17 Aug 2022 14:59:41.822,482.649
295,17 Aug 2022 16:29:38.407,17 Aug 2022 16:31:15.956,97.548
296,18 Aug 2022 01:41:06.890,18 Aug 2022 01:47:26.820,379.929
297,18 Aug 2022 03:15:52.874,18 Aug 2022 03:23:11.806,438.932
298,18 Aug 2022 14:48:22.125,18 Aug 2022 14:56:24.707,482.582
299,18 Aug 2022 16:26:17.197,18 Aug 2022 16:28:03.652,106.456
300,19 Aug 2022 01:37:50.797,19 Aug 2022 01:44:09.158,378.361
301,19 Aug 2022 03:12:35.194,19 Aug 2022 03:19:55.087,439.893
302,19 Aug 2022 14:45:05.080,19 Aug 2022 14:53:07.587,482.507
303,19 Aug 2022 16:22:56.344,19 Aug 2022 16:24:50.990,114.646
304,20 Aug 2022 01:34:34.713,20 Aug 2022 01:40:51.488,376.775
305,20 Aug 2022 03:09:17.522,20 Aug 2022 03:16:38.363,440.841
306,20 Aug 2022 14:41:48.039,20 Aug 2022 14:49:50.461,482.422
307,20 Aug 2022 16:19:35.776,20 Aug 2022 16:21:38.038,122.262
308,21 Aug 2022 01:31:18.639,21 Aug 2022 01:37:33.810,375.171
309,21 Aug 2022 03:05:59.857,21 Aug 2022 03:13:21.634,441.778
310,21 Aug 2022 14:38:31.000,21 Aug 2022 14:46:33.329,482.328
311,21 Aug 2022 16:16:15.445,21 Aug 2022 16:18:24.847,129.402
312,22 Aug 2022 01:28:02.575,22 Aug 2022 01:34:16.128,373.554
313,22 Aug 2022 03:02:42.199,22 Aug 2022 03:10:04.901,442.702
314,22 Aug 2022 14:35:13.965,22 Aug 2022 14:43:16.191,482.226
315,22 Aug 2022 16:12:55.309,22 Aug 2022 16:15:11.454,136.145
316,23 Aug 2022 01:24:46.520,23 Aug 2022 01:30:58.439,371.919
317,23 Aug 2022 02:59:24.549,23 Aug 2022 03:06:48.162,443.613
318,23 Aug 2022 14:31:56.933,23 Aug 2022 14:39:59.047,482.114
319,23 Aug 2022 16:09:35.346,23 Aug 2022 16:11:57.895,142.549
320,24 Aug 2022 01:21:30.475,24 Aug 2022 01:27:40.743,370.267
321,24 Aug 2022 02:56:06.906,24 Aug 2022 03:03:31.421,444.515
322,24 Aug 2022 14:28:39.904,24 Aug 2022 14:36:41.895,481.992
323,24 Aug 2022 16:06:15.527,24 Aug 2022 16:08:44.181,148.654
324,25 Aug 2022 01:18:14.441,25 Aug 2022 01:24:23.039,368.598
325,25 Aug 2022 02:52:49.271,25 Aug 2022 03:00:14.674,445.403
326,25 Aug 2022 14:25:22.878,25 Aug 2022 14:33:24.740,481.862
327,25 Aug 2022 16:02:55.839,25 Aug 2022 16:05:30.336,154.497
328,26 Aug 2022 01:14:58.417,26 Aug 2022 01:21:05.327,366.910
329,26 Aug 2022 02:49:31.643,26 Aug 2022 02:56:57.922,446.279
330,26 Aug 2022 14:22:05.855,26 Aug 2022 14:30:07.579,481.724
331,26 Aug 2022 15:59:36.266,26 Aug 2022 16:02:16.372,160.106
332,27 Aug 2022 01:11:42.403,27 Aug 2022 01:17:47.608,365.205
333,27 Aug 2022 02:46:14.022,27 Aug 2022 02:53:41.165,447.143
334,27 Aug 2022 14:18:48.836,27 Aug 2022 14:26:50.413,481.577
335,27 Aug 2022 15:56:16.798,27 Aug 2022 15:59:02.302,165.504
336,28 Aug 2022 01:08:26.400,28 Aug 2022 01:14:29.881,363.482
337,28 Aug 2022 02:42:56.409,28 Aug 2022 02:50:24.404,447.996
338,28 Aug 2022 14:15:31.820,28 Aug 2022 14:23:33.241,481.421
339,28 Aug 2022 15:52:57.423,28 Aug 2022 15:55:48.135,170.712
340,29 Aug 2022 01:05:10.407,29 Aug 2022 01:11:12.148,361.741
341,29 Aug 2022 02:39:38.803,29 Aug 2022 02:47:07.639,448.836
342,29 Aug 2022 14:12:14.807,29 Aug 2022 14:20:16.063,481.255
343,29 Aug 2022 15:49:38.134,29 Aug 2022 15:52:33.880,175.745
344,30 Aug 2022 01:01:54.425,30 Aug 2022 01:07:54.405,359.980
345,30 Aug 2022 02:36:21.204,30 Aug 2022 02:43:50.869,449.665
346,30 Aug 2022 14:08:57.798,30 Aug 2022 14:16:58.881,481.084
347,30 Aug 2022 15:46:18.924,30 Aug 2022 15:49:19.543,180.620
348,31 Aug 2022 00:58:38.457,31 Aug 2022 01:04:36.653,358.197
349,31 Aug 2022 02:33:03.612,31 Aug 2022 02:40:34.097,450.485
350,31 Aug 2022 14:05:40.791,31 Aug 2022 14:13:41.691,480.900
351,31 Aug 2022 15:42:59.786,31 Aug 2022 15:46:05.131,185.346
352,1 Sep 2022 00:55:22.497,1 Sep 2022 01:01:18.892,356.396
353,1 Sep 2022 02:29:46.027,1 Sep 2022 02:37:17.319,451.292
354,1 Sep 2022 14:02:23.788,1 Sep 2022 14:10:24.495,480.707
355,1 Sep 2022 15:39:40.714,1 Sep 2022 15:42:50.650,189.936
356,2 Sep 2022 00:52:06.548,2 Sep 2022 00:58:01.123,354.575
357,2 Sep 2022 02:26:28.450,2 Sep 2022 02:34:00.536,452.087
358,2 Sep 2022 13:59:06.788,2 Sep 2022 14:07:07.294,480.506
359,2 Sep 2022 15:36:21.704,2 Sep 2022 15:39:36.104,194.400
360,3 Sep 2022 00:48:50.610,3 Sep 2022 00:54:43.345,352.735
361,3 Sep 2022 02:23:10.879,3 Sep 2022 02:30:43.749,452.870
362,3 Sep 2022 13:55:49.791,3 Sep 2022 14:03:50.086,480.295
363,3 Sep 2022 15:33:02.751,3 Sep 2022 15:36:21.498,198.747
364,4 Sep 2022 00:45:34.684,4 Sep 2022 00:51:25.559,350.875
365,4 Sep 2022 02:19:53.315,4 Sep 2022 02:27:26.957,453.643
366,4 Sep 2022 13:52:32.797,4 Sep 2022 14:00:32.872,480.075
367,4 Sep 2022 15:29:43.852,4 Sep 2022 15:33:06.836,202.985
368,5 Sep 2022 00:42:18.769,5 Sep 2022 00:48:07.763,348.994
369,5 Sep 2022 02:16:35.758,5 Sep 2022 02:24:10.161,454.404
370,5 Sep 2022 13:49:15.807,5 Sep 2022 13:57:15.652,479.845
371,5 Sep 2022 15:26:25.002,5 Sep 2022 15:29:52.122,207.120
372,6 Sep 2022 00:39:02.866,6 Sep 2022 00:44:49.959,347.094
373,6 Sep 2022 02:13:18.208,6 Sep 2022 02:20:53.361,455.153
374,6 Sep 2022 13:45:58.819,6 Sep 2022 13:53:58.426,479.607
375,6 Sep 2022 15:23:06.200,6 Sep 2022 15:26:37.358,211.158
376,7 Sep 2022 00:35:46.977,7 Sep 2022 00:41:32.146,345.169
377,7 Sep 2022 02:10:00.664,7 Sep 2022 02:17:36.557,455.892
378,7 Sep 2022 13:42:41.835,7 Sep 2022 13:50:41.195,479.359
379,7 Sep 2022 15:19:47.442,7 Sep 2022 15:23:22.548,215.106
380,8 Sep 2022 00:32:31.097,8 Sep 2022 00:38:14.324,343.227
381,8 Sep 2022 02:06:43.128,8 Sep 2022 02:14:19.748,456.620
382,8 Sep 2022 13:39:24.855,8 Sep 2022 13:47:23.957,479.102
383,8 Sep 2022 15:16:28.726,8 Sep 2022 15:20:07.691,218.964
384,9 Sep 2022 00:29:15.230,9 Sep 2022 00:34:56.492,341.262
385,9 Sep 2022 02:03:25.599,9 Sep 2022 02:11:02.936,457.337
386,9 Sep 2022 13:36:07.877,9 Sep 2022 13:44:06.712,478.835
387,9 Sep 2022 15:13:10.051,9 Sep 2022 15:16:52.794,222.743
388,10 Sep 2022 00:25:59.375,10 Sep 2022 00:31:38.651,339.276
389,10 Sep 2022 02:00:08.076,10 Sep 2022 02:07:46.120,458.044
390,10 Sep 2022 13:32:50.903,10 Sep 2022 13:40:49.461,478.557
391,10 Sep 2022 15:09:51.413,10 Sep 2022 15:13:37.858,226.445
392,11 Sep 2022 00:22:43.533,11 Sep 2022 00:28:20.800,337.267
393,11 Sep 2022 01:56:50.561,11 Sep 2022 02:04:29.300,458.740
394,11 Sep 2022 13:29:33.933,11 Sep 2022 13:37:32.205,478.272
395,11 Sep 2022 15:06:32.810,11 Sep 2022 15:10:22.880,230.069
396,12 Sep 2022 00:19:27.703,12 Sep 2022 00:25:02.938,335.235
397,12 Sep 2022 01:53:33.052,12 Sep 2022 02:01:12.475,459.423
398,12 Sep 2022 13:26:16.966,12 Sep 2022 13:34:14.948,477.982
399,12 Sep 2022 15:03:14.242,12 Sep 2022 15:07:07.865,233.623
400,13 Sep 2022 00:16:11.892,13 Sep 2022 00:21:45.067,333.175
401,13 Sep 2022 01:50:15.550,13 Sep 2022 01:57:55.648,460.098
402,13 Sep 2022 13:23:00.002,13 Sep 2022 13:30:57.680,477.678
403,13 Sep 2022 14:59:55.707,13 Sep 2022 15:03:52.815,237.108
404,14 Sep 2022 00:12:56.090,14 Sep 2022 00:18:27.185,331.095
405,14 Sep 2022 01:46:58.054,14 Sep 2022 01:54:38.816,460.761
406,14 Sep 2022 13:19:43.042,14 Sep 2022 13:27:40.405,477.363
407,14 Sep 2022 14:56:37.203,14 Sep 2022 15:00:37.728,240.524
408,15 Sep 2022 00:09:40.301,15 Sep 2022 00:15:09.292,328.991
409,15 Sep 2022 01:43:40.565,15 Sep 2022 01:51:21.980,461.414
410,15 Sep 2022 13:16:26.084,15 Sep 2022 13:24:23.126,477.042
411,15 Sep 2022 14:53:18.729,15 Sep 2022 14:57:22.611,243.882
412,16 Sep 2022 00:06:24.526,16 Sep 2022 00:11:51.387,326.861
413,16 Sep 2022 01:40:23.083,16 Sep 2022 01:48:05.139,462.056
414,16 Sep 2022 13:13:09.131,16 Sep 2022 13:21:05.842,476.711
415,16 Sep 2022 14:50:00.287,16 Sep 2022 14:54:07.463,247.176
416,17 Sep 2022 00:03:08.765,17 Sep 2022 00:08:33.472,324.707
417,17 Sep 2022 01:37:05.608,17 Sep 2022 01:44:48.294,462.687
418,17 Sep 2022 13:09:52.180,17 Sep 2022 13:17:48.550,476.370
419,17 Sep 2022 14:46:41.869,17 Sep 2022 14:50:52.285,250.416
420,17 Sep 2022 23:59:53.018,18 Sep 2022 00:05:15.545,322.526
421,18 Sep 2022 01:33:48.138,18 Sep 2022 01:41:31.445,463.307
422,18 Sep 2022 13:06:35.233,18 Sep 2022 13:14:31.251,476.018
423,18 Sep 2022 14:43:23.476,18 Sep 2022 14:47:37.078,253.602
424,18 Sep 2022 23:56:37.286,19 Sep 2022 00:01:57.606,320.319
425,19 Sep 2022 01:30:30.676,19 Sep 2022 01:38:14.595,463.920
426,19 Sep 2022 13:03:18.289,19 Sep 2022 13:11:13.948,475.659
427,19 Sep 2022 14:40:05.109,19 Sep 2022 14:44:21.844,256.735
428,19 Sep 2022 23:53:21.569,19 Sep 2022 23:58:39.654,318.085
429,20 Sep 2022 01:27:13.220,20 Sep 2022 01:34:57.739,464.519
430,20 Sep 2022 13:00:01.348,20 Sep 2022 13:07:56.639,475.290
431,20 Sep 2022 14:36:46.766,20 Sep 2022 14:41:06.582,259.816
432,20 Sep 2022 23:50:05.867,20 Sep 2022 23:55:21.691,315.824
433,21 Sep 2022 01:23:55.770,21 Sep 2022 01:31:40.879,465.108
434,21 Sep 2022 12:56:44.411,21 Sep 2022 13:04:39.323,474.912
435,21 Sep 2022 14:33:28.446,21 Sep 2022 14:37:51.294,262.848
436,21 Sep 2022 23:46:50.180,21 Sep 2022 23:52:03.715,313.534
437,22 Sep 2022 01:20:38.327,22 Sep 2022 01:28:24.014,465.687
438,22 Sep 2022 12:53:27.478,22 Sep 2022 13:01:22.002,474.524
439,22 Sep 2022 14:30:10.149,22 Sep 2022 14:34:35.982,265.834
440,22 Sep 2022 23:43:34.505,22 Sep 2022 23:48:45.730,311.226
441,23 Sep 2022 01:17:20.890,23 Sep 2022 01:25:07.146,466.256
442,23 Sep 2022 12:50:10.548,23 Sep 2022 12:58:04.674,474.126
443,23 Sep 2022 14:26:51.873,23 Sep 2022 14:31:20.646,268.772
444,23 Sep 2022 23:40:18.850,23 Sep 2022 23:45:27.728,308.878
445,24 Sep 2022 01:14:03.460,24 Sep 2022 01:21:50.277,466.817
446,24 Sep 2022 12:46:53.622,24 Sep 2022 12:54:47.340,473.718
447,24 Sep 2022 14:23:33.619,24 Sep 2022 14:28:05.286,271.668
448,24 Sep 2022 23:37:03.212,24 Sep 2022 23:42:09.713,306.501
449,25 Sep 2022 01:10:46.037,25 Sep 2022 01:18:33.402,467.365
450,25 Sep 2022 12:43:36.699,25 Sep 2022 12:51:30.000,473.301
451,25 Sep 2022 14:20:15.385,25 Sep 2022 14:24:49.904,274.519
452,25 Sep 2022 23:33:47.589,25 Sep 2022 23:38:51.684,304.095
453,26 Sep 2022 01:07:28.620,26 Sep 2022 01:15:16.524,467.904
454,26 Sep 2022 12:40:19.780,26 Sep 2022 12:48:12.654,472.874
455,26 Sep 2022 14:16:57.170,26 Sep 2022 14:21:34.493,277.322
456,26 Sep 2022 23:30:31.984,26 Sep 2022 23:35:33.642,301.658
457,27 Sep 2022 01:04:11.209,27 Sep 2022 01:11:59.641,468.432
458,27 Sep 2022 12:37:02.864,27 Sep 2022 12:44:55.302,472.438
459,27 Sep 2022 14:13:38.975,27 Sep 2022 14:18:19.065,280.089
460,27 Sep 2022 23:27:16.397,27 Sep 2022 23:32:15.584,299.187
461,28 Sep 2022 01:00:53.805,28 Sep 2022 01:08:42.755,468.950
462,28 Sep 2022 12:33:45.952,28 Sep 2022 12:41:37.944,471.992
463,28 Sep 2022 14:10:20.799,28 Sep 2022 14:15:03.615,282.817
464,28 Sep 2022 23:24:00.824,28 Sep 2022 23:28:57.511,296.687
465,29 Sep 2022 00:57:36.407,29 Sep 2022 01:05:25.866,469.459
466,29 Sep 2022 12:30:29.043,29 Sep 2022 12:38:20.579,471.536
467,29 Sep 2022 14:07:02.640,29 Sep 2022 14:11:48.145,285.505
468,29 Sep 2022 23:20:45.272,29 Sep 2022 23:25:39.422,294.150
469,30 Sep 2022 00:54:19.015,30 Sep 2022 01:02:08.972,469.957
470,30 Sep 2022 12:27:12.138,30 Sep 2022 12:35:03.208,471.071
471,30 Sep 2022 14:03:44.499,30 Sep 2022 14:08:32.655,288.156
472,30 Sep 2022 23:17:29.739,30 Sep 2022 23:22:21.318,291.578
473,1 Oct 2022 00:51:01.630,1 Oct 2022 00:58:52.075,470.445
474,1 Oct 2022 12:23:55.236,1 Oct 2022 12:31:45.831,470.595
475,1 Oct 2022 14:00:26.374,1 Oct 2022 14:05:17.146,290.771
476,1 Oct 2022 23:14:14.224,1 Oct 2022 23:19:03.197,288.973
477,2 Oct 2022 00:47:44.250,2 Oct 2022 00:55:35.175,470.924
478,2 Oct 2022 12:20:38.337,2 Oct 2022 12:28:28.447,470.110
479,2 Oct 2022 13:57:08.265,2 Oct 2022 14:02:01.617,293.352
480,2 Oct 2022 23:10:58.728,2 Oct 2022 23:15:45.059,286.331
481,3 Oct 2022 00:44:26.877,3 Oct 2022 00:52:18.270,471.393
482,3 Oct 2022 12:17:21.443,3 Oct 2022 12:25:11.057,469.614
483,3 Oct 2022 13:53:50.172,3 Oct 2022 13:58:46.069,295.898
484,3 Oct 2022 23:07:43.251,3 Oct 2022 23:12:26.904,283.653
485,4 Oct 2022 00:41:09.510,4 Oct 2022 00:49:01.363,471.852
486,4 Oct 2022 12:14:04.552,4 Oct 2022 12:21:53.661,469.109
487,4 Oct 2022 13:50:32.094,4 Oct 2022 13:55:30.504,298.410
488,4 Oct 2022 23:04:27.796,4 Oct 2022 23:09:08.732,280.936
489,5 Oct 2022 00:37:52.150,5 Oct 2022 00:45:44.451,472.302
490,5 Oct 2022 12:10:47.664,5 Oct 2022 12:18:36.258,468.594
491,5 Oct 2022 13:47:14.033,5 Oct 2022 13:52:14.920,300.888
492,5 Oct 2022 23:01:12.361,5 Oct 2022 23:05:50.541,278.181
493,6 Oct 2022 00:34:34.795,6 Oct 2022 00:42:27.536,472.741
494,6 Oct 2022 12:07:30.781,6 Oct 2022 12:15:18.850,468.069
495,6 Oct 2022 13:43:55.984,6 Oct 2022 13:48:59.320,303.336
496,6 Oct 2022 22:57:56.947,6 Oct 2022 23:02:32.332,275.385
497,7 Oct 2022 00:31:17.447,7 Oct 2022 00:39:10.618,473.171
498,7 Oct 2022 12:04:13.901,7 Oct 2022 12:12:01.435,467.534
499,7 Oct 2022 13:40:37.952,7 Oct 2022 13:45:43.702,305.750
500,7 Oct 2022 22:54:41.556,7 Oct 2022 22:59:14.104,272.548
501,8 Oct 2022 00:28:00.105,8 Oct 2022 00:35:53.696,473.591
502,8 Oct 2022 12:00:57.025,8 Oct 2022 12:08:44.014,466.989
503,8 Oct 2022 13:37:19.931,8 Oct 2022 13:42:28.068,308.136
504,8 Oct 2022 22:51:26.189,8 Oct 2022 22:55:55.860,269.672
505,9 Oct 2022 00:24:42.770,9 Oct 2022 00:32:36.771,474.001
506,9 Oct 2022 11:57:40.153,9 Oct 2022 12:05:26.587,466.434
507,9 Oct 2022 13:34:01.925,9 Oct 2022 13:39:12.418,310.493
508,9 Oct 2022 22:48:10.844,9 Oct 2022 22:52:37.588,266.743
509,10 Oct 2022 00:21:25.440,10 Oct 2022 00:29:19.842,474.402
510,10 Oct 2022 11:54:23.285,10 Oct 2022 12:02:09.153,465.868
511,10 Oct 2022 13:30:43.936,10 Oct 2022 13:35:56.746,312.810
512,10 Oct 2022 22:44:55.520,10 Oct 2022 22:49:19.298,263.778
513,11 Oct 2022 00:18:08.117,11 Oct 2022 00:26:02.910,474.793
514,11 Oct 2022 11:51:06.420,11 Oct 2022 11:58:51.710,465.290
515,11 Oct 2022 13:27:25.957,11 Oct 2022 13:32:41.064,315.108
516,11 Oct 2022 22:41:40.225,11 Oct 2022 22:46:00.983,260.758
517,12 Oct 2022 00:14:50.800,12 Oct 2022 00:22:45.975,475.175
518,12 Oct 2022 11:47:49.559,12 Oct 2022 11:55:34.264,464.705
519,12 Oct 2022 13:24:07.990,12 Oct 2022 13:29:25.367,317.377
520,12 Oct 2022 22:38:24.957,12 Oct 2022 22:42:42.647,257.690
521,13 Oct 2022 00:11:33.489,13 Oct 2022 00:19:29.036,475.547
522,13 Oct 2022 11:44:32.702,13 Oct 2022 11:52:16.811,464.109
523,13 Oct 2022 13:20:50.036,13 Oct 2022 13:26:09.654,319.618
524,13 Oct 2022 22:35:09.714,13 Oct 2022 22:39:24.286,254.572
525,14 Oct 2022 00:08:16.183,14 Oct 2022 00:16:12.095,475.911
526,14 Oct 2022 11:41:15.848,14 Oct 2022 11:48:59.351,463.502
527,14 Oct 2022 13:17:32.093,14 Oct 2022 13:22:53.926,321.833
528,14 Oct 2022 22:31:54.500,14 Oct 2022 22:36:05.901,251.401
529,15 Oct 2022 00:04:58.884,15 Oct 2022 00:12:55.148,476.263
530,15 Oct 2022 11:37:58.999,15 Oct 2022 11:45:41.884,462.886
531,15 Oct 2022 13:14:14.163,15 Oct 2022 13:19:38.183,324.020
532,15 Oct 2022 22:28:39.314,15 Oct 2022 22:32:47.489,248.175
533,16 Oct 2022 00:01:41.591,16 Oct 2022 00:09:38.200,476.609
534,16 Oct 2022 11:34:42.153,16 Oct 2022 11:42:24.409,462.256
535,16 Oct 2022 13:10:56.244,16 Oct 2022 13:16:22.426,326.182
536,16 Oct 2022 22:25:24.158,16 Oct 2022 22:29:29.051,244.893
537,16 Oct 2022 23:58:24.304,17 Oct 2022 00:06:21.247,476.943
538,17 Oct 2022 11:31:25.311,17 Oct 2022 11:39:06.930,461.619
539,17 Oct 2022 13:07:38.337,17 Oct 2022 13:13:06.655,328.318
540,17 Oct 2022 22:22:09.032,17 Oct 2022 22:26:10.584,241.552
541,17 Oct 2022 23:55:07.023,18 Oct 2022 00:03:04.293,477.270
542,18 Oct 2022 11:28:08.473,18 Oct 2022 11:35:49.446,460.973
543,18 Oct 2022 13:04:20.441,18 Oct 2022 13:09:50.871,330.430
544,18 Oct 2022 22:18:53.939,18 Oct 2022 22:22:52.089,238.150
545,18 Oct 2022 23:51:49.748,18 Oct 2022 23:59:47.334,477.586
546,19 Oct 2022 11:24:51.639,19 Oct 2022 11:32:31.950,460.311
547,19 Oct 2022 13:01:02.556,19 Oct 2022 13:06:35.072,332.517
548,19 Oct 2022 22:15:38.879,19 Oct 2022 22:19:33.566,234.687
549,19 Oct 2022 23:48:32.479,19 Oct 2022 23:56:30.367,477.888
550,20 Oct 2022 11:21:34.810,20 Oct 2022 11:29:14.449,459.640
551,20 Oct 2022 12:57:44.681,20 Oct 2022 13:03:19.261,334.579
552,20 Oct 2022 22:12:23.854,20 Oct 2022 22:16:15.008,231.154
553,20 Oct 2022 23:45:15.216,20 Oct 2022 23:53:13.402,478.186
554,21 Oct 2022 11:18:17.984,21 Oct 2022 11:25:56.942,458.958
555,21 Oct 2022 12:54:26.816,21 Oct 2022 13:00:03.436,336.620
556,21 Oct 2022 22:09:08.866,21 Oct 2022 22:12:56.417,227.551
557,21 Oct 2022 23:41:57.959,21 Oct 2022 23:49:56.435,478.476
558,22 Oct 2022 11:15:01.162,22 Oct 2022 11:22:39.428,458.266
559,22 Oct 2022 12:51:08.959,22 Oct 2022 12:56:47.599,338.640
560,22 Oct 2022 22:05:53.915,22 Oct 2022 22:09:37.790,223.875
561,22 Oct 2022 23:38:40.708,22 Oct 2022 23:46:39.463,478.755
562,23 Oct 2022 11:11:44.345,23 Oct 2022 11:19:21.908,457.563
563,23 Oct 2022 12:47:51.116,23 Oct 2022 12:53:31.749,340.633
564,23 Oct 2022 22:02:39.004,23 Oct 2022 22:06:19.123,220.119
565,23 Oct 2022 23:35:23.463,23 Oct 2022 23:43:22.487,479.024
566,24 Oct 2022 11:08:27.531,24 Oct 2022 11:16:04.381,456.850
567,24 Oct 2022 12:44:33.282,24 Oct 2022 12:50:15.886,342.604
568,24 Oct 2022 21:59:24.135,24 Oct 2022 22:03:00.417,216.282
569,24 Oct 2022 23:32:06.224,24 Oct 2022 23:40:05.507,479.283
570,25 Oct 2022 11:05:10.722,25 Oct 2022 11:12:46.848,456.126
571,25 Oct 2022 12:41:15.459,25 Oct 2022 12:47:00.012,344.553
572,25 Oct 2022 21:56:09.311,25 Oct 2022 21:59:41.676,212.365
573,25 Oct 2022 23:28:48.991,25 Oct 2022 23:36:48.525,479.534
574,26 Oct 2022 11:01:53.917,26 Oct 2022 11:09:29.307,455.391
575,26 Oct 2022 12:37:57.644,26 Oct 2022 12:43:44.125,346.480
576,26 Oct 2022 21:52:54.534,26 Oct 2022 21:56:22.883,208.349
577,26 Oct 2022 23:25:31.764,26 Oct 2022 23:33:31.539,479.775
578,27 Oct 2022 10:58:37.116,27 Oct 2022 11:06:11.760,454.644
579,27 Oct 2022 12:34:39.839,27 Oct 2022 12:40:28.226,348.386
580,27 Oct 2022 21:49:39.806,27 Oct 2022 21:53:04.046,204.240
581,27 Oct 2022 23:22:14.543,27 Oct 2022 23:30:14.550,480.007
582,28 Oct 2022 10:55:20.319,28 Oct 2022 11:02:54.206,453.887
583,28 Oct 2022 12:31:22.041,28 Oct 2022 12:37:12.315,350.274
584,28 Oct 2022 21:46:25.130,28 Oct 2022 21:49:45.161,200.031
585,28 Oct 2022 23:18:57.327,28 Oct 2022 23:26:57.558,480.230
586,29 Oct 2022 10:52:03.526,29 Oct 2022 10:59:36.644,453.119
587,29 Oct 2022 12:28:04.253,29 Oct 2022 12:33:56.393,352.139
588,29 Oct 2022 21:43:10.509,29 Oct 2022 21:46:26.223,195.714
589,29 Oct 2022 23:15:40.118,29 Oct 2022 23:23:40.560,480.443
590,30 Oct 2022 10:48:46.737,30 Oct 2022 10:56:19.076,452.339
591,30 Oct 2022 12:24:46.474,30 Oct 2022 12:30:40.459,353.985
592,30 Oct 2022 21:39:55.947,30 Oct 2022 21:43:07.230,191.283
593,30 Oct 2022 23:12:22.914,30 Oct 2022 23:20:23.561,480.647
594,31 Oct 2022 10:45:29.952,31 Oct 2022 10:53:01.501,451.548
595,31 Oct 2022 12:21:28.704,31 Oct 2022 12:27:24.514,355.811
596,31 Oct 2022 21:36:41.448,31 Oct 2022 21:39:48.176,186.728
597,31 Oct 2022 23:09:05.716,31 Oct 2022 23:17:06.558,480.842
598,1 Nov 2022 10:42:13.172,1 Nov 2022 10:49:43.919,450.746
599,1 Nov 2022 12:18:10.941,1 Nov 2022 12:24:08.559,357.617
600,1 Nov 2022 21:33:27.017,1 Nov 2022 21:36:29.059,182.042
601,1 Nov 2022 23:05:48.523,1 Nov 2022 23:13:49.552,481.028
602,2 Nov 2022 10:38:56.397,2 Nov 2022 10:46:26.329,449.932
603,2 Nov 2022 12:14:53.188,2 Nov 2022 12:20:52.592,359.405
604,2 Nov 2022 21:30:12.658,2 Nov 2022 21:33:09.871,177.213
605,2 Nov 2022 23:02:31.337,2 Nov 2022 23:10:32.543,481.206
606,3 Nov 2022 10:35:39.626,3 Nov 2022 10:43:08.733,449.107
607,3 Nov 2022 12:11:35.442,3 Nov 2022 12:17:36.614,361.172
608,3 Nov 2022 21:26:58.378,3 Nov 2022 21:29:50.606,172.228
609,3 Nov 2022 22:59:14.157,3 Nov 2022 23:07:15.531,481.374
610,4 Nov 2022 10:32:22.859,4 Nov 2022 10:39:51.130,448.270
611,4 Nov 2022 12:08:17.705,4 Nov 2022 12:14:20.625,362.920
612,4 Nov 2022 21:23:44.185,4 Nov 2022 21:26:31.258,167.073
613,4 Nov 2022 22:55:56.983,4 Nov 2022 23:03:58.515,481.533
614,5 Nov 2022 10:29:06.097,5 Nov 2022 10:36:33.516,447.419
615,5 Nov 2022 12:04:59.976,5 Nov 2022 12:11:04.626,364.650
616,5 Nov 2022 21:20:30.086,5 Nov 2022 21:23:11.819,161.733
617,5 Nov 2022 22:52:39.814,5 Nov 2022 23:00:41.497,481.683
618,6 Nov 2022 10:25:49.340,6 Nov 2022 10:33:15.899,446.559
619,6 Nov 2022 12:01:42.252,6 Nov 2022 12:07:48.615,366.363
620,6 Nov 2022 21:17:16.090,6 Nov 2022 21:19:52.278,156.188
621,6 Nov 2022 22:49:22.652,6 Nov 2022 22:57:24.476,481.824
622,7 Nov 2022 10:22:32.587,7 Nov 2022 10:29:58.274,445.688
623,7 Nov 2022 11:58:24.538,7 Nov 2022 12:04:32.592,368.053
624,7 Nov 2022 21:14:02.210,7 Nov 2022 21:16:32.626,150.416
625,7 Nov 2022 22:46:05.495,7 Nov 2022 22:54:07.451,481.956
626,8 Nov 2022 10:19:15.838,8 Nov 2022 10:26:40.642,444.804
627,8 Nov 2022 11:55:06.832,8 Nov 2022 12:01:16.560,369.728
628,8 Nov 2022 21:10:48.458,8 Nov 2022 21:13:12.848,144.390
629,8 Nov 2022 22:42:48.344,8 Nov 2022 22:50:50.423,482.079
630,9 Nov 2022 10:15:59.094,9 Nov 2022 10:23:23.003,443.909
631,9 Nov 2022 11:51:49.134,9 Nov 2022 11:58:00.519,371.385
632,9 Nov 2022 21:07:34.852,9 Nov 2022 21:09:52.928,138.076
633,9 Nov 2022 22:39:31.199,9 Nov 2022 22:47:33.392,482.193
634,10 Nov 2022 10:12:42.355,10 Nov 2022 10:20:05.354,442.999
635,10 Nov 2022 11:48:31.443,10 Nov 2022 11:54:44.467,373.024
636,10 Nov 2022 21:04:21.409,10 Nov 2022 21:06:32.841,131.432
637,10 Nov 2022 22:36:14.060,10 Nov 2022 22:44:16.360,482.300
638,11 Nov 2022 10:09:25.620,11 Nov 2022 10:16:47.700,442.079
639,11 Nov 2022 11:45:13.759,11 Nov 2022 11:51:28.407,374.649
640,11 Nov 2022 21:01:08.160,11 Nov 2022 21:03:12.571,124.412
641,11 Nov 2022 22:32:56.926,11 Nov 2022 22:40:59.323,482.397
642,12 Nov 2022 10:06:08.890,12 Nov 2022 10:13:30.038,441.148
643,12 Nov 2022 11:41:56.082,12 Nov 2022 11:48:12.335,376.253
644,12 Nov 2022 20:57:55.137,12 Nov 2022 20:59:52.077,116.940
645,12 Nov 2022 22:29:39.798,12 Nov 2022 22:37:42.282,482.484
646,13 Nov 2022 10:02:52.165,13 Nov 2022 10:10:12.369,440.204
647,13 Nov 2022 11:38:38.412,13 Nov 2022 11:44:56.255,377.843
648,13 Nov 2022 20:54:42.383,13 Nov 2022 20:56:31.311,108.929
649,13 Nov 2022 22:26:22.675,13 Nov 2022 22:34:25.238,482.563
650,14 Nov 2022 09:59:35.444,14 Nov 2022 10:06:54.694,439.250
651,14 Nov 2022 11:35:20.748,14 Nov 2022 11:41:40.165,379.417
652,14 Nov 2022 20:51:29.968,14 Nov 2022 20:53:10.213,100.244
653,14 Nov 2022 22:23:05.559,14 Nov 2022 22:31:08.191,482.632
654,15 Nov 2022 09:56:18.729,15 Nov 2022 10:03:37.009,438.281
655,15 Nov 2022 11:32:03.092,15 Nov 2022 11:38:24.066,380.974
656,15 Nov 2022 20:48:17.986,15 Nov 2022 20:49:48.683,90.697
657,15 Nov 2022 22:19:48.448,15 Nov 2022 22:27:51.141,482.693
658,16 Nov 2022 09:53:02.018,16 Nov 2022 10:00:19.317,437.299
659,16 Nov 2022 11:28:45.442,16 Nov 2022 11:35:07.958,382.515
660,16 Nov 2022 20:45:06.591,16 Nov 2022 20:46:26.567,79.976
661,16 Nov 2022 22:16:31.343,16 Nov 2022 22:24:34.088,482.745
662,17 Nov 2022 09:49:45.313,17 Nov 2022 09:57:01.616,436.304
663,17 Nov 2022 11:25:27.800,17 Nov 2022 11:31:51.840,384.040
664,17 Nov 2022 20:41:56.061,17 Nov 2022 20:43:03.590,67.529
665,17 Nov 2022 22:13:14.244,17 Nov 2022 22:21:17.032,482.787
666,18 Nov 2022 09:46:28.612,18 Nov 2022 09:53:43.908,435.297
667,18 Nov 2022 11:22:10.163,18 Nov 2022 11:28:35.710,385.547
668,18 Nov 2022 20:38:47.008,18 Nov 2022 20:39:39.140,52.132
669,18 Nov 2022 22:09:57.151,18 Nov 2022 22:17:59.972,482.821
670,19 Nov 2022 09:43:11.916,19 Nov 2022 09:50:26.193,434.276
671,19 Nov 2022 11:18:52.534,19 Nov 2022 11:25:19.571,387.037
672,19 Nov 2022 20:35:41.584,19 Nov 2022 20:36:11.064,29.480
673,19 Nov 2022 22:06:40.063,19 Nov 2022 22:14:42.910,482.847
674,20 Nov 2022 09:39:55.226,20 Nov 2022 09:47:08.469,433.243
675,20 Nov 2022 11:15:34.910,20 Nov 2022 11:22:03.426,388.515
676,20 Nov 2022 22:03:22.982,20 Nov 2022 22:11:25.845,482.863
677,21 Nov 2022 09:36:38.541,21 Nov 2022 09:43:50.735,432.194
678,21 Nov 2022 11:12:17.294,21 Nov 2022 11:18:47.272,389.979
679,21 Nov 2022 22:00:05.906,21 Nov 2022 22:08:08.776,482.870
680,22 Nov 2022 09:33:21.861,22 Nov 2022 09:40:32.995,431.134
681,22 Nov 2022 11:08:59.683,22 Nov 2022 11:15:31.110,391.427
682,22 Nov 2022 21:56:48.836,22 Nov 2022 22:04:51.705,482.869
683,23 Nov 2022 09:30:05.186,23 Nov 2022 09:37:15.252,430.066
684,23 Nov 2022 11:05:42.079,23 Nov 2022 11:12:14.938,392.859
685,23 Nov 2022 21:53:31.771,23 Nov 2022 22:01:34.630,482.859
686,24 Nov 2022 09:26:48.516,24 Nov 2022 09:33:57.497,428.981
687,24 Nov 2022 11:02:24.481,24 Nov 2022 11:08:58.756,394.275
688,24 Nov 2022 21:50:14.712,24 Nov 2022 21:58:17.552,482.840
689,25 Nov 2022 09:23:31.851,25 Nov 2022 09:30:39.732,427.881
690,25 Nov 2022 10:59:06.888,25 Nov 2022 11:05:42.565,395.677
691,25 Nov 2022 21:46:57.659,25 Nov 2022 21:55:00.471,482.812
692,26 Nov 2022 09:20:15.192,26 Nov 2022 09:27:21.959,426.767
693,26 Nov 2022 10:55:49.302,26 Nov 2022 11:02:26.366,397.064
694,26 Nov 2022 21:43:40.612,26 Nov 2022 21:51:43.387,482.775
695,27 Nov 2022 09:16:58.538,27 Nov 2022 09:24:04.177,425.639
696,27 Nov 2022 10:52:31.721,27 Nov 2022 10:59:10.158,398.437
697,27 Nov 2022 21:40:23.570,27 Nov 2022 21:48:26.299,482.730
698,28 Nov 2022 09:13:41.890,28 Nov 2022 09:20:46.390,424.501
699,28 Nov 2022 10:49:14.146,28 Nov 2022 10:55:53.942,399.796
700,28 Nov 2022 21:37:06.533,28 Nov 2022 21:45:09.209,482.676
701,29 Nov 2022 09:10:25.247,29 Nov 2022 09:17:28.593,423.346
702,29 Nov 2022 10:45:56.576,29 Nov 2022 10:52:37.715,401.138
703,29 Nov 2022 21:33:49.503,29 Nov 2022 21:41:52.115,482.612
704,30 Nov 2022 09:07:08.610,30 Nov 2022 09:14:10.790,422.180
705,30 Nov 2022 10:42:39.013,30 Nov 2022 10:49:21.481,402.469
706,30 Nov 2022 21:30:32.478,30 Nov 2022 21:38:35.019,482.541
707,1 Dec 2022 09:03:51.979,1 Dec 2022 09:10:52.976,420.997
708,1 Dec 2022 10:39:21.455,1 Dec 2022 10:46:05.240,403.785
709,1 Dec 2022 21:27:15.460,1 Dec 2022 21:35:17.919,482.460
710,2 Dec 2022 09:00:35.354,2 Dec 2022 09:07:35.154,419.800
711,2 Dec 2022 10:36:03.902,2 Dec 2022 10:42:48.990,405.088
712,2 Dec 2022 21:23:58.447,2 Dec 2022 21:32:00.817,482.370
713,3 Dec 2022 08:57:18.734,3 Dec 2022 09:04:17.324,418.590
714,3 Dec 2022 10:32:46.356,3 Dec 2022 10:39:32.735,406.380
715,3 Dec 2022 21:20:41.439,3 Dec 2022 21:28:43.711,482.272
716,4 Dec 2022 08:54:02.120,4 Dec 2022 09:00:59.485,417.365
717,4 Dec 2022 10:29:28.815,4 Dec 2022 10:36:16.470,407.655
718,4 Dec 2022 21:17:24.438,4 Dec 2022 21:25:26.603,482.165
719,5 Dec 2022 08:50:45.512,5 Dec 2022 08:57:41.638,416.126
720,5 Dec 2022 10:26:11.279,5 Dec 2022 10:33:00.196,408.917
721,5 Dec 2022 21:14:07.442,5 Dec 2022 21:22:09.491,482.049
722,6 Dec 2022 08:47:28.910,6 Dec 2022 08:54:23.783,414.872
723,6 Dec 2022 10:22:53.748,6 Dec 2022 10:29:43.915,410.166
724,6 Dec 2022 21:10:50.452,6 Dec 2022 21:18:52.374,481.922
725,7 Dec 2022 08:44:12.315,7 Dec 2022 08:51:05.918,413.603
726,7 Dec 2022 10:19:36.223,7 Dec 2022 10:26:27.625,411.402
727,7 Dec 2022 21:07:33.468,7 Dec 2022 21:15:35.256,481.788
728,7 Dec 2022 22:47:16.390,7 Dec 2022 22:47:49.549,33.159
729,8 Dec 2022 08:40:55.725,8 Dec 2022 08:47:48.042,412.317
730,8 Dec 2022 10:16:18.703,8 Dec 2022 10:23:11.330,412.627
731,8 Dec 2022 21:04:16.489,8 Dec 2022 21:12:18.135,481.646
732,8 Dec 2022 22:43:47.384,8 Dec 2022 22:44:43.773,56.389
733,9 Dec 2022 08:37:39.141,9 Dec 2022 08:44:30.159,411.018
734,9 Dec 2022 10:13:01.188,9 Dec 2022 10:19:55.025,413.837
735,9 Dec 2022 21:00:59.516,9 Dec 2022 21:09:01.011,481.495
736,9 Dec 2022 22:40:21.963,9 Dec 2022 22:41:34.416,72.452
737,10 Dec 2022 08:34:22.563,10 Dec 2022 08:41:12.267,409.704
738,10 Dec 2022 10:09:43.677,10 Dec 2022 10:16:38.711,415.034
739,10 Dec 2022 20:57:42.548,10 Dec 2022 21:05:43.884,481.335
740,10 Dec 2022 22:36:58.055,10 Dec 2022 22:38:23.556,85.501
741,11 Dec 2022 08:31:05.992,11 Dec 2022 08:37:54.366,408.374
742,11 Dec 2022 10:06:26.172,11 Dec 2022 10:13:22.391,416.218
743,11 Dec 2022 20:54:25.586,11 Dec 2022 21:02:26.753,481.167
744,11 Dec 2022 22:33:35.044,11 Dec 2022 22:35:11.797,96.753
745,12 Dec 2022 08:27:49.428,12 Dec 2022 08:34:36.456,407.029
746,12 Dec 2022 10:03:08.672,12 Dec 2022 10:10:06.062,417.390
747,12 Dec 2022 20:51:08.630,12 Dec 2022 20:59:09.620,480.989
748,12 Dec 2022 22:30:12.646,12 Dec 2022 22:31:59.427,106.781
749,13 Dec 2022 08:24:32.869,13 Dec 2022 08:31:18.534,405.664
750,13 Dec 2022 09:59:51.177,13 Dec 2022 10:06:49.726,418.550
751,13 Dec 2022 20:47:51.680,13 Dec 2022 20:55:52.483,480.803
752,13 Dec 2022 22:26:50.702,13 Dec 2022 22:28:46.605,115.903
753,14 Dec 2022 08:21:16.318,14 Dec 2022 08:28:00.605,404.287
754,14 Dec 2022 09:56:33.686,14 Dec 2022 10:03:33.383,419.697
755,14 Dec 2022 20:44:34.735,14 Dec 2022 20:52:35.343,480.608
756,14 Dec 2022 22:23:29.116,14 Dec 2022 22:25:33.429,124.314
757,15 Dec 2022 08:17:59.773,15 Dec 2022 08:24:42.667,402.894
758,15 Dec 2022 09:53:16.201,15 Dec 2022 10:00:17.033,420.832
759,15 Dec 2022 20:41:17.797,15 Dec 2022 20:49:18.201,480.404
760,15 Dec 2022 22:20:07.814,15 Dec 2022 22:22:19.976,132.162
761,16 Dec 2022 08:14:43.236,16 Dec 2022 08:21:24.719,401.484
762,16 Dec 2022 09:49:58.720,16 Dec 2022 09:57:00.675,421.955
763,16 Dec 2022 20:38:00.864,16 Dec 2022 20:46:01.055,480.191
764,16 Dec 2022 22:16:46.752,16 Dec 2022 22:19:06.283,139.531
765,17 Dec 2022 08:11:26.705,17 Dec 2022 08:18:06.764,400.060
766,17 Dec 2022 09:46:41.244,17 Dec 2022 09:53:44.310,423.066
767,17 Dec 2022 20:34:43.936,17 Dec 2022 20:42:43.906,479.970
768,17 Dec 2022 22:13:25.893,17 Dec 2022 22:15:52.390,146.498
769,18 Dec 2022 08:08:10.181,18 Dec 2022 08:14:48.797,398.616
770,18 Dec 2022 09:43:23.773,18 Dec 2022 09:50:27.936,424.163
771,18 Dec 2022 20:31:27.015,18 Dec 2022 20:39:26.756,479.741
772,18 Dec 2022 22:10:05.209,18 Dec 2022 22:12:38.326,153.117
773,19 Dec 2022 08:04:53.664,19 Dec 2022 08:11:30.819,397.155
774,19 Dec 2022 09:40:06.307,19 Dec 2022 09:47:11.557,425.250
775,19 Dec 2022 20:28:10.099,19 Dec 2022 20:36:09.601,479.501
776,19 Dec 2022 22:06:44.679,19 Dec 2022 22:09:24.110,159.431
777,20 Dec 2022 08:01:37.154,20 Dec 2022 08:08:12.832,395.678
778,20 Dec 2022 09:36:48.846,20 Dec 2022 09:43:55.169,426.323
779,20 Dec 2022 20:24:53.190,20 Dec 2022 20:32:52.442,479.253
780,20 Dec 2022 22:03:24.286,20 Dec 2022 22:06:09.762,165.476
781,21 Dec 2022 07:58:20.651,21 Dec 2022 08:04:54.835,394.183
782,21 Dec 2022 09:33:31.389,21 Dec 2022 09:40:38.776,427.387
783,21 Dec 2022 20:21:36.285,21 Dec 2022 20:29:35.281,478.995
784,21 Dec 2022 22:00:04.015,21 Dec 2022 22:02:55.294,171.280
785,22 Dec 2022 07:55:04.156,22 Dec 2022 08:01:36.827,392.671
786,22 Dec 2022 09:30:13.937,22 Dec 2022 09:37:22.376,428.439
787,22 Dec 2022 20:18:19.387,22 Dec 2022 20:26:18.116,478.729
788,22 Dec 2022 21:56:43.853,22 Dec 2022 21:59:40.719,176.866
789,23 Dec 2022 07:51:47.668,23 Dec 2022 07:58:18.808,391.141
790,23 Dec 2022 09:26:56.488,23 Dec 2022 09:34:05.967,429.478
791,23 Dec 2022 20:15:02.494,23 Dec 2022 20:23:00.948,478.454
792,23 Dec 2022 21:53:23.793,23 Dec 2022 21:56:26.045,182.253
793,24 Dec 2022 07:48:31.187,24 Dec 2022 07:55:00.778,389.591
794,24 Dec 2022 09:23:39.045,24 Dec 2022 09:30:49.546,430.501
795,24 Dec 2022 20:11:45.606,24 Dec 2022 20:19:43.776,478.170
796,24 Dec 2022 21:50:03.824,24 Dec 2022 21:53:11.282,187.459
797,25 Dec 2022 07:45:14.714,25 Dec 2022 07:51:42.738,388.024
798,25 Dec 2022 09:20:21.605,25 Dec 2022 09:27:33.124,431.518
799,25 Dec 2022 20:08:28.725,25 Dec 2022 20:16:26.602,477.877
800,25 Dec 2022 21:46:43.939,25 Dec 2022 21:49:56.438,192.499
801,26 Dec 2022 07:41:58.249,26 Dec 2022 07:48:24.687,386.439
802,26 Dec 2022 09:17:04.170,26 Dec 2022 09:24:16.696,432.525
803,26 Dec 2022 20:05:11.849,26 Dec 2022 20:13:09.422,477.573
804,26 Dec 2022 21:43:24.133,26 Dec 2022 21:46:41.520,197.387
805,27 Dec 2022 07:38:41.791,27 Dec 2022 07:45:06.631,384.840
806,27 Dec 2022 09:13:46.740,27 Dec 2022 09:21:00.259,433.519
807,27 Dec 2022 20:01:54.979,27 Dec 2022 20:09:52.239,477.260
808,27 Dec 2022 21:40:04.400,27 Dec 2022 21:43:26.532,202.132
809,28 Dec 2022 07:35:25.342,28 Dec 2022 07:41:48.560,383.218
810,28 Dec 2022 09:10:29.313,28 Dec 2022 09:17:43.814,434.501
811,28 Dec 2022 19:58:38.115,28 Dec 2022 20:06:35.055,476.940
812,28 Dec 2022 21:36:44.734,28 Dec 2022 21:40:11.481,206.747
813,29 Dec 2022 07:32:08.902,29 Dec 2022 07:38:30.474,381.573
814,29 Dec 2022 09:07:11.892,29 Dec 2022 09:14:27.363,435.472
815,29 Dec 2022 19:55:21.257,29 Dec 2022 20:03:17.873,476.616
816,29 Dec 2022 21:33:25.132,29 Dec 2022 21:36:56.367,211.235
817,30 Dec 2022 07:28:52.469,30 Dec 2022 07:35:12.382,379.912
818,30 Dec 2022 09:03:54.474,30 Dec 2022 09:11:10.905,436.431
819,30 Dec 2022 19:52:04.404,30 Dec 2022 20:00:00.681,476.277
820,30 Dec 2022 21:30:05.589,30 Dec 2022 21:33:41.201,215.612
821,31 Dec 2022 07:25:36.045,31 Dec 2022 07:31:54.278,378.233
822,31 Dec 2022 09:00:37.061,31 Dec 2022 09:07:54.440,437.379
823,31 Dec 2022 19:48:47.558,31 Dec 2022 19:56:43.485,475.927
824,31 Dec 2022 21:26:46.103,31 Dec 2022 21:30:25.982,219.879
825,1 Jan 2023 07:22:19.629,1 Jan 2023 07:28:36.163,376.533
826,1 Jan 2023 08:57:19.652,1 Jan 2023 09:04:37.969,438.316
827,1 Jan 2023 19:45:30.717,1 Jan 2023 19:53:26.290,475.572
828,1 Jan 2023 21:23:26.669,1 Jan 2023 21:27:10.711,224.042
829,2 Jan 2023 07:19:03.222,2 Jan 2023 07:25:18.036,374.814
830,2 Jan 2023 08:54:02.248,2 Jan 2023 09:01:21.487,439.239
831,2 Jan 2023 19:42:13.883,2 Jan 2023 19:50:09.091,475.209
832,2 Jan 2023 21:20:07.284,2 Jan 2023 21:23:55.393,228.109
833,3 Jan 2023 07:15:46.827,3 Jan 2023 07:21:59.896,373.069
834,3 Jan 2023 08:50:44.847,3 Jan 2023 08:58:05.001,440.154
835,3 Jan 2023 19:38:57.053,3 Jan 2023 19:46:51.888,474.834
836,3 Jan 2023 21:16:47.949,3 Jan 2023 21:20:40.031,232.081
837,4 Jan 2023 07:12:30.437,4 Jan 2023 07:18:41.746,371.309
838,4 Jan 2023 08:47:27.451,4 Jan 2023 08:54:48.508,441.057
839,4 Jan 2023 19:35:40.230,4 Jan 2023 19:43:34.682,474.451
840,4 Jan 2023 21:13:28.658,4 Jan 2023 21:17:24.626,235.968
841,5 Jan 2023 07:09:14.056,5 Jan 2023 07:15:23.584,369.528
842,5 Jan 2023 08:44:10.059,5 Jan 2023 08:51:32.009,441.950
843,5 Jan 2023 19:32:23.412,5 Jan 2023 19:40:17.472,474.060
844,5 Jan 2023 21:10:09.409,5 Jan 2023 21:14:09.181,239.772
845,6 Jan 2023 07:05:57.685,6 Jan 2023 07:12:05.410,367.725
846,6 Jan 2023 08:40:52.670,6 Jan 2023 08:48:15.505,442.835
847,6 Jan 2023 19:29:06.601,6 Jan 2023 19:37:00.260,473.659
848,6 Jan 2023 21:06:50.202,6 Jan 2023 21:10:53.699,243.497
849,7 Jan 2023 07:02:41.323,7 Jan 2023 07:08:47.226,365.903
850,7 Jan 2023 08:37:35.286,7 Jan 2023 08:44:58.992,443.707
851,7 Jan 2023 19:25:49.795,7 Jan 2023 19:33:43.044,473.249
852,7 Jan 2023 21:03:31.031,7 Jan 2023 21:07:38.175,247.144
853,8 Jan 2023 06:59:24.971,8 Jan 2023 07:05:29.027,364.056
854,8 Jan 2023 08:34:17.905,8 Jan 2023 08:41:42.473,444.567
855,8 Jan 2023 19:22:32.994,8 Jan 2023 19:30:25.825,472.831
856,8 Jan 2023 21:00:11.900,8 Jan 2023 21:04:22.621,250.721
857,9 Jan 2023 06:56:08.628,9 Jan 2023 07:02:10.815,362.187
858,9 Jan 2023 08:31:00.528,9 Jan 2023 08:38:25.946,445.418
859,9 Jan 2023 19:19:16.200,9 Jan 2023 19:27:08.603,472.403
860,9 Jan 2023 20:56:52.805,9 Jan 2023 21:01:07.034,254.228
861,10 Jan 2023 06:52:52.295,10 Jan 2023 06:58:52.590,360.295
862,10 Jan 2023 08:27:43.156,10 Jan 2023 08:35:09.413,446.258
863,10 Jan 2023 19:15:59.412,10 Jan 2023 19:23:51.377,471.966
864,10 Jan 2023 20:53:33.746,10 Jan 2023 20:57:51.415,257.670
865,11 Jan 2023 06:49:35.973,11 Jan 2023 06:55:34.351,358.378
866,11 Jan 2023 08:24:25.787,11 Jan 2023 08:31:52.877,447.089
867,11 Jan 2023 19:12:42.629,11 Jan 2023 19:20:34.149,471.519
868,11 Jan 2023 20:50:14.719,11 Jan 2023 20:54:35.767,261.048
869,12 Jan 2023 06:46:19.661,12 Jan 2023 06:52:16.099,356.438
870,12 Jan 2023 08:21:08.422,12 Jan 2023 08:28:36.331,447.909
871,12 Jan 2023 19:09:25.853,12 Jan 2023 19:17:16.917,471.064
872,12 Jan 2023 20:46:55.725,12 Jan 2023 20:51:20.088,264.363
873,13 Jan 2023 06:43:03.361,13 Jan 2023 06:48:57.834,354.473
874,13 Jan 2023 08:17:51.062,13 Jan 2023 08:25:19.779,448.717
875,13 Jan 2023 19:06:09.082,13 Jan 2023 19:13:59.682,470.600
876,13 Jan 2023 20:43:36.762,13 Jan 2023 20:48:04.386,267.625
877,14 Jan 2023 06:39:47.070,14 Jan 2023 06:45:39.556,352.486
878,14 Jan 2023 08:14:33.705,14 Jan 2023 08:22:03.221,449.516
879,14 Jan 2023 19:02:52.318,14 Jan 2023 19:10:42.443,470.126
880,14 Jan 2023 20:40:17.828,14 Jan 2023 20:44:48.649,270.821
881,15 Jan 2023 06:36:30.790,15 Jan 2023 06:42:21.264,350.474
882,15 Jan 2023 08:11:16.352,15 Jan 2023 08:18:46.656,450.304
883,15 Jan 2023 18:59:35.559,15 Jan 2023 19:07:25.202,469.643
884,15 Jan 2023 20:36:58.924,15 Jan 2023 20:41:32.891,273.967
885,16 Jan 2023 06:33:14.521,16 Jan 2023 06:39:02.959,348.438
886,16 Jan 2023 08:07:59.003,16 Jan 2023 08:15:30.084,451.081
887,16 Jan 2023 18:56:18.806,16 Jan 2023 19:04:07.957,469.151
888,16 Jan 2023 20:33:40.047,16 Jan 2023 20:38:17.108,277.060
889,17 Jan 2023 06:29:58.263,17 Jan 2023 06:35:44.639,346.377
890,17 Jan 2023 08:04:41.658,17 Jan 2023 08:12:13.507,451.849
891,17 Jan 2023 18:53:02.060,17 Jan 2023 19:00:50.709,468.649
892,17 Jan 2023 20:30:21.202,17 Jan 2023 20:35:01.301,280.098
893,18 Jan 2023 06:26:42.016,18 Jan 2023 06:32:26.305,344.290
894,18 Jan 2023 08:01:24.316,18 Jan 2023 08:08:56.923,452.606
895,18 Jan 2023 18:49:45.319,18 Jan 2023 18:57:33.458,468.139
896,18 Jan 2023 20:27:02.379,18 Jan 2023 20:31:45.471,283.092
897,19 Jan 2023 06:23:25.781,19 Jan 2023 06:29:07.957,342.176
898,19 Jan 2023 07:58:06.979,19 Jan 2023 08:05:40.332,453.354
899,19 Jan 2023 18:46:28.584,19 Jan 2023 18:54:16.203,467.619
900,19 Jan 2023 20:23:43.581,19 Jan 2023 20:28:29.618,286.038
901,20 Jan 2023 06:20:09.562,20 Jan 2023 06:25:49.593,340.031
902,20 Jan 2023 07:54:49.644,20 Jan 2023 08:02:23.736,454.091
903,20 Jan 2023 18:43:11.855,20 Jan 2023 18:50:58.945,467.090
904,20 Jan 2023 20:20:24.807,20 Jan 2023 20:25:13.744,288.937
905,21 Jan 2023 06:16:53.351,21 Jan 2023 06:22:31.214,337.863
906,21 Jan 2023 07:51:32.314,21 Jan 2023 07:59:07.132,454.819
907,21 Jan 2023 18:39:55.132,21 Jan 2023 18:47:41.683,466.551
908,21 Jan 2023 20:17:06.057,21 Jan 2023 20:21:57.848,291.790
909,22 Jan 2023 06:13:37.153,22 Jan 2023 06:19:12.820,335.667
910,22 Jan 2023 07:48:14.986,22 Jan 2023 07:55:50.523,455.536
911,22 Jan 2023 18:36:38.414,22 Jan 2023 18:44:24.417,466.003
912,22 Jan 2023 20:13:47.331,22 Jan 2023 20:18:41.931,294.600
913,23 Jan 2023 06:10:20.968,23 Jan 2023 06:15:54.410,333.441
914,23 Jan 2023 07:44:57.663,23 Jan 2023 07:52:33.907,456.244
915,23 Jan 2023 18:33:21.703,23 Jan 2023 18:41:07.149,465.446
916,23 Jan 2023 20:10:28.628,23 Jan 2023 20:15:25.994,297.366
917,24 Jan 2023 06:07:04.797,24 Jan 2023 06:12:35.983,331.186
918,24 Jan 2023 07:41:40.343,24 Jan 2023 07:49:17.285,456.942
919,24 Jan 2023 18:30:04.998,24 Jan 2023 18:37:49.875,464.877
920,24 Jan 2023 20:07:09.946,24 Jan 2023 20:12:10.038,300.091
921,25 Jan 2023 06:03:48.639,25 Jan 2023 06:09:17.541,328.901
922,25 Jan 2023 07:38:23.027,25 Jan 2023 07:46:00.657,457.630
923,25 Jan 2023 18:26:48.299,25 Jan 2023 18:34:32.600,464.301
924,25 Jan 2023 20:03:51.287,25 Jan 2023 20:08:54.060,302.774
925,26 Jan 2023 06:00:32.496,26 Jan 2023 06:05:59.081,326.585
926,26 Jan 2023 07:35:05.715,26 Jan 2023 07:42:44.022,458.308
927,26 Jan 2023 18:23:31.606,26 Jan 2023 18:31:15.322,463.715
928,26 Jan 2023 20:00:32.650,26 Jan 2023 20:05:38.066,305.415
929,27 Jan 2023 05:57:16.367,27 Jan 2023 06:02:40.605,324.238
930,27 Jan 2023 07:31:48.406,27 Jan 2023 07:39:27.387,458.981
931,27 Jan 2023 18:20:14.920,27 Jan 2023 18:27:58.040,463.120
932,27 Jan 2023 19:57:14.032,27 Jan 2023 20:02:22.057,308.025
933,28 Jan 2023 05:54:00.252,28 Jan 2023 05:59:22.112,321.860
934,28 Jan 2023 07:28:31.101,28 Jan 2023 07:36:10.740,459.639
935,28 Jan 2023 18:16:58.239,28 Jan 2023 18:24:40.755,462.516
936,28 Jan 2023 19:53:55.435,28 Jan 2023 19:59:06.030,310.595
937,29 Jan 2023 05:50:44.152,29 Jan 2023 05:56:03.600,319.448
938,29 Jan 2023 07:25:13.800,29 Jan 2023 07:32:54.085,460.285
939,29 Jan 2023 18:13:41.565,29 Jan 2023 18:21:23.464,461.899
940,29 Jan 2023 19:50:36.856,29 Jan 2023 19:55:49.988,313.132
941,30 Jan 2023 05:47:28.063,30 Jan 2023 05:52:45.075,317.012
942,30 Jan 2023 07:21:56.502,30 Jan 2023 07:29:37.425,460.923
943,30 Jan 2023 18:10:24.897,30 Jan 2023 18:18:06.172,461.275
944,30 Jan 2023 19:47:18.295,30 Jan 2023 19:52:33.929,315.633
945,31 Jan 2023 05:44:11.994,31 Jan 2023 05:49:26.527,314.532
946,31 Jan 2023 07:18:39.208,31 Jan 2023 07:26:20.759,461.551
947,31 Jan 2023 18:07:08.234,31 Jan 2023 18:14:48.876,460.642
948,31 Jan 2023 19:43:59.759,31 Jan 2023 19:49:17.854,318.095
949,1 Feb 2023 05:40:55.942,1 Feb 2023 05:46:07.959,312.017
950,1 Feb 2023 07:15:21.917,1 Feb 2023 07:23:04.090,462.173
951,1 Feb 2023 18:03:51.578,1 Feb 2023 18:11:31.577,459.999
952,1 Feb 2023 19:40:41.236,1 Feb 2023 19:46:01.758,320.522
953,2 Feb 2023 05:37:39.906,2 Feb 2023 05:42:49.372,309.466
954,2 Feb 2023 07:12:04.629,2 Feb 2023 07:19:47.412,462.783
955,2 Feb 2023 18:00:34.928,2 Feb 2023 18:08:14.274,459.346
956,2 Feb 2023 19:37:22.731,2 Feb 2023 19:42:45.652,322.921
957,3 Feb 2023 05:34:23.884,3 Feb 2023 05:39:30.770,306.886
958,3 Feb 2023 07:08:47.345,3 Feb 2023 07:16:30.728,463.383
959,3 Feb 2023 17:57:18.285,3 Feb 2023 18:04:56.968,458.683
960,3 Feb 2023 19:34:04.244,3 Feb 2023 19:39:29.531,325.287
961,4 Feb 2023 05:31:07.881,4 Feb 2023 05:36:12.144,304.262
962,4 Feb 2023 07:05:30.064,4 Feb 2023 07:13:14.037,463.973
963,4 Feb 2023 17:54:01.647,4 Feb 2023 18:01:39.655,458.008
964,4 Feb 2023 19:30:45.775,4 Feb 2023 19:36:13.395,327.621
965,5 Feb 2023 05:27:51.894,5 Feb 2023 05:32:53.497,301.602
966,5 Feb 2023 07:02:12.787,5 Feb 2023 07:09:57.343,464.557
967,5 Feb 2023 17:50:45.015,5 Feb 2023 17:58:22.340,457.325
968,5 Feb 2023 19:27:27.322,5 Feb 2023 19:32:57.246,329.923
969,6 Feb 2023 05:24:35.928,6 Feb 2023 05:29:34.828,298.901
970,6 Feb 2023 06:58:55.513,6 Feb 2023 07:06:40.641,465.128
971,6 Feb 2023 17:47:28.390,6 Feb 2023 17:55:05.022,456.632
972,6 Feb 2023 19:24:08.887,6 Feb 2023 19:29:41.082,332.196
973,7 Feb 2023 05:21:19.980,7 Feb 2023 05:26:16.138,296.158
974,7 Feb 2023 06:55:38.243,7 Feb 2023 07:03:23.933,465.691
975,7 Feb 2023 17:44:11.771,7 Feb 2023 17:51:47.701,455.930
976,7 Feb 2023 19:20:50.468,7 Feb 2023 19:26:24.906,334.438
977,8 Feb 2023 05:18:04.052,8 Feb 2023 05:22:57.425,293.373
978,8 Feb 2023 06:52:20.975,8 Feb 2023 07:00:07.219,466.244
