data/Partner_Institute/Skyhopper_Partner-Boulder_Access_1year.csv

"Access","Start Time (UTCG)","Stop Time (UTCG)","Duration (sec)"
1,1 Jun 2022 01:34:18.033,1 Jun 2022 01:40:20.226,362.194
2,1 Jun 2022 03:09:21.100,1 Jun 2022 03:16:02.622,401.522
3,1 Jun 2022 13:53:06.130,1 Jun 2022 14:00:52.619,466.490
4,1 Jun 2022 15:32:04.794,1 Jun 2022 15:33:20.963,76.169
5,2 Jun 2022 01:31:01.874,2 Jun 2022 01:37:01.924,360.049
6,2 Jun 2022 03:06:03.435,2 Jun 2022 03:12:46.467,403.031
7,2 Jun 2022 13:49:49.424,2 Jun 2022 13:57:35.338,465.914
8,2 Jun 2022 15:28:40.382,2 Jun 2022 15:30:10.740,90.358
9,3 Jun 2022 01:27:45.730,3 Jun 2022 01:33:43.605,357.875
10,3 Jun 2022 03:02:45.779,3 Jun 2022 03:09:30.301,404.522
11,3 Jun 2022 13:46:32.727,3 Jun 2022 13:54:18.052,465.326
12,3 Jun 2022 15:25:16.974,3 Jun 2022 15:26:59.510,102.535
13,4 Jun 2022 01:24:29.600,4 Jun 2022 01:30:25.268,355.668
14,4 Jun 2022 02:59:28.131,4 Jun 2022 03:06:14.125,405.994
15,4 Jun 2022 13:43:16.036,4 Jun 2022 13:51:00.762,464.726
16,4 Jun 2022 15:21:54.247,4 Jun 2022 15:23:47.600,113.353
17,5 Jun 2022 01:21:13.484,5 Jun 2022 01:27:06.914,353.430
18,5 Jun 2022 02:56:10.490,5 Jun 2022 03:02:57.938,407.448
19,5 Jun 2022 13:39:59.354,5 Jun 2022 13:47:43.467,464.113
20,5 Jun 2022 15:18:32.021,5 Jun 2022 15:20:35.194,123.173
21,6 Jun 2022 01:17:57.383,6 Jun 2022 01:23:48.543,351.160
22,6 Jun 2022 02:52:52.858,6 Jun 2022 02:59:41.744,408.886
23,6 Jun 2022 13:36:42.679,6 Jun 2022 13:44:26.167,463.488
24,6 Jun 2022 15:15:10.185,6 Jun 2022 15:17:22.400,132.215
25,7 Jun 2022 01:14:41.300,7 Jun 2022 01:20:30.155,348.855
26,7 Jun 2022 02:49:35.232,7 Jun 2022 02:56:25.537,410.304
27,7 Jun 2022 13:33:26.012,7 Jun 2022 13:41:08.861,462.850
28,7 Jun 2022 15:11:48.665,7 Jun 2022 15:14:09.295,140.630
29,8 Jun 2022 01:11:25.228,8 Jun 2022 01:17:11.748,346.520
30,8 Jun 2022 02:46:17.615,8 Jun 2022 02:53:09.320,411.705
31,8 Jun 2022 13:30:09.352,8 Jun 2022 13:37:51.551,462.199
32,8 Jun 2022 15:08:27.405,8 Jun 2022 15:10:55.931,148.525
33,9 Jun 2022 01:08:09.173,9 Jun 2022 01:13:53.324,344.151
34,9 Jun 2022 02:43:00.005,9 Jun 2022 02:49:53.093,413.088
35,9 Jun 2022 13:26:52.700,9 Jun 2022 13:34:34.234,461.533
36,9 Jun 2022 15:05:06.368,9 Jun 2022 15:07:42.348,155.979
37,10 Jun 2022 01:04:53.133,10 Jun 2022 01:10:34.881,341.748
38,10 Jun 2022 02:39:42.402,10 Jun 2022 02:46:36.855,414.453
39,10 Jun 2022 13:23:36.056,10 Jun 2022 13:31:16.914,460.858
40,10 Jun 2022 15:01:45.523,10 Jun 2022 15:04:28.576,163.053
41,11 Jun 2022 01:01:37.109,11 Jun 2022 01:07:16.419,339.310
42,11 Jun 2022 02:36:24.807,11 Jun 2022 02:43:20.608,415.801
43,11 Jun 2022 13:20:19.420,11 Jun 2022 13:27:59.589,460.169
44,11 Jun 2022 14:58:24.846,11 Jun 2022 15:01:14.639,169.794
45,12 Jun 2022 00:58:21.106,12 Jun 2022 01:03:57.938,336.832
46,12 Jun 2022 02:33:07.219,12 Jun 2022 02:40:04.351,417.132
47,12 Jun 2022 13:17:02.791,12 Jun 2022 13:24:42.258,459.467
48,12 Jun 2022 14:55:04.317,12 Jun 2022 14:58:00.557,176.240
49,13 Jun 2022 00:55:05.117,13 Jun 2022 01:00:39.436,334.319
50,13 Jun 2022 02:29:49.638,13 Jun 2022 02:36:48.085,418.447
51,13 Jun 2022 13:13:46.170,13 Jun 2022 13:21:24.920,458.750
52,13 Jun 2022 14:51:43.921,13 Jun 2022 14:54:46.341,182.420
53,14 Jun 2022 00:51:49.145,14 Jun 2022 00:57:20.914,331.769
54,14 Jun 2022 02:26:32.063,14 Jun 2022 02:33:31.809,419.746
55,14 Jun 2022 13:10:29.556,14 Jun 2022 13:18:07.579,458.023
56,14 Jun 2022 14:48:23.646,14 Jun 2022 14:51:32.009,188.363
57,15 Jun 2022 00:48:33.191,15 Jun 2022 00:54:02.371,329.180
58,15 Jun 2022 02:23:14.496,15 Jun 2022 02:30:15.521,421.025
59,15 Jun 2022 13:07:12.950,15 Jun 2022 13:14:50.233,457.283
60,15 Jun 2022 14:45:03.480,15 Jun 2022 14:48:17.571,194.091
61,16 Jun 2022 00:45:17.257,16 Jun 2022 00:50:43.807,326.550
62,16 Jun 2022 02:19:56.935,16 Jun 2022 02:26:59.227,422.291
63,16 Jun 2022 13:03:56.352,16 Jun 2022 13:11:32.882,456.530
64,16 Jun 2022 14:41:43.415,16 Jun 2022 14:45:03.036,199.622
65,17 Jun 2022 00:42:01.341,17 Jun 2022 00:47:25.220,323.879
66,17 Jun 2022 02:16:39.381,17 Jun 2022 02:23:42.921,423.539
67,17 Jun 2022 13:00:39.762,17 Jun 2022 13:08:15.528,455.766
68,17 Jun 2022 14:38:23.441,17 Jun 2022 14:41:48.416,204.975
69,18 Jun 2022 00:38:45.446,18 Jun 2022 00:44:06.611,321.166
70,18 Jun 2022 02:13:21.834,18 Jun 2022 02:20:26.608,424.774
71,18 Jun 2022 12:57:23.180,18 Jun 2022 13:04:58.162,454.982
72,18 Jun 2022 14:35:03.553,18 Jun 2022 14:38:33.708,210.155
73,19 Jun 2022 00:35:29.571,19 Jun 2022 00:40:47.979,318.409
74,19 Jun 2022 02:10:04.294,19 Jun 2022 02:17:10.285,425.991
75,19 Jun 2022 12:54:06.606,19 Jun 2022 13:01:40.794,454.188
76,19 Jun 2022 14:31:43.744,19 Jun 2022 14:35:18.929,215.185
77,20 Jun 2022 00:32:13.717,20 Jun 2022 00:37:29.329,315.612
78,20 Jun 2022 02:06:46.760,20 Jun 2022 02:13:53.953,427.192
79,20 Jun 2022 12:50:50.040,20 Jun 2022 12:58:23.421,453.381
80,20 Jun 2022 14:28:24.009,20 Jun 2022 14:32:04.077,220.068
81,21 Jun 2022 00:28:57.880,21 Jun 2022 00:34:10.649,312.769
82,21 Jun 2022 02:03:29.234,21 Jun 2022 02:10:37.607,428.373
83,21 Jun 2022 12:47:33.482,21 Jun 2022 12:55:06.043,452.561
84,21 Jun 2022 14:25:04.342,21 Jun 2022 14:28:49.159,224.816
85,22 Jun 2022 00:25:42.069,22 Jun 2022 00:30:51.945,309.875
86,22 Jun 2022 02:00:11.713,22 Jun 2022 02:07:21.258,429.545
87,22 Jun 2022 12:44:16.932,22 Jun 2022 12:51:48.660,451.728
88,22 Jun 2022 14:21:44.741,22 Jun 2022 14:25:34.179,229.438
89,23 Jun 2022 00:22:26.282,23 Jun 2022 00:27:33.218,306.936
90,23 Jun 2022 01:56:54.199,23 Jun 2022 02:04:04.899,430.699
91,23 Jun 2022 12:41:00.390,23 Jun 2022 12:48:31.271,450.881
92,23 Jun 2022 14:18:25.200,23 Jun 2022 14:22:19.141,233.941
93,24 Jun 2022 00:19:10.515,24 Jun 2022 00:24:14.463,303.948
94,24 Jun 2022 01:53:36.692,24 Jun 2022 02:00:48.529,431.837
95,24 Jun 2022 12:37:43.856,24 Jun 2022 12:45:13.876,450.020
96,24 Jun 2022 14:15:05.716,24 Jun 2022 14:19:04.048,238.331
97,25 Jun 2022 00:15:54.774,25 Jun 2022 00:20:55.681,300.907
98,25 Jun 2022 01:50:19.191,25 Jun 2022 01:57:32.150,432.960
99,25 Jun 2022 12:34:27.331,25 Jun 2022 12:41:56.477,449.146
100,25 Jun 2022 14:11:46.288,25 Jun 2022 14:15:48.899,242.611
101,26 Jun 2022 00:12:39.055,26 Jun 2022 00:17:36.872,297.817
102,26 Jun 2022 01:47:01.696,26 Jun 2022 01:54:15.763,434.067
103,26 Jun 2022 12:31:10.813,26 Jun 2022 12:38:39.072,448.259
104,26 Jun 2022 14:08:26.911,26 Jun 2022 14:12:33.706,246.795
105,27 Jun 2022 00:09:23.364,27 Jun 2022 00:14:18.034,294.670
106,27 Jun 2022 01:43:44.207,27 Jun 2022 01:50:59.366,435.159
107,27 Jun 2022 12:27:54.304,27 Jun 2022 12:35:21.661,447.357
108,27 Jun 2022 14:05:07.582,27 Jun 2022 14:09:18.466,250.884
109,28 Jun 2022 00:06:07.699,28 Jun 2022 00:10:59.166,291.467
110,28 Jun 2022 01:40:26.724,28 Jun 2022 01:47:42.961,436.237
111,28 Jun 2022 12:24:37.802,28 Jun 2022 12:32:04.245,446.442
112,28 Jun 2022 14:01:48.301,28 Jun 2022 14:06:03.182,254.881
113,29 Jun 2022 00:02:52.061,29 Jun 2022 00:07:40.268,288.207
114,29 Jun 2022 01:37:09.247,29 Jun 2022 01:44:26.543,437.295
115,29 Jun 2022 12:21:21.309,29 Jun 2022 12:28:46.822,445.513
116,29 Jun 2022 13:58:29.065,29 Jun 2022 14:02:47.858,258.793
117,29 Jun 2022 23:59:36.452,30 Jun 2022 00:04:21.338,284.886
118,30 Jun 2022 01:33:51.777,30 Jun 2022 01:41:10.119,438.342
119,30 Jun 2022 12:18:04.825,30 Jun 2022 12:25:29.392,444.567
120,30 Jun 2022 13:55:09.871,30 Jun 2022 13:59:32.493,262.622
121,30 Jun 2022 23:56:20.872,1 Jul 2022 00:01:02.375,281.503
122,1 Jul 2022 01:30:34.312,1 Jul 2022 01:37:53.689,439.377
123,1 Jul 2022 12:14:48.349,1 Jul 2022 12:22:11.959,443.610
124,1 Jul 2022 13:51:50.719,1 Jul 2022 13:56:17.086,266.367
125,1 Jul 2022 23:53:05.323,1 Jul 2022 23:57:43.379,278.057
126,2 Jul 2022 01:27:16.853,2 Jul 2022 01:34:37.249,440.396
127,2 Jul 2022 12:11:31.881,2 Jul 2022 12:18:54.520,442.639
128,2 Jul 2022 13:48:31.606,2 Jul 2022 13:53:01.646,270.040
129,2 Jul 2022 23:49:49.806,2 Jul 2022 23:54:24.349,274.543
130,3 Jul 2022 01:23:59.401,3 Jul 2022 01:31:20.800,441.399
131,3 Jul 2022 12:08:15.421,3 Jul 2022 12:15:37.075,441.654
132,3 Jul 2022 13:45:12.531,3 Jul 2022 13:49:46.171,273.640
133,3 Jul 2022 23:46:34.322,3 Jul 2022 23:51:05.283,270.961
134,4 Jul 2022 01:20:41.954,4 Jul 2022 01:28:04.342,442.388
135,4 Jul 2022 12:04:58.971,4 Jul 2022 12:12:19.625,440.654
136,4 Jul 2022 13:41:53.493,4 Jul 2022 13:46:30.663,277.170
137,4 Jul 2022 23:43:18.868,4 Jul 2022 23:47:46.184,267.315
138,5 Jul 2022 01:17:24.513,5 Jul 2022 01:24:47.876,443.363
139,5 Jul 2022 12:01:42.529,5 Jul 2022 12:09:02.168,439.639
140,5 Jul 2022 13:38:34.489,5 Jul 2022 13:43:15.123,280.633
141,5 Jul 2022 23:40:03.455,5 Jul 2022 23:44:27.039,263.584
142,6 Jul 2022 01:14:07.078,6 Jul 2022 01:21:31.404,444.326
143,6 Jul 2022 11:58:26.095,6 Jul 2022 12:05:44.704,438.608
144,6 Jul 2022 13:35:15.520,6 Jul 2022 13:39:59.552,284.032
145,6 Jul 2022 23:36:48.080,6 Jul 2022 23:41:07.855,259.776
146,7 Jul 2022 01:10:49.649,7 Jul 2022 01:18:14.922,445.273
147,7 Jul 2022 11:55:09.670,7 Jul 2022 12:02:27.235,437.565
148,7 Jul 2022 13:31:56.583,7 Jul 2022 13:36:43.951,287.368
149,7 Jul 2022 23:33:32.743,7 Jul 2022 23:37:48.631,255.887
150,8 Jul 2022 01:07:32.225,8 Jul 2022 01:14:58.431,446.205
151,8 Jul 2022 11:51:53.254,8 Jul 2022 11:59:09.761,436.507
152,8 Jul 2022 13:28:37.682,8 Jul 2022 13:33:28.321,290.639
153,8 Jul 2022 23:30:17.449,8 Jul 2022 23:34:29.362,251.913
154,9 Jul 2022 01:04:14.807,9 Jul 2022 01:11:41.931,447.124
155,9 Jul 2022 11:48:36.847,9 Jul 2022 11:55:52.281,435.434
156,9 Jul 2022 13:25:18.807,9 Jul 2022 13:30:12.663,293.857
157,9 Jul 2022 23:27:02.197,9 Jul 2022 23:31:10.047,247.850
158,10 Jul 2022 01:00:57.395,10 Jul 2022 01:08:25.423,448.028
159,10 Jul 2022 11:45:20.448,10 Jul 2022 11:52:34.794,434.345
160,10 Jul 2022 13:21:59.960,10 Jul 2022 13:26:56.979,297.018
161,10 Jul 2022 23:23:46.991,10 Jul 2022 23:27:50.683,243.692
162,11 Jul 2022 00:57:39.988,11 Jul 2022 01:05:08.908,448.920
163,11 Jul 2022 11:42:04.058,11 Jul 2022 11:49:17.302,433.244
164,11 Jul 2022 13:18:41.142,11 Jul 2022 13:23:41.268,300.126
165,11 Jul 2022 23:20:31.836,11 Jul 2022 23:24:31.272,239.436
166,12 Jul 2022 00:54:22.587,12 Jul 2022 01:01:52.384,449.797
167,12 Jul 2022 11:38:47.677,12 Jul 2022 11:45:59.802,432.125
168,12 Jul 2022 13:15:22.354,12 Jul 2022 13:20:25.527,303.173
169,12 Jul 2022 23:17:16.728,12 Jul 2022 23:21:11.802,235.074
170,13 Jul 2022 00:51:05.190,13 Jul 2022 00:58:35.852,450.661
171,13 Jul 2022 11:35:31.305,13 Jul 2022 11:42:42.295,430.990
172,13 Jul 2022 13:12:03.591,13 Jul 2022 13:17:09.768,306.178
173,13 Jul 2022 23:14:01.675,13 Jul 2022 23:17:52.276,230.602
174,14 Jul 2022 00:47:47.800,14 Jul 2022 00:55:19.311,451.512
175,14 Jul 2022 11:32:14.942,14 Jul 2022 11:39:24.783,429.841
176,14 Jul 2022 13:08:44.855,14 Jul 2022 13:13:53.986,309.130
177,14 Jul 2022 23:10:46.679,14 Jul 2022 23:14:32.690,226.011
178,15 Jul 2022 00:44:30.415,15 Jul 2022 00:52:02.763,452.349
179,15 Jul 2022 11:28:58.588,15 Jul 2022 11:36:07.264,428.676
180,15 Jul 2022 13:05:26.143,15 Jul 2022 13:10:38.180,312.037
181,15 Jul 2022 23:07:31.743,15 Jul 2022 23:11:13.040,221.297
182,16 Jul 2022 00:41:13.035,16 Jul 2022 00:48:46.207,453.172
183,16 Jul 2022 11:25:42.243,16 Jul 2022 11:32:49.736,427.493
184,16 Jul 2022 13:02:07.461,16 Jul 2022 13:07:22.352,314.891
185,16 Jul 2022 23:04:16.874,16 Jul 2022 23:07:53.320,216.447
186,17 Jul 2022 00:37:55.661,17 Jul 2022 00:45:29.643,453.982
187,17 Jul 2022 11:22:25.907,17 Jul 2022 11:29:32.202,426.295
188,17 Jul 2022 12:58:48.800,17 Jul 2022 13:04:06.498,317.699
189,17 Jul 2022 23:01:02.074,17 Jul 2022 23:04:33.528,211.454
190,18 Jul 2022 00:34:38.292,18 Jul 2022 00:42:13.071,454.779
191,18 Jul 2022 11:19:09.581,18 Jul 2022 11:26:14.669,425.087
192,18 Jul 2022 12:55:30.162,18 Jul 2022 13:00:50.628,320.466
193,18 Jul 2022 22:57:47.349,18 Jul 2022 23:01:13.662,206.313
194,19 Jul 2022 00:31:20.929,19 Jul 2022 00:38:56.491,455.563
195,19 Jul 2022 11:15:53.265,19 Jul 2022 11:22:57.123,423.858
196,19 Jul 2022 12:52:11.547,19 Jul 2022 12:57:34.738,323.191
197,19 Jul 2022 22:54:32.704,19 Jul 2022 22:57:53.710,201.006
198,20 Jul 2022 00:28:03.571,20 Jul 2022 00:35:39.908,456.338
199,20 Jul 2022 11:12:36.957,20 Jul 2022 11:19:39.570,422.612
200,20 Jul 2022 12:48:52.955,20 Jul 2022 12:54:18.827,325.872
201,20 Jul 2022 22:51:18.146,20 Jul 2022 22:54:33.669,195.524
202,21 Jul 2022 00:24:46.218,21 Jul 2022 00:32:23.313,457.095
203,21 Jul 2022 11:09:20.660,21 Jul 2022 11:16:22.009,421.349
204,21 Jul 2022 12:45:34.386,21 Jul 2022 12:51:02.898,328.512
205,21 Jul 2022 22:48:03.683,21 Jul 2022 22:51:13.532,189.849
206,22 Jul 2022 00:21:28.870,22 Jul 2022 00:29:06.705,457.835
207,22 Jul 2022 11:06:04.371,22 Jul 2022 11:13:04.445,420.073
208,22 Jul 2022 12:42:15.838,22 Jul 2022 12:47:46.950,331.112
209,22 Jul 2022 22:44:49.323,22 Jul 2022 22:47:53.288,183.965
210,23 Jul 2022 00:18:11.528,23 Jul 2022 00:25:50.093,458.565
211,23 Jul 2022 11:02:48.092,23 Jul 2022 11:09:46.871,418.778
212,23 Jul 2022 12:38:57.311,23 Jul 2022 12:44:30.984,333.672
213,23 Jul 2022 22:41:35.078,23 Jul 2022 22:44:32.928,177.849
214,24 Jul 2022 00:14:54.191,24 Jul 2022 00:22:33.475,459.285
215,24 Jul 2022 10:59:31.823,24 Jul 2022 11:06:29.293,417.470
216,24 Jul 2022 12:35:38.802,24 Jul 2022 12:41:14.999,336.198
217,24 Jul 2022 22:38:20.960,24 Jul 2022 22:41:12.435,171.475
218,25 Jul 2022 00:11:36.858,25 Jul 2022 00:19:16.848,459.989
219,25 Jul 2022 10:56:15.564,25 Jul 2022 11:03:11.706,416.142
220,25 Jul 2022 12:32:20.315,25 Jul 2022 12:37:58.998,338.683
221,25 Jul 2022 22:35:06.983,25 Jul 2022 22:37:51.798,164.815
222,26 Jul 2022 00:08:19.531,26 Jul 2022 00:16:00.212,460.681
223,26 Jul 2022 10:52:59.314,26 Jul 2022 10:59:54.112,414.798
224,26 Jul 2022 12:29:01.848,26 Jul 2022 12:34:42.980,341.131
225,26 Jul 2022 22:31:53.167,26 Jul 2022 22:34:30.998,157.831
226,27 Jul 2022 00:05:02.209,27 Jul 2022 00:12:43.572,461.363
227,27 Jul 2022 10:49:43.075,27 Jul 2022 10:56:36.511,413.437
228,27 Jul 2022 12:25:43.401,27 Jul 2022 12:31:26.945,343.544
229,27 Jul 2022 22:28:39.533,27 Jul 2022 22:31:10.013,150.480
230,28 Jul 2022 00:01:44.892,28 Jul 2022 00:09:26.921,462.029
231,28 Jul 2022 10:46:26.845,28 Jul 2022 10:53:18.903,412.058
232,28 Jul 2022 12:22:24.973,28 Jul 2022 12:28:10.894,345.921
233,28 Jul 2022 22:25:26.110,28 Jul 2022 22:27:48.814,142.704
234,28 Jul 2022 23:58:27.580,29 Jul 2022 00:06:10.263,462.683
235,29 Jul 2022 10:43:10.625,29 Jul 2022 10:50:01.288,410.663
236,29 Jul 2022 12:19:06.561,29 Jul 2022 12:24:54.828,348.267
237,29 Jul 2022 22:22:12.935,29 Jul 2022 22:24:27.365,134.430
238,29 Jul 2022 23:55:10.273,30 Jul 2022 00:02:53.597,463.324
239,30 Jul 2022 10:39:54.416,30 Jul 2022 10:46:43.663,409.247
240,30 Jul 2022 12:15:48.169,30 Jul 2022 12:21:38.747,350.577
241,30 Jul 2022 22:19:00.057,30 Jul 2022 22:21:05.612,125.555
242,30 Jul 2022 23:51:52.971,30 Jul 2022 23:59:36.923,463.953
243,31 Jul 2022 10:36:38.217,31 Jul 2022 10:43:26.033,407.816
244,31 Jul 2022 12:12:29.795,31 Jul 2022 12:18:22.651,352.855
245,31 Jul 2022 22:15:47.542,31 Jul 2022 22:17:43.499,115.957
246,31 Jul 2022 23:48:35.674,31 Jul 2022 23:56:20.243,464.568
247,1 Aug 2022 10:33:22.028,1 Aug 2022 10:40:08.395,406.367
248,1 Aug 2022 12:09:11.439,1 Aug 2022 12:15:06.540,355.101
249,1 Aug 2022 22:12:35.494,1 Aug 2022 22:14:20.914,105.420
250,1 Aug 2022 23:45:18.382,1 Aug 2022 23:53:03.555,465.173
251,2 Aug 2022 10:30:05.850,2 Aug 2022 10:36:50.749,404.899
252,2 Aug 2022 12:05:53.100,2 Aug 2022 12:11:50.415,357.315
253,2 Aug 2022 22:09:24.066,2 Aug 2022 22:10:57.704,93.638
254,2 Aug 2022 23:42:01.095,2 Aug 2022 23:49:46.859,465.764
255,3 Aug 2022 10:26:49.683,3 Aug 2022 10:33:33.096,403.413
256,3 Aug 2022 12:02:34.777,3 Aug 2022 12:08:34.275,359.497
257,3 Aug 2022 22:06:13.536,3 Aug 2022 22:07:33.591,80.056
258,3 Aug 2022 23:38:43.813,3 Aug 2022 23:46:30.156,466.343
259,4 Aug 2022 10:23:33.526,4 Aug 2022 10:30:15.432,401.906
260,4 Aug 2022 11:59:16.469,4 Aug 2022 12:05:18.119,361.650
261,4 Aug 2022 22:03:04.474,4 Aug 2022 22:04:08.011,63.537
262,4 Aug 2022 23:35:26.536,4 Aug 2022 23:43:13.446,466.910
263,5 Aug 2022 10:20:17.380,5 Aug 2022 10:26:57.763,400.383
264,5 Aug 2022 11:55:58.179,5 Aug 2022 12:02:01.951,363.772
265,5 Aug 2022 21:59:58.593,5 Aug 2022 22:00:39.245,40.652
266,5 Aug 2022 23:32:09.264,5 Aug 2022 23:39:56.728,467.464
267,6 Aug 2022 10:17:01.245,6 Aug 2022 10:23:40.085,398.840
268,6 Aug 2022 11:52:39.905,6 Aug 2022 11:58:45.770,365.865
269,6 Aug 2022 23:28:51.997,6 Aug 2022 23:36:40.002,468.006
270,7 Aug 2022 10:13:45.120,7 Aug 2022 10:20:22.399,397.279
271,7 Aug 2022 11:49:21.647,7 Aug 2022 11:55:29.576,367.929
272,7 Aug 2022 23:25:34.734,7 Aug 2022 23:33:23.269,468.535
273,8 Aug 2022 10:10:29.007,8 Aug 2022 10:17:04.704,395.698
274,8 Aug 2022 11:46:03.404,8 Aug 2022 11:52:13.368,369.964
275,8 Aug 2022 23:22:17.476,8 Aug 2022 23:30:06.528,469.053
276,9 Aug 2022 10:07:12.904,9 Aug 2022 10:13:47.003,394.099
277,9 Aug 2022 11:42:45.176,9 Aug 2022 11:48:57.151,371.975
278,9 Aug 2022 23:19:00.222,9 Aug 2022 23:26:49.780,469.558
279,10 Aug 2022 10:03:56.813,10 Aug 2022 10:10:29.291,392.477
280,10 Aug 2022 11:39:26.964,10 Aug 2022 11:45:40.919,373.955
281,10 Aug 2022 23:15:42.974,10 Aug 2022 23:23:33.025,470.051
282,11 Aug 2022 10:00:40.734,11 Aug 2022 10:07:11.570,390.836
283,11 Aug 2022 11:36:08.766,11 Aug 2022 11:42:24.675,375.909
284,11 Aug 2022 23:12:25.730,11 Aug 2022 23:20:16.262,470.532
285,12 Aug 2022 09:57:24.666,12 Aug 2022 10:03:53.841,389.175
286,12 Aug 2022 11:32:50.583,12 Aug 2022 11:39:08.418,377.835
287,12 Aug 2022 23:09:08.491,12 Aug 2022 23:16:59.492,471.000
288,13 Aug 2022 09:54:08.609,13 Aug 2022 10:00:36.102,387.493
289,13 Aug 2022 11:29:32.415,13 Aug 2022 11:35:52.155,379.740
290,13 Aug 2022 23:05:51.257,13 Aug 2022 23:13:42.714,471.457
291,14 Aug 2022 09:50:52.565,14 Aug 2022 09:57:18.353,385.788
292,14 Aug 2022 11:26:14.261,14 Aug 2022 11:32:35.872,381.612
293,14 Aug 2022 23:02:34.028,14 Aug 2022 23:10:25.930,471.901
294,15 Aug 2022 09:47:36.533,15 Aug 2022 09:54:00.595,384.062
295,15 Aug 2022 11:22:56.120,15 Aug 2022 11:29:19.583,383.463
296,15 Aug 2022 22:59:16.804,15 Aug 2022 23:07:09.138,472.334
297,16 Aug 2022 09:44:20.513,16 Aug 2022 09:50:42.828,382.315
298,16 Aug 2022 11:19:37.994,16 Aug 2022 11:26:03.284,385.290
299,16 Aug 2022 22:55:59.584,16 Aug 2022 23:03:52.339,472.755
300,17 Aug 2022 09:41:04.505,17 Aug 2022 09:47:25.057,380.552
301,17 Aug 2022 11:16:19.881,17 Aug 2022 11:22:46.975,387.094
302,17 Aug 2022 22:52:42.369,17 Aug 2022 23:00:35.534,473.165
303,18 Aug 2022 09:37:48.510,18 Aug 2022 09:44:07.271,378.762
304,18 Aug 2022 11:13:01.782,18 Aug 2022 11:19:30.653,388.871
305,18 Aug 2022 22:49:25.159,18 Aug 2022 22:57:18.720,473.561
306,19 Aug 2022 09:34:32.527,19 Aug 2022 09:40:49.475,376.949
307,19 Aug 2022 11:09:43.696,19 Aug 2022 11:16:14.320,390.624
308,19 Aug 2022 22:46:07.953,19 Aug 2022 22:54:01.899,473.946
309,20 Aug 2022 09:31:16.556,20 Aug 2022 09:37:31.669,375.113
310,20 Aug 2022 11:06:25.623,20 Aug 2022 11:12:57.977,392.354
311,20 Aug 2022 22:42:50.752,20 Aug 2022 22:50:45.073,474.321
312,21 Aug 2022 09:28:00.599,21 Aug 2022 09:34:13.853,373.254
313,21 Aug 2022 11:03:07.562,21 Aug 2022 11:09:41.623,394.061
314,21 Aug 2022 22:39:33.556,21 Aug 2022 22:47:28.233,474.677
315,22 Aug 2022 09:24:44.654,22 Aug 2022 09:30:56.027,371.373
316,22 Aug 2022 10:59:49.515,22 Aug 2022 11:06:25.257,395.743
317,22 Aug 2022 22:36:16.364,22 Aug 2022 22:44:11.391,475.028
318,23 Aug 2022 09:21:28.722,23 Aug 2022 09:27:38.189,369.466
319,23 Aug 2022 10:56:31.480,23 Aug 2022 11:03:08.883,397.404
320,23 Aug 2022 22:32:59.176,23 Aug 2022 22:40:54.544,475.368
321,24 Aug 2022 09:18:12.804,24 Aug 2022 09:24:20.343,367.538
322,24 Aug 2022 10:53:13.457,24 Aug 2022 10:59:52.499,399.042
323,24 Aug 2022 22:29:41.993,24 Aug 2022 22:37:37.687,475.694
324,25 Aug 2022 09:14:56.900,25 Aug 2022 09:21:02.486,365.586
325,25 Aug 2022 10:49:55.447,25 Aug 2022 10:56:36.105,400.658
326,25 Aug 2022 22:26:24.815,25 Aug 2022 22:34:20.822,476.007
327,26 Aug 2022 09:11:41.009,26 Aug 2022 09:17:44.618,363.609
328,26 Aug 2022 10:46:37.449,26 Aug 2022 10:53:19.702,402.253
329,26 Aug 2022 22:23:07.642,26 Aug 2022 22:31:03.951,476.309
330,27 Aug 2022 09:08:25.132,27 Aug 2022 09:14:26.739,361.606
331,27 Aug 2022 10:43:19.464,27 Aug 2022 10:50:03.292,403.829
332,27 Aug 2022 22:19:50.473,27 Aug 2022 22:27:47.072,476.599
333,28 Aug 2022 09:05:09.270,28 Aug 2022 09:11:08.850,359.580
334,28 Aug 2022 10:40:01.490,28 Aug 2022 10:46:46.871,405.381
335,28 Aug 2022 22:16:33.309,28 Aug 2022 22:24:30.186,476.877
336,29 Aug 2022 09:01:53.422,29 Aug 2022 09:07:50.947,357.525
337,29 Aug 2022 10:36:43.528,29 Aug 2022 10:43:30.441,406.913
338,29 Aug 2022 22:13:16.150,29 Aug 2022 22:21:13.293,477.143
339,30 Aug 2022 08:58:37.589,30 Aug 2022 09:04:33.032,355.444
340,30 Aug 2022 10:33:25.578,30 Aug 2022 10:40:14.001,408.423
341,30 Aug 2022 22:09:58.995,30 Aug 2022 22:17:56.393,477.398
342,31 Aug 2022 08:55:21.773,31 Aug 2022 09:01:15.104,353.331
343,31 Aug 2022 10:30:07.639,31 Aug 2022 10:36:57.553,409.914
344,31 Aug 2022 22:06:41.844,31 Aug 2022 22:14:39.485,477.641
345,1 Sep 2022 08:52:05.969,1 Sep 2022 08:57:57.164,351.195
346,1 Sep 2022 10:26:49.712,1 Sep 2022 10:33:41.099,411.387
347,1 Sep 2022 22:03:24.699,1 Sep 2022 22:11:22.571,477.872
348,2 Sep 2022 08:48:50.181,2 Sep 2022 08:54:39.211,349.030
349,2 Sep 2022 10:23:31.796,2 Sep 2022 10:30:24.634,412.838
350,2 Sep 2022 22:00:07.557,2 Sep 2022 22:08:05.645,478.088
351,3 Sep 2022 08:45:34.409,3 Sep 2022 08:51:21.246,346.837
352,3 Sep 2022 10:20:13.891,3 Sep 2022 10:27:08.160,414.269
353,3 Sep 2022 21:56:50.421,3 Sep 2022 22:04:48.716,478.295
354,4 Sep 2022 08:42:18.652,4 Sep 2022 08:48:03.267,344.616
355,4 Sep 2022 10:16:55.997,4 Sep 2022 10:23:51.677,415.680
356,4 Sep 2022 21:53:33.288,4 Sep 2022 22:01:31.779,478.491
357,5 Sep 2022 08:39:02.913,5 Sep 2022 08:44:45.276,342.362
358,5 Sep 2022 10:13:38.114,5 Sep 2022 10:20:35.187,417.073
359,5 Sep 2022 21:50:16.160,5 Sep 2022 21:58:14.837,478.677
360,6 Sep 2022 08:35:47.188,6 Sep 2022 08:41:27.270,340.082
361,6 Sep 2022 10:10:20.242,6 Sep 2022 10:17:18.687,418.445
362,6 Sep 2022 21:46:59.037,6 Sep 2022 21:54:57.887,478.850
363,7 Sep 2022 08:32:31.480,7 Sep 2022 08:38:09.251,337.772
364,7 Sep 2022 10:07:02.381,7 Sep 2022 10:14:02.181,419.800
365,7 Sep 2022 21:43:41.918,7 Sep 2022 21:51:40.929,479.011
366,8 Sep 2022 08:29:15.788,8 Sep 2022 08:34:51.218,335.430
367,8 Sep 2022 10:03:44.530,8 Sep 2022 10:10:45.665,421.135
368,8 Sep 2022 21:40:24.804,8 Sep 2022 21:48:23.963,479.160
369,9 Sep 2022 08:26:00.114,9 Sep 2022 08:31:33.171,333.057
370,9 Sep 2022 10:00:26.690,9 Sep 2022 10:07:29.144,422.454
371,9 Sep 2022 21:37:07.694,9 Sep 2022 21:45:06.991,479.297
372,10 Sep 2022 08:22:44.463,10 Sep 2022 08:28:15.109,330.646
373,10 Sep 2022 09:57:08.861,10 Sep 2022 10:04:12.615,423.754
374,10 Sep 2022 21:33:50.589,10 Sep 2022 21:41:50.012,479.423
375,11 Sep 2022 08:19:28.825,11 Sep 2022 08:24:57.031,328.206
376,11 Sep 2022 09:53:51.042,11 Sep 2022 10:00:56.078,425.036
377,11 Sep 2022 21:30:33.489,11 Sep 2022 21:38:33.026,479.538
378,12 Sep 2022 08:16:13.206,12 Sep 2022 08:21:38.938,325.732
379,12 Sep 2022 09:50:33.234,12 Sep 2022 09:57:39.528,426.294
380,12 Sep 2022 21:27:16.393,12 Sep 2022 21:35:16.033,479.640
381,13 Sep 2022 08:12:57.607,13 Sep 2022 08:18:20.829,323.222
382,13 Sep 2022 09:47:15.435,13 Sep 2022 09:54:22.976,427.540
383,13 Sep 2022 21:23:59.302,13 Sep 2022 21:31:59.033,479.731
384,14 Sep 2022 08:09:42.027,14 Sep 2022 08:15:02.703,320.677
385,14 Sep 2022 09:43:57.647,14 Sep 2022 09:51:06.418,428.771
386,14 Sep 2022 21:20:42.215,14 Sep 2022 21:28:42.026,479.810
387,15 Sep 2022 08:06:26.466,15 Sep 2022 08:11:44.560,318.094
388,15 Sep 2022 09:40:39.869,15 Sep 2022 09:47:49.851,429.982
389,15 Sep 2022 21:17:25.133,15 Sep 2022 21:25:25.011,479.878
390,16 Sep 2022 08:03:10.927,16 Sep 2022 08:08:26.399,315.473
391,16 Sep 2022 09:37:22.101,16 Sep 2022 09:44:33.276,431.175
392,16 Sep 2022 21:14:08.055,16 Sep 2022 21:22:07.989,479.934
393,17 Sep 2022 07:59:55.408,17 Sep 2022 08:05:08.221,312.813
394,17 Sep 2022 09:34:04.343,17 Sep 2022 09:41:16.693,432.350
395,17 Sep 2022 21:10:50.982,17 Sep 2022 21:18:50.960,479.979
396,18 Sep 2022 07:56:39.910,18 Sep 2022 08:01:50.023,310.113
397,18 Sep 2022 09:30:46.594,18 Sep 2022 09:38:00.103,433.509
398,18 Sep 2022 21:07:33.913,18 Sep 2022 21:15:33.924,480.011
399,19 Sep 2022 07:53:24.429,19 Sep 2022 07:58:31.812,307.382
400,19 Sep 2022 09:27:28.855,19 Sep 2022 09:34:43.506,434.651
401,19 Sep 2022 21:04:16.849,19 Sep 2022 21:12:16.881,480.033
402,20 Sep 2022 07:50:08.976,20 Sep 2022 07:55:13.576,304.600
403,20 Sep 2022 09:24:11.126,20 Sep 2022 09:31:26.899,435.774
404,20 Sep 2022 21:00:59.789,20 Sep 2022 21:08:59.831,480.042
405,21 Sep 2022 07:46:53.543,21 Sep 2022 07:51:55.321,301.777
406,21 Sep 2022 09:20:53.406,21 Sep 2022 09:28:10.288,436.881
407,21 Sep 2022 20:57:42.734,21 Sep 2022 21:05:42.774,480.040
408,22 Sep 2022 07:43:38.136,22 Sep 2022 07:48:37.048,298.912
409,22 Sep 2022 09:17:35.696,22 Sep 2022 09:24:53.669,437.973
410,22 Sep 2022 20:54:25.683,22 Sep 2022 21:02:25.709,480.026
411,23 Sep 2022 07:40:22.749,23 Sep 2022 07:45:18.752,296.003
412,23 Sep 2022 09:14:17.996,23 Sep 2022 09:21:37.044,439.048
413,23 Sep 2022 20:51:08.637,23 Sep 2022 20:59:08.638,480.001
414,24 Sep 2022 07:37:07.390,24 Sep 2022 07:42:00.434,293.044
415,24 Sep 2022 09:11:00.305,24 Sep 2022 09:18:20.411,440.106
416,24 Sep 2022 20:47:51.596,24 Sep 2022 20:55:51.559,479.963
417,25 Sep 2022 07:33:52.055,25 Sep 2022 07:38:42.093,290.037
418,25 Sep 2022 09:07:42.624,25 Sep 2022 09:15:03.775,441.152
419,25 Sep 2022 20:44:34.559,25 Sep 2022 20:52:34.474,479.914
420,26 Sep 2022 07:30:36.746,26 Sep 2022 07:35:23.729,286.983
421,26 Sep 2022 09:04:24.951,26 Sep 2022 09:11:47.130,442.179
422,26 Sep 2022 20:41:17.527,26 Sep 2022 20:49:17.381,479.854
423,27 Sep 2022 07:27:21.464,27 Sep 2022 07:32:05.341,283.877
424,27 Sep 2022 09:01:07.288,27 Sep 2022 09:08:30.479,443.190
425,27 Sep 2022 20:38:00.500,27 Sep 2022 20:46:00.281,479.781
426,28 Sep 2022 07:24:06.210,28 Sep 2022 07:28:46.928,280.718
427,28 Sep 2022 08:57:49.635,28 Sep 2022 09:05:13.821,444.187
428,28 Sep 2022 20:34:43.477,28 Sep 2022 20:42:43.174,479.697
429,29 Sep 2022 07:20:50.984,29 Sep 2022 07:25:28.489,277.505
430,29 Sep 2022 08:54:31.990,29 Sep 2022 09:01:57.156,445.167
431,29 Sep 2022 20:31:26.458,29 Sep 2022 20:39:26.060,479.602
432,30 Sep 2022 07:17:35.784,30 Sep 2022 07:22:10.023,274.240
433,30 Sep 2022 08:51:14.354,30 Sep 2022 08:58:40.488,446.134
434,30 Sep 2022 20:28:09.444,30 Sep 2022 20:36:08.938,479.494
435,1 Oct 2022 07:14:20.618,1 Oct 2022 07:18:51.530,270.912
436,1 Oct 2022 08:47:56.727,1 Oct 2022 08:55:23.811,447.084
437,1 Oct 2022 20:24:52.435,1 Oct 2022 20:32:51.810,479.375
438,2 Oct 2022 07:11:05.484,2 Oct 2022 07:15:33.013,267.529
439,2 Oct 2022 08:44:39.109,2 Oct 2022 08:52:07.127,448.018
440,2 Oct 2022 20:21:35.430,2 Oct 2022 20:29:34.673,479.243
441,3 Oct 2022 07:07:50.382,3 Oct 2022 07:12:14.458,264.075
442,3 Oct 2022 08:41:21.499,3 Oct 2022 08:48:50.437,448.938
443,3 Oct 2022 20:18:18.430,3 Oct 2022 20:26:17.530,479.100
444,4 Oct 2022 07:04:35.315,4 Oct 2022 07:08:55.875,260.560
445,4 Oct 2022 08:38:03.899,4 Oct 2022 08:45:33.741,449.842
446,4 Oct 2022 20:15:01.434,4 Oct 2022 20:23:00.380,478.946
447,5 Oct 2022 07:01:20.282,5 Oct 2022 07:05:37.258,256.976
448,5 Oct 2022 08:34:46.307,5 Oct 2022 08:42:17.038,450.731
449,5 Oct 2022 20:11:44.443,5 Oct 2022 20:19:43.219,478.776
450,6 Oct 2022 06:58:05.287,6 Oct 2022 07:02:18.609,253.322
451,6 Oct 2022 08:31:28.724,6 Oct 2022 08:39:00.330,451.605
452,6 Oct 2022 20:08:27.457,6 Oct 2022 20:16:26.055,478.598
453,7 Oct 2022 06:54:50.330,7 Oct 2022 06:58:59.925,249.595
454,7 Oct 2022 08:28:11.150,7 Oct 2022 08:35:43.616,452.466
455,7 Oct 2022 20:05:10.475,7 Oct 2022 20:13:08.887,478.411
456,8 Oct 2022 06:51:35.413,8 Oct 2022 06:55:41.203,245.790
457,8 Oct 2022 08:24:53.585,8 Oct 2022 08:32:26.896,453.311
458,8 Oct 2022 20:01:53.499,8 Oct 2022 20:09:51.707,478.209
459,9 Oct 2022 06:48:20.538,9 Oct 2022 06:52:22.443,241.905
460,9 Oct 2022 08:21:36.028,9 Oct 2022 08:29:10.170,454.142
461,9 Oct 2022 19:58:36.527,9 Oct 2022 20:06:34.521,477.994
462,10 Oct 2022 06:45:05.707,10 Oct 2022 06:49:03.642,237.935
463,10 Oct 2022 08:18:18.480,10 Oct 2022 08:25:53.439,454.959
464,10 Oct 2022 19:55:19.560,10 Oct 2022 20:03:17.327,477.767
465,11 Oct 2022 06:41:50.922,11 Oct 2022 06:45:44.797,233.875
466,11 Oct 2022 08:15:00.940,11 Oct 2022 08:22:36.703,455.762
467,11 Oct 2022 19:52:02.597,11 Oct 2022 20:00:00.126,477.529
468,12 Oct 2022 06:38:36.186,12 Oct 2022 06:42:25.910,229.724
469,12 Oct 2022 08:11:43.409,12 Oct 2022 08:19:19.958,456.549
470,12 Oct 2022 19:48:45.639,12 Oct 2022 19:56:42.917,477.278
471,13 Oct 2022 06:35:21.499,13 Oct 2022 06:39:06.973,225.474
472,13 Oct 2022 08:08:25.886,13 Oct 2022 08:16:03.211,457.325
473,13 Oct 2022 19:45:28.686,13 Oct 2022 19:53:25.701,477.015
474,14 Oct 2022 06:32:06.867,14 Oct 2022 06:35:47.983,221.116
475,14 Oct 2022 08:05:08.372,14 Oct 2022 08:12:46.456,458.084
476,14 Oct 2022 19:42:11.737,14 Oct 2022 19:50:08.478,476.740
477,15 Oct 2022 06:28:52.292,15 Oct 2022 06:32:28.938,216.646
478,15 Oct 2022 08:01:50.865,15 Oct 2022 08:09:29.695,458.829
479,15 Oct 2022 19:38:54.793,15 Oct 2022 19:46:51.247,476.454
480,16 Oct 2022 06:25:37.777,16 Oct 2022 06:29:09.834,212.057
481,16 Oct 2022 07:58:33.367,16 Oct 2022 08:06:12.927,459.560
482,16 Oct 2022 19:35:37.854,16 Oct 2022 19:43:34.009,476.154
483,17 Oct 2022 06:22:23.326,17 Oct 2022 06:25:50.672,207.346
484,17 Oct 2022 07:55:15.877,17 Oct 2022 08:02:56.157,460.280
485,17 Oct 2022 19:32:20.920,17 Oct 2022 19:40:16.762,475.842
486,18 Oct 2022 06:19:08.944,18 Oct 2022 06:22:31.443,202.499
487,18 Oct 2022 07:51:58.395,18 Oct 2022 07:59:39.379,460.984
488,18 Oct 2022 19:29:03.991,18 Oct 2022 19:36:59.506,475.516
489,19 Oct 2022 06:15:54.636,19 Oct 2022 06:19:12.144,197.509
490,19 Oct 2022 07:48:40.922,19 Oct 2022 07:56:22.595,461.673
491,19 Oct 2022 19:25:47.066,19 Oct 2022 19:33:42.249,475.183
492,20 Oct 2022 06:12:40.406,20 Oct 2022 06:15:52.770,192.363
493,20 Oct 2022 07:45:23.456,20 Oct 2022 07:53:05.806,462.350
494,20 Oct 2022 19:22:30.146,20 Oct 2022 19:30:24.981,474.835
495,21 Oct 2022 06:09:26.263,21 Oct 2022 06:12:33.313,187.050
496,21 Oct 2022 07:42:05.999,21 Oct 2022 07:49:49.014,463.015
497,21 Oct 2022 19:19:13.231,21 Oct 2022 19:27:07.704,474.473
498,22 Oct 2022 06:06:12.212,22 Oct 2022 06:09:13.767,181.555
499,22 Oct 2022 07:38:48.550,22 Oct 2022 07:46:32.214,463.664
500,22 Oct 2022 19:15:56.322,22 Oct 2022 19:23:50.421,474.100
501,23 Oct 2022 06:02:58.263,23 Oct 2022 06:05:54.122,175.859
502,23 Oct 2022 07:35:31.109,23 Oct 2022 07:43:15.409,464.300
503,23 Oct 2022 19:12:39.417,23 Oct 2022 19:20:33.132,473.715
504,24 Oct 2022 05:59:44.427,24 Oct 2022 06:02:34.367,169.941
505,24 Oct 2022 07:32:13.676,24 Oct 2022 07:39:58.598,464.922
506,24 Oct 2022 19:09:22.517,24 Oct 2022 19:17:15.833,473.316
507,25 Oct 2022 05:56:30.714,25 Oct 2022 05:59:14.491,163.778
508,25 Oct 2022 07:28:56.251,25 Oct 2022 07:36:41.782,465.531
509,25 Oct 2022 19:06:05.622,25 Oct 2022 19:13:58.527,472.906
510,26 Oct 2022 05:53:17.139,26 Oct 2022 05:55:54.480,157.341
511,26 Oct 2022 07:25:38.834,26 Oct 2022 07:33:24.961,466.127
512,26 Oct 2022 19:02:48.731,26 Oct 2022 19:10:41.215,472.483
513,27 Oct 2022 05:50:03.720,27 Oct 2022 05:52:34.315,150.595
514,27 Oct 2022 07:22:21.425,27 Oct 2022 07:30:08.135,466.710
515,27 Oct 2022 18:59:31.846,27 Oct 2022 19:07:23.895,472.048
516,27 Oct 2022 20:38:11.934,27 Oct 2022 20:38:28.468,16.534
517,28 Oct 2022 05:46:50.478,28 Oct 2022 05:49:13.976,143.498
518,28 Oct 2022 07:19:04.024,28 Oct 2022 07:26:51.304,467.280
519,28 Oct 2022 18:56:14.966,28 Oct 2022 19:04:06.567,471.601
520,28 Oct 2022 20:34:38.662,28 Oct 2022 20:35:28.191,49.528
521,29 Oct 2022 05:43:37.441,29 Oct 2022 05:45:53.436,135.994
522,29 Oct 2022 07:15:46.630,29 Oct 2022 07:23:34.467,467.837
523,29 Oct 2022 18:52:58.090,29 Oct 2022 19:00:49.231,471.141
524,29 Oct 2022 20:31:12.650,29 Oct 2022 20:32:20.647,67.997
525,30 Oct 2022 05:40:24.645,30 Oct 2022 05:42:32.657,128.012
526,30 Oct 2022 07:12:29.244,30 Oct 2022 07:20:17.625,468.381
527,30 Oct 2022 18:49:41.220,30 Oct 2022 18:57:31.888,470.668
528,30 Oct 2022 20:27:48.687,30 Oct 2022 20:29:11.051,82.363
529,31 Oct 2022 05:37:12.135,31 Oct 2022 05:39:11.593,119.458
530,31 Oct 2022 07:09:11.866,31 Oct 2022 07:17:00.777,468.912
531,31 Oct 2022 18:46:24.354,31 Oct 2022 18:54:14.536,470.182
532,31 Oct 2022 20:24:25.827,31 Oct 2022 20:26:00.353,94.526
533,1 Nov 2022 05:33:59.981,1 Nov 2022 05:35:50.174,110.193
534,1 Nov 2022 07:05:54.495,1 Nov 2022 07:13:43.925,469.430
535,1 Nov 2022 18:43:07.494,1 Nov 2022 18:50:57.178,469.684
536,1 Nov 2022 20:21:03.685,1 Nov 2022 20:22:48.928,105.243
537,2 Nov 2022 05:30:48.280,2 Nov 2022 05:32:28.314,100.034
538,2 Nov 2022 07:02:37.133,2 Nov 2022 07:10:27.067,469.935
539,2 Nov 2022 18:39:50.639,2 Nov 2022 18:47:39.811,469.172
540,2 Nov 2022 20:17:42.060,2 Nov 2022 20:19:36.985,114.925
541,3 Nov 2022 05:27:37.184,3 Nov 2022 05:29:05.844,88.661
542,3 Nov 2022 06:59:19.778,3 Nov 2022 07:07:10.205,470.427
543,3 Nov 2022 18:36:33.789,3 Nov 2022 18:44:22.437,468.648
544,3 Nov 2022 20:14:20.833,3 Nov 2022 20:16:24.642,123.809
545,4 Nov 2022 05:24:26.971,4 Nov 2022 05:25:42.493,75.522
546,4 Nov 2022 06:56:02.431,4 Nov 2022 07:03:53.337,470.906
547,4 Nov 2022 18:33:16.945,4 Nov 2022 18:41:05.055,468.111
548,4 Nov 2022 20:10:59.920,4 Nov 2022 20:13:11.977,132.058
549,5 Nov 2022 05:21:18.218,5 Nov 2022 05:22:17.693,59.475
550,5 Nov 2022 06:52:45.091,5 Nov 2022 07:00:36.465,471.373
551,5 Nov 2022 18:30:00.105,5 Nov 2022 18:37:47.666,467.561
552,5 Nov 2022 20:07:39.268,5 Nov 2022 20:09:59.057,139.789
553,6 Nov 2022 05:18:12.731,6 Nov 2022 05:18:49.626,36.895
554,6 Nov 2022 06:49:27.760,6 Nov 2022 06:57:19.587,471.827
555,6 Nov 2022 18:26:43.271,6 Nov 2022 18:34:30.269,466.997
556,6 Nov 2022 20:04:18.833,6 Nov 2022 20:06:45.912,147.079
557,7 Nov 2022 06:46:10.436,7 Nov 2022 06:54:02.704,472.269
558,7 Nov 2022 18:23:26.442,7 Nov 2022 18:31:12.863,466.421
559,7 Nov 2022 20:00:58.586,7 Nov 2022 20:03:32.577,153.991
560,8 Nov 2022 06:42:53.119,8 Nov 2022 06:50:45.818,472.698
561,8 Nov 2022 18:20:09.619,8 Nov 2022 18:27:55.450,465.832
562,8 Nov 2022 19:57:38.502,8 Nov 2022 20:00:19.076,160.574
563,9 Nov 2022 06:39:35.811,9 Nov 2022 06:47:28.926,473.116
564,9 Nov 2022 18:16:52.800,9 Nov 2022 18:24:38.030,465.229
565,9 Nov 2022 19:54:18.561,9 Nov 2022 19:57:05.429,166.868
566,10 Nov 2022 06:36:18.509,10 Nov 2022 06:44:12.029,473.519
567,10 Nov 2022 18:13:35.987,10 Nov 2022 18:21:20.601,464.614
568,10 Nov 2022 19:50:58.748,10 Nov 2022 19:53:51.651,172.903
569,11 Nov 2022 06:33:01.215,11 Nov 2022 06:40:55.126,473.911
570,11 Nov 2022 18:10:19.179,11 Nov 2022 18:18:03.165,463.985
571,11 Nov 2022 19:47:39.049,11 Nov 2022 19:50:37.756,178.707
572,12 Nov 2022 06:29:43.929,12 Nov 2022 06:37:38.221,474.292
573,12 Nov 2022 18:07:02.377,12 Nov 2022 18:14:45.720,463.343
574,12 Nov 2022 19:44:19.453,12 Nov 2022 19:47:23.752,184.299
575,13 Nov 2022 06:26:26.650,13 Nov 2022 06:34:21.307,474.658
576,13 Nov 2022 18:03:45.580,13 Nov 2022 18:11:28.267,462.688
577,13 Nov 2022 19:40:59.952,13 Nov 2022 19:44:09.652,189.701
578,14 Nov 2022 06:23:09.378,14 Nov 2022 06:31:04.388,475.010
579,14 Nov 2022 18:00:28.788,14 Nov 2022 18:08:10.804,462.016
580,14 Nov 2022 19:37:40.536,14 Nov 2022 19:40:55.464,194.927
581,15 Nov 2022 06:19:52.114,15 Nov 2022 06:27:47.468,475.354
582,15 Nov 2022 17:57:12.002,15 Nov 2022 18:04:53.335,461.333
583,15 Nov 2022 19:34:21.200,15 Nov 2022 19:37:41.194,199.993
584,16 Nov 2022 06:16:34.857,16 Nov 2022 06:24:30.543,475.686
585,16 Nov 2022 17:53:55.221,16 Nov 2022 18:01:35.858,460.637
586,16 Nov 2022 19:31:01.938,16 Nov 2022 19:34:26.847,204.909
587,17 Nov 2022 06:13:17.608,17 Nov 2022 06:21:13.611,476.003
588,17 Nov 2022 17:50:38.446,17 Nov 2022 17:58:18.373,459.927
589,17 Nov 2022 19:27:42.744,17 Nov 2022 19:31:12.432,209.688
590,18 Nov 2022 06:10:00.366,18 Nov 2022 06:17:56.674,476.308
591,18 Nov 2022 17:47:21.677,18 Nov 2022 17:55:00.878,459.201
592,18 Nov 2022 19:24:23.613,18 Nov 2022 19:27:57.947,214.334
593,19 Nov 2022 06:06:43.132,19 Nov 2022 06:14:39.733,476.601
594,19 Nov 2022 17:44:04.914,19 Nov 2022 17:51:43.377,458.463
595,19 Nov 2022 19:21:04.542,19 Nov 2022 19:24:43.403,218.861
596,20 Nov 2022 06:03:25.905,20 Nov 2022 06:11:22.787,476.882
597,20 Nov 2022 17:40:48.156,20 Nov 2022 17:48:25.870,457.715
598,20 Nov 2022 19:17:45.528,20 Nov 2022 19:21:28.802,223.274
599,21 Nov 2022 06:00:08.685,21 Nov 2022 06:08:05.836,477.151
600,21 Nov 2022 17:37:31.404,21 Nov 2022 17:45:08.349,456.945
601,21 Nov 2022 19:14:26.565,21 Nov 2022 19:18:14.141,227.576
602,22 Nov 2022 05:56:51.473,22 Nov 2022 06:04:48.881,477.408
603,22 Nov 2022 17:34:14.657,22 Nov 2022 17:41:50.821,456.164
604,22 Nov 2022 19:11:07.652,22 Nov 2022 19:14:59.429,231.777
605,23 Nov 2022 05:53:34.268,23 Nov 2022 06:01:31.919,477.650
606,23 Nov 2022 17:30:57.917,23 Nov 2022 17:38:33.285,455.369
607,23 Nov 2022 19:07:48.786,23 Nov 2022 19:11:44.667,235.882
608,24 Nov 2022 05:50:17.071,24 Nov 2022 05:58:14.954,477.883
609,24 Nov 2022 17:27:41.182,24 Nov 2022 17:35:15.742,454.560
610,24 Nov 2022 19:04:29.963,24 Nov 2022 19:08:29.855,239.891
611,25 Nov 2022 05:46:59.880,25 Nov 2022 05:54:57.983,478.103
612,25 Nov 2022 17:24:24.452,25 Nov 2022 17:31:58.189,453.737
613,25 Nov 2022 19:01:11.183,25 Nov 2022 19:05:15.000,243.817
614,26 Nov 2022 05:43:42.697,26 Nov 2022 05:51:41.009,478.311
615,26 Nov 2022 17:21:07.729,26 Nov 2022 17:28:40.628,452.899
616,26 Nov 2022 18:57:52.442,26 Nov 2022 19:02:00.104,247.661
617,27 Nov 2022 05:40:25.521,27 Nov 2022 05:48:24.029,478.508
618,27 Nov 2022 17:17:51.011,27 Nov 2022 17:25:23.058,452.047
619,27 Nov 2022 18:54:33.740,27 Nov 2022 18:58:45.166,251.427
620,28 Nov 2022 05:37:08.352,28 Nov 2022 05:45:07.044,478.692
621,28 Nov 2022 17:14:34.300,28 Nov 2022 17:22:05.480,451.180
622,28 Nov 2022 18:51:15.073,28 Nov 2022 18:55:30.189,255.117
623,29 Nov 2022 05:33:51.191,29 Nov 2022 05:41:50.055,478.865
624,29 Nov 2022 17:11:17.595,29 Nov 2022 17:18:47.893,450.298
625,29 Nov 2022 18:47:56.445,29 Nov 2022 18:52:15.175,258.730
626,30 Nov 2022 05:30:34.036,30 Nov 2022 05:38:33.062,479.025
627,30 Nov 2022 17:08:00.896,30 Nov 2022 17:15:30.297,449.401
628,30 Nov 2022 18:44:37.847,30 Nov 2022 18:49:00.126,262.279
629,1 Dec 2022 05:27:16.889,1 Dec 2022 05:35:16.066,479.177
630,1 Dec 2022 17:04:44.203,1 Dec 2022 17:12:12.693,448.490
631,1 Dec 2022 18:41:19.280,1 Dec 2022 18:45:45.042,265.762
632,2 Dec 2022 05:23:59.750,2 Dec 2022 05:31:59.064,479.314
633,2 Dec 2022 17:01:27.516,2 Dec 2022 17:08:55.080,447.564
634,2 Dec 2022 18:38:00.744,2 Dec 2022 18:42:29.927,269.183
635,3 Dec 2022 05:20:42.618,3 Dec 2022 05:28:42.057,479.439
636,3 Dec 2022 16:58:10.836,3 Dec 2022 17:05:37.458,446.622
637,3 Dec 2022 18:34:42.237,3 Dec 2022 18:39:14.773,272.536
638,4 Dec 2022 05:17:25.493,4 Dec 2022 05:25:25.045,479.552
639,4 Dec 2022 16:54:54.162,4 Dec 2022 17:02:19.828,445.666
640,4 Dec 2022 18:31:23.759,4 Dec 2022 18:35:59.592,275.833
641,5 Dec 2022 05:14:08.375,5 Dec 2022 05:22:08.029,479.654
642,5 Dec 2022 16:51:37.495,5 Dec 2022 16:59:02.188,444.694
643,5 Dec 2022 18:28:05.309,5 Dec 2022 18:32:44.381,279.073
644,6 Dec 2022 05:10:51.264,6 Dec 2022 05:18:51.008,479.744
645,6 Dec 2022 16:48:20.834,6 Dec 2022 16:55:44.537,443.703
646,6 Dec 2022 18:24:46.884,6 Dec 2022 18:29:29.141,282.257
647,7 Dec 2022 05:07:34.161,7 Dec 2022 05:15:33.983,479.822
648,7 Dec 2022 16:45:04.179,7 Dec 2022 16:52:26.880,442.701
649,7 Dec 2022 18:21:28.484,7 Dec 2022 18:26:13.873,285.389
650,8 Dec 2022 05:04:17.064,8 Dec 2022 05:12:16.953,479.889
651,8 Dec 2022 16:41:47.530,8 Dec 2022 16:49:09.213,441.682
652,8 Dec 2022 18:18:10.109,8 Dec 2022 18:22:58.578,288.468
653,9 Dec 2022 05:00:59.975,9 Dec 2022 05:08:59.918,479.943
654,9 Dec 2022 16:38:30.889,9 Dec 2022 16:45:51.536,440.648
655,9 Dec 2022 18:14:51.757,9 Dec 2022 18:19:43.256,291.499
656,10 Dec 2022 04:57:42.893,10 Dec 2022 05:05:42.879,479.986
657,10 Dec 2022 16:35:14.253,10 Dec 2022 16:42:33.851,439.597
658,10 Dec 2022 18:11:33.428,10 Dec 2022 18:16:27.909,294.481
659,11 Dec 2022 04:54:25.817,11 Dec 2022 05:02:25.835,480.017
660,11 Dec 2022 16:31:57.625,11 Dec 2022 16:39:16.154,438.529
661,11 Dec 2022 18:08:15.122,11 Dec 2022 18:13:12.536,297.414
662,12 Dec 2022 04:51:08.749,12 Dec 2022 04:59:08.786,480.037
663,12 Dec 2022 16:28:41.003,12 Dec 2022 16:35:58.453,437.450
664,12 Dec 2022 18:04:56.835,12 Dec 2022 18:09:57.139,300.304
665,13 Dec 2022 04:47:51.689,13 Dec 2022 04:55:51.733,480.045
666,13 Dec 2022 16:25:24.388,13 Dec 2022 16:32:40.738,436.350
667,13 Dec 2022 18:01:38.572,13 Dec 2022 18:06:41.719,303.147
668,14 Dec 2022 04:44:34.635,14 Dec 2022 04:52:34.676,480.041
669,14 Dec 2022 16:22:07.781,14 Dec 2022 16:29:23.014,435.234
670,14 Dec 2022 17:58:20.325,14 Dec 2022 18:03:26.275,305.950
671,15 Dec 2022 04:41:17.588,15 Dec 2022 04:49:17.614,480.026
672,15 Dec 2022 16:18:51.180,15 Dec 2022 16:26:05.281,434.101
673,15 Dec 2022 17:55:02.099,15 Dec 2022 18:00:10.809,308.711
674,16 Dec 2022 04:38:00.549,16 Dec 2022 04:46:00.548,479.998
675,16 Dec 2022 16:15:34.586,16 Dec 2022 16:22:47.537,432.951
676,16 Dec 2022 17:51:43.897,16 Dec 2022 17:56:55.317,311.421
677,17 Dec 2022 04:34:43.517,17 Dec 2022 04:42:43.477,479.960
678,17 Dec 2022 16:12:18.000,17 Dec 2022 16:19:29.785,431.785
679,17 Dec 2022 17:48:25.709,17 Dec 2022 17:53:39.809,314.101
680,18 Dec 2022 04:31:26.492,18 Dec 2022 04:39:26.401,479.909
681,18 Dec 2022 16:09:01.420,18 Dec 2022 16:16:12.022,430.601
682,18 Dec 2022 17:45:07.539,18 Dec 2022 17:50:24.280,316.740
683,19 Dec 2022 04:28:09.475,19 Dec 2022 04:36:09.322,479.847
684,19 Dec 2022 16:05:44.848,19 Dec 2022 16:12:54.247,429.398
685,19 Dec 2022 17:41:49.388,19 Dec 2022 17:47:08.729,319.342
686,20 Dec 2022 04:24:52.464,20 Dec 2022 04:32:52.237,479.773
687,20 Dec 2022 16:02:28.284,20 Dec 2022 16:09:36.462,428.178
688,20 Dec 2022 17:38:31.253,20 Dec 2022 17:43:53.159,321.905
689,21 Dec 2022 04:21:35.461,21 Dec 2022 04:29:35.149,479.688
690,21 Dec 2022 15:59:11.726,21 Dec 2022 16:06:18.674,426.948
691,21 Dec 2022 17:35:13.136,21 Dec 2022 17:40:37.569,324.433
692,22 Dec 2022 04:18:18.464,22 Dec 2022 04:26:18.055,479.591
693,22 Dec 2022 15:55:55.176,22 Dec 2022 16:03:00.870,425.694
694,22 Dec 2022 17:31:55.036,22 Dec 2022 17:37:21.960,326.924
695,23 Dec 2022 04:15:01.475,23 Dec 2022 04:23:00.957,479.482
696,23 Dec 2022 15:52:38.634,23 Dec 2022 15:59:43.055,424.422
697,23 Dec 2022 17:28:36.951,23 Dec 2022 17:34:06.332,329.381
698,24 Dec 2022 04:11:44.492,24 Dec 2022 04:19:43.854,479.362
699,24 Dec 2022 15:49:22.099,24 Dec 2022 15:56:25.229,423.131
700,24 Dec 2022 17:25:18.881,24 Dec 2022 17:30:50.685,331.804
701,25 Dec 2022 04:08:27.517,25 Dec 2022 04:16:26.747,479.230
702,25 Dec 2022 15:46:05.572,25 Dec 2022 15:53:07.396,421.824
703,25 Dec 2022 17:22:00.822,25 Dec 2022 17:27:35.021,334.199
704,26 Dec 2022 04:05:10.549,26 Dec 2022 04:13:09.635,479.086
705,26 Dec 2022 15:42:49.052,26 Dec 2022 15:49:49.550,420.497
706,26 Dec 2022 17:18:42.783,26 Dec 2022 17:24:19.339,336.557
707,27 Dec 2022 04:01:53.588,27 Dec 2022 04:09:52.518,478.931
708,27 Dec 2022 15:39:32.541,27 Dec 2022 15:46:31.696,419.155
709,27 Dec 2022 17:15:24.758,27 Dec 2022 17:21:03.641,338.883
710,28 Dec 2022 03:58:36.634,28 Dec 2022 04:06:35.398,478.764
711,28 Dec 2022 15:36:16.038,28 Dec 2022 15:43:13.829,417.791
712,28 Dec 2022 17:12:06.747,28 Dec 2022 17:17:47.925,341.178
713,29 Dec 2022 03:55:19.687,29 Dec 2022 04:03:18.270,478.583
714,29 Dec 2022 15:32:59.543,29 Dec 2022 15:39:55.952,416.408
715,29 Dec 2022 17:08:48.750,29 Dec 2022 17:14:32.194,343.444
716,30 Dec 2022 03:52:02.748,30 Dec 2022 04:00:01.140,478.393
717,30 Dec 2022 15:29:43.057,30 Dec 2022 15:36:38.064,415.007
718,30 Dec 2022 17:05:30.767,30 Dec 2022 17:11:16.446,345.679
719,31 Dec 2022 03:48:45.816,31 Dec 2022 03:56:44.007,478.191
720,31 Dec 2022 15:26:26.579,31 Dec 2022 15:33:20.166,413.587
721,31 Dec 2022 17:02:12.794,31 Dec 2022 17:08:00.682,347.888
722,1 Jan 2023 03:45:28.891,1 Jan 2023 03:53:26.868,477.977
723,1 Jan 2023 15:23:10.109,1 Jan 2023 15:30:02.256,412.147
724,1 Jan 2023 16:58:54.836,1 Jan 2023 17:04:44.903,350.066
725,2 Jan 2023 03:42:11.973,2 Jan 2023 03:50:09.725,477.752
726,2 Jan 2023 15:19:53.648,2 Jan 2023 15:26:44.336,410.687
727,2 Jan 2023 16:55:36.892,2 Jan 2023 17:01:29.108,352.216
728,3 Jan 2023 03:38:55.062,3 Jan 2023 03:46:52.577,477.515
729,3 Jan 2023 15:16:37.195,3 Jan 2023 15:23:26.403,409.208
730,3 Jan 2023 16:52:18.960,3 Jan 2023 16:58:13.299,354.339
731,4 Jan 2023 03:35:38.159,4 Jan 2023 03:43:35.425,477.266
732,4 Jan 2023 15:13:20.752,4 Jan 2023 15:20:08.458,407.706
733,4 Jan 2023 16:49:01.039,4 Jan 2023 16:54:57.475,356.435
734,5 Jan 2023 03:32:21.262,5 Jan 2023 03:40:18.270,477.008
735,5 Jan 2023 15:10:04.317,5 Jan 2023 15:16:50.502,406.186
736,5 Jan 2023 16:45:43.131,5 Jan 2023 16:51:41.635,358.503
737,6 Jan 2023 03:29:04.373,6 Jan 2023 03:37:01.108,476.735
738,6 Jan 2023 15:06:47.890,6 Jan 2023 15:13:32.536,404.645
739,6 Jan 2023 16:42:25.232,6 Jan 2023 16:48:25.780,360.548
740,7 Jan 2023 03:25:47.491,7 Jan 2023 03:33:43.941,476.451
741,7 Jan 2023 15:03:31.473,7 Jan 2023 15:10:14.557,403.083
742,7 Jan 2023 16:39:07.347,7 Jan 2023 16:45:09.910,362.564
743,8 Jan 2023 03:22:30.616,8 Jan 2023 03:30:26.770,476.154
744,8 Jan 2023 15:00:15.066,8 Jan 2023 15:06:56.563,401.498
745,8 Jan 2023 16:35:49.472,8 Jan 2023 16:41:54.027,364.554
746,9 Jan 2023 03:19:13.748,9 Jan 2023 03:27:09.594,475.847
747,9 Jan 2023 14:56:58.668,9 Jan 2023 15:03:38.561,399.893
748,9 Jan 2023 16:32:31.609,9 Jan 2023 16:38:38.126,366.516
749,10 Jan 2023 03:15:56.887,10 Jan 2023 03:23:52.414,475.527
750,10 Jan 2023 14:53:42.279,10 Jan 2023 15:00:20.549,398.270
751,10 Jan 2023 16:29:13.757,10 Jan 2023 16:35:22.214,368.457
752,11 Jan 2023 03:12:40.034,11 Jan 2023 03:20:35.229,475.195
753,11 Jan 2023 14:50:25.900,11 Jan 2023 14:57:02.521,396.621
754,11 Jan 2023 16:25:55.916,11 Jan 2023 16:32:06.292,370.376
755,12 Jan 2023 03:09:23.187,12 Jan 2023 03:17:18.038,474.851
756,12 Jan 2023 14:47:09.531,12 Jan 2023 14:53:44.480,394.949
757,12 Jan 2023 16:22:38.085,12 Jan 2023 16:28:50.354,372.269
758,13 Jan 2023 03:06:06.349,13 Jan 2023 03:14:00.842,474.493
759,13 Jan 2023 14:43:53.172,13 Jan 2023 14:50:26.427,393.255
760,13 Jan 2023 16:19:20.265,13 Jan 2023 16:25:34.403,374.138
761,14 Jan 2023 03:02:49.517,14 Jan 2023 03:10:43.642,474.125
762,14 Jan 2023 14:40:36.823,14 Jan 2023 14:47:08.361,391.538
763,14 Jan 2023 16:16:02.455,14 Jan 2023 16:22:18.441,375.985
764,15 Jan 2023 02:59:32.693,15 Jan 2023 03:07:26.443,473.750
765,15 Jan 2023 14:37:20.485,15 Jan 2023 14:43:50.282,389.797
766,15 Jan 2023 16:12:44.656,15 Jan 2023 16:19:02.466,377.810
767,16 Jan 2023 02:56:15.876,16 Jan 2023 03:04:09.233,473.357
768,16 Jan 2023 14:34:04.157,16 Jan 2023 14:40:32.189,388.033
769,16 Jan 2023 16:09:26.866,16 Jan 2023 16:15:46.478,379.611
770,17 Jan 2023 02:52:59.066,17 Jan 2023 03:00:52.020,472.953
771,17 Jan 2023 14:30:47.839,17 Jan 2023 14:37:14.082,386.243
772,17 Jan 2023 16:06:09.086,17 Jan 2023 16:12:30.477,381.391
773,18 Jan 2023 02:49:42.264,18 Jan 2023 02:57:34.803,472.539
774,18 Jan 2023 14:27:31.532,18 Jan 2023 14:33:55.962,384.429
775,18 Jan 2023 16:02:51.316,18 Jan 2023 16:09:14.458,383.143
776,19 Jan 2023 02:46:25.469,19 Jan 2023 02:54:17.579,472.110
777,19 Jan 2023 14:24:15.236,19 Jan 2023 14:30:37.829,382.592
778,19 Jan 2023 15:59:33.555,19 Jan 2023 16:05:58.433,384.878
779,20 Jan 2023 02:43:08.681,20 Jan 2023 02:51:00.352,471.671
780,20 Jan 2023 14:20:58.951,20 Jan 2023 14:27:19.686,380.735
781,20 Jan 2023 15:56:15.803,20 Jan 2023 16:02:42.396,386.593
782,21 Jan 2023 02:39:51.900,21 Jan 2023 02:47:43.120,471.220
783,21 Jan 2023 14:17:42.678,21 Jan 2023 14:24:01.525,378.847
784,21 Jan 2023 15:52:58.060,21 Jan 2023 15:59:26.348,388.289
785,22 Jan 2023 02:36:35.126,22 Jan 2023 02:44:25.883,470.757
786,22 Jan 2023 14:14:26.415,22 Jan 2023 14:20:43.346,376.931
787,22 Jan 2023 15:49:40.326,22 Jan 2023 15:56:10.286,389.961
788,23 Jan 2023 02:33:18.360,23 Jan 2023 02:41:08.642,470.282
789,23 Jan 2023 14:11:10.165,23 Jan 2023 14:17:25.157,374.992
790,23 Jan 2023 15:46:22.601,23 Jan 2023 15:52:54.213,391.613
791,24 Jan 2023 02:30:01.601,24 Jan 2023 02:37:51.396,469.794
792,24 Jan 2023 14:07:53.927,24 Jan 2023 14:14:06.953,373.026
793,24 Jan 2023 15:43:04.884,24 Jan 2023 15:49:38.128,393.244
794,25 Jan 2023 02:26:44.850,25 Jan 2023 02:34:34.145,469.295
795,25 Jan 2023 14:04:37.701,25 Jan 2023 14:10:48.734,371.033
796,25 Jan 2023 15:39:47.177,25 Jan 2023 15:46:22.032,394.855
797,26 Jan 2023 02:23:28.106,26 Jan 2023 02:31:16.890,468.783
798,26 Jan 2023 14:01:21.488,26 Jan 2023 14:07:30.498,369.010
799,26 Jan 2023 15:36:29.478,26 Jan 2023 15:43:05.925,396.447
800,27 Jan 2023 02:20:11.370,27 Jan 2023 02:27:59.629,468.259
801,27 Jan 2023 13:58:05.287,27 Jan 2023 14:04:12.249,366.962
802,27 Jan 2023 15:33:11.788,27 Jan 2023 15:39:49.807,398.019
803,28 Jan 2023 02:16:54.642,28 Jan 2023 02:24:42.365,467.723
804,28 Jan 2023 03:56:21.333,28 Jan 2023 03:56:44.189,22.856
805,28 Jan 2023 13:54:49.102,28 Jan 2023 14:00:53.988,364.886
806,28 Jan 2023 15:29:54.106,28 Jan 2023 15:36:33.673,399.568
807,29 Jan 2023 02:13:37.920,29 Jan 2023 02:21:25.095,467.174
808,29 Jan 2023 03:52:48.441,29 Jan 2023 03:53:42.430,53.990
809,29 Jan 2023 13:51:32.927,29 Jan 2023 13:57:35.707,362.780
810,29 Jan 2023 15:26:36.432,29 Jan 2023 15:33:17.532,401.100
811,30 Jan 2023 02:10:21.207,30 Jan 2023 02:18:07.820,466.614
812,30 Jan 2023 03:49:21.736,30 Jan 2023 03:50:34.489,72.753
813,30 Jan 2023 13:48:16.765,30 Jan 2023 13:54:17.410,360.644
814,30 Jan 2023 15:23:18.766,30 Jan 2023 15:30:01.383,402.617
815,31 Jan 2023 02:07:04.500,31 Jan 2023 02:14:50.541,466.040
816,31 Jan 2023 03:45:57.037,31 Jan 2023 03:47:24.549,87.512
817,31 Jan 2023 13:45:00.617,31 Jan 2023 13:50:59.096,358.479
818,31 Jan 2023 15:20:01.109,31 Jan 2023 15:26:45.221,404.112
819,1 Feb 2023 02:03:47.802,1 Feb 2023 02:11:33.256,465.455
820,1 Feb 2023 03:42:33.448,1 Feb 2023 03:44:13.505,100.057
821,1 Feb 2023 13:41:44.483,1 Feb 2023 13:47:40.765,356.282
822,1 Feb 2023 15:16:43.459,1 Feb 2023 15:23:29.048,405.589
823,2 Feb 2023 02:00:31.110,2 Feb 2023 02:08:15.967,464.857
824,2 Feb 2023 03:39:10.592,2 Feb 2023 03:41:01.726,111.134
825,2 Feb 2023 13:38:28.363,2 Feb 2023 13:44:22.416,354.053
826,2 Feb 2023 15:13:25.817,2 Feb 2023 15:20:12.864,407.047
827,3 Feb 2023 01:57:14.426,3 Feb 2023 02:04:58.673,464.247
828,3 Feb 2023 03:35:48.268,3 Feb 2023 03:37:49.417,121.148
829,3 Feb 2023 13:35:12.258,3 Feb 2023 13:41:04.050,351.793
830,3 Feb 2023 15:10:08.182,3 Feb 2023 15:16:56.672,408.490
831,4 Feb 2023 01:53:57.750,4 Feb 2023 02:01:41.374,463.624
832,4 Feb 2023 03:32:26.355,4 Feb 2023 03:34:36.700,130.344
833,4 Feb 2023 13:31:56.169,4 Feb 2023 13:37:45.667,349.498
834,4 Feb 2023 15:06:50.555,4 Feb 2023 15:13:40.468,409.913
835,5 Feb 2023 01:50:41.081,5 Feb 2023 01:58:24.070,462.988
836,5 Feb 2023 03:29:04.771,5 Feb 2023 03:31:23.656,138.885
837,5 Feb 2023 13:28:40.094,5 Feb 2023 13:34:27.266,347.173
838,5 Feb 2023 15:03:32.936,5 Feb 2023 15:10:24.254,411.318
839,6 Feb 2023 01:47:24.420,6 Feb 2023 01:55:06.760,462.340
840,6 Feb 2023 03:25:43.459,6 Feb 2023 03:28:10.344,146.885
841,6 Feb 2023 13:25:24.033,6 Feb 2023 13:31:08.847,344.814
842,6 Feb 2023 15:00:15.324,6 Feb 2023 15:07:08.029,412.705
843,7 Feb 2023 01:44:07.767,7 Feb 2023 01:51:49.444,461.677
844,7 Feb 2023 03:22:22.378,7 Feb 2023 03:24:56.805,154.428
845,7 Feb 2023 13:22:07.989,7 Feb 2023 13:27:50.409,342.420
846,7 Feb 2023 14:56:57.719,7 Feb 2023 15:03:51.795,414.075
847,8 Feb 2023 01:40:51.121,8 Feb 2023 01:48:32.125,461.004
848,8 Feb 2023 03:19:01.494,8 Feb 2023 03:21:43.072,161.578
849,8 Feb 2023 13:18:51.961,8 Feb 2023 13:24:31.952,339.992
850,8 Feb 2023 14:53:40.122,8 Feb 2023 15:00:35.550,415.428
851,9 Feb 2023 01:37:34.483,9 Feb 2023 01:45:14.801,460.318
852,9 Feb 2023 03:15:40.783,9 Feb 2023 03:18:29.168,168.386
853,9 Feb 2023 13:15:35.950,9 Feb 2023 13:21:13.477,337.527
854,9 Feb 2023 14:50:22.532,9 Feb 2023 14:57:19.296,416.764
855,10 Feb 2023 01:34:17.853,10 Feb 2023 01:41:57.472,459.619
856,10 Feb 2023 03:12:20.224,10 Feb 2023 03:15:15.116,174.891
857,10 Feb 2023 13:12:19.960,10 Feb 2023 13:17:54.981,335.021
858,10 Feb 2023 14:47:04.949,10 Feb 2023 14:54:03.033,418.084
859,11 Feb 2023 01:31:01.230,11 Feb 2023 01:38:40.138,458.908
860,11 Feb 2023 03:08:59.802,11 Feb 2023 03:12:00.927,181.125
861,11 Feb 2023 13:09:03.984,11 Feb 2023 13:14:36.466,332.482
862,11 Feb 2023 14:43:47.374,11 Feb 2023 14:50:46.761,419.387
863,12 Feb 2023 01:27:44.616,12 Feb 2023 01:35:22.797,458.181
864,12 Feb 2023 03:05:39.503,12 Feb 2023 03:08:46.620,187.117
865,12 Feb 2023 13:05:48.025,12 Feb 2023 13:11:17.930,329.904
866,12 Feb 2023 14:40:29.805,12 Feb 2023 14:47:30.476,420.671
867,13 Feb 2023 01:24:28.009,13 Feb 2023 01:32:05.453,457.444
868,13 Feb 2023 03:02:19.315,13 Feb 2023 03:05:32.205,192.889
869,13 Feb 2023 13:02:32.085,13 Feb 2023 13:07:59.372,327.287
870,13 Feb 2023 14:37:12.243,13 Feb 2023 14:44:14.185,421.941
871,14 Feb 2023 01:21:11.410,14 Feb 2023 01:28:48.103,456.693
872,14 Feb 2023 02:58:59.230,14 Feb 2023 03:02:17.691,198.462
873,14 Feb 2023 12:59:16.165,14 Feb 2023 13:04:40.793,324.628
874,14 Feb 2023 14:33:54.689,14 Feb 2023 14:40:57.882,423.193
875,15 Feb 2023 01:17:54.819,15 Feb 2023 01:25:30.748,455.929
876,15 Feb 2023 02:55:39.237,15 Feb 2023 02:59:03.088,203.850
877,15 Feb 2023 12:56:00.263,15 Feb 2023 13:01:22.191,321.928
878,15 Feb 2023 14:30:37.141,15 Feb 2023 14:37:41.572,424.431
879,16 Feb 2023 01:14:38.236,16 Feb 2023 01:22:13.386,455.150
880,16 Feb 2023 02:52:19.331,16 Feb 2023 02:55:48.401,209.070
881,16 Feb 2023 12:52:44.382,16 Feb 2023 12:58:03.567,319.185
882,16 Feb 2023 14:27:19.599,16 Feb 2023 14:34:25.252,425.653
883,17 Feb 2023 01:11:21.660,17 Feb 2023 01:18:56.019,454.358
884,17 Feb 2023 02:48:59.505,17 Feb 2023 02:52:33.640,214.135
885,17 Feb 2023 12:49:28.522,17 Feb 2023 12:54:44.918,316.397
886,17 Feb 2023 14:24:02.064,17 Feb 2023 14:31:08.922,426.858
887,18 Feb 2023 01:08:05.093,18 Feb 2023 01:15:38.647,453.554
888,18 Feb 2023 02:45:39.754,18 Feb 2023 02:49:18.803,219.049
889,18 Feb 2023 12:46:12.678,18 Feb 2023 12:51:26.251,313.573
890,18 Feb 2023 14:20:44.535,18 Feb 2023 14:27:52.578,428.043
891,19 Feb 2023 01:04:48.533,19 Feb 2023 01:12:21.270,452.737
892,19 Feb 2023 02:42:20.073,19 Feb 2023 02:46:03.899,223.826
893,19 Feb 2023 12:42:56.861,19 Feb 2023 12:48:07.553,310.693
894,19 Feb 2023 14:17:27.013,19 Feb 2023 14:24:36.231,429.218
895,20 Feb 2023 01:01:31.982,20 Feb 2023 01:09:03.888,451.906
896,20 Feb 2023 02:39:00.457,20 Feb 2023 02:42:48.932,228.474
897,20 Feb 2023 12:39:41.067,20 Feb 2023 12:44:48.830,307.764
898,20 Feb 2023 14:14:09.498,20 Feb 2023 14:21:19.876,430.378
899,21 Feb 2023 00:58:15.438,21 Feb 2023 01:05:46.500,451.062
900,21 Feb 2023 02:35:40.904,21 Feb 2023 02:39:33.905,233.002
901,21 Feb 2023 12:36:25.293,21 Feb 2023 12:41:30.086,304.793
902,21 Feb 2023 14:10:51.988,21 Feb 2023 14:18:03.509,431.520
903,22 Feb 2023 00:54:58.903,22 Feb 2023 01:02:29.107,450.204
904,22 Feb 2023 02:32:21.409,22 Feb 2023 02:36:18.824,237.415
905,22 Feb 2023 12:33:09.546,22 Feb 2023 12:38:11.312,301.766
906,22 Feb 2023 14:07:34.486,22 Feb 2023 14:14:47.133,432.647
907,23 Feb 2023 00:51:42.376,23 Feb 2023 00:59:11.709,449.333
908,23 Feb 2023 02:29:01.970,23 Feb 2023 02:33:03.686,241.717
909,23 Feb 2023 12:29:53.820,23 Feb 2023 12:34:52.511,298.690
910,23 Feb 2023 14:04:16.989,23 Feb 2023 14:11:30.748,433.759
911,24 Feb 2023 00:48:25.857,24 Feb 2023 00:55:54.305,448.448
912,24 Feb 2023 02:25:42.582,24 Feb 2023 02:29:48.503,245.921
913,24 Feb 2023 12:26:38.123,24 Feb 2023 12:31:33.682,295.559
914,24 Feb 2023 14:00:59.499,24 Feb 2023 14:08:14.355,434.855
915,25 Feb 2023 00:45:09.346,25 Feb 2023 00:52:36.896,447.550
916,25 Feb 2023 02:22:23.245,25 Feb 2023 02:26:33.274,250.029
917,25 Feb 2023 12:23:22.451,25 Feb 2023 12:28:14.824,292.373
918,25 Feb 2023 13:57:42.016,25 Feb 2023 14:04:57.952,435.937
919,26 Feb 2023 00:41:52.844,26 Feb 2023 00:49:19.482,446.638
920,26 Feb 2023 02:19:03.954,26 Feb 2023 02:23:18.000,254.046
921,26 Feb 2023 12:20:06.805,26 Feb 2023 12:24:55.935,289.130
922,26 Feb 2023 13:54:24.538,26 Feb 2023 14:01:41.538,437.000
923,27 Feb 2023 00:38:36.350,27 Feb 2023 00:46:02.061,445.711
924,27 Feb 2023 02:15:44.709,27 Feb 2023 02:20:02.685,257.976
925,27 Feb 2023 12:16:51.188,27 Feb 2023 12:21:37.015,285.827
926,27 Feb 2023 13:51:07.066,27 Feb 2023 13:58:25.117,438.050
927,28 Feb 2023 00:35:19.864,28 Feb 2023 00:42:44.635,444.771
928,28 Feb 2023 02:12:25.507,28 Feb 2023 02:16:47.329,261.822
929,28 Feb 2023 12:13:35.599,28 Feb 2023 12:18:18.062,282.463
930,28 Feb 2023 13:47:49.601,28 Feb 2023 13:55:08.690,439.089
931,1 Mar 2023 00:32:03.387,1 Mar 2023 00:39:27.201,443.814
932,1 Mar 2023 02:09:06.346,1 Mar 2023 02:13:31.937,265.591
933,1 Mar 2023 12:10:20.041,1 Mar 2023 12:14:59.077,279.036
934,1 Mar 2023 13:44:32.141,1 Mar 2023 13:51:52.252,440.111
935,2 Mar 2023 00:28:46.918,2 Mar 2023 00:36:09.764,442.846
936,2 Mar 2023 02:05:47.225,2 Mar 2023 02:10:16.501,269.276
937,2 Mar 2023 12:07:04.515,2 Mar 2023 12:11:40.057,275.543
938,2 Mar 2023 13:41:14.687,2 Mar 2023 13:48:35.806,441.119
939,3 Mar 2023 00:25:30.457,3 Mar 2023 00:32:52.320,441.863
940,3 Mar 2023 02:02:28.142,3 Mar 2023 02:07:01.034,272.892
941,3 Mar 2023 12:03:49.021,3 Mar 2023 12:08:21.002,271.981
942,3 Mar 2023 13:37:57.239,3 Mar 2023 13:45:19.351,442.112
943,4 Mar 2023 00:22:14.005,4 Mar 2023 00:29:34.871,440.866
944,4 Mar 2023 01:59:09.096,4 Mar 2023 02:03:45.533,276.437
945,4 Mar 2023 12:00:33.557,4 Mar 2023 12:05:01.915,268.358
946,4 Mar 2023 13:34:39.797,4 Mar 2023 13:42:02.887,443.090
947,5 Mar 2023 00:18:57.561,5 Mar 2023 00:26:17.413,439.852
948,5 Mar 2023 01:55:50.085,5 Mar 2023 02:00:30.000,279.915
949,5 Mar 2023 11:57:18.133,5 Mar 2023 12:01:42.782,264.649
950,5 Mar 2023 13:31:22.360,5 Mar 2023 13:38:46.417,444.057
951,6 Mar 2023 00:15:41.126,6 Mar 2023 00:22:59.952,438.826
952,6 Mar 2023 01:52:31.108,6 Mar 2023 01:57:14.436,283.327
953,6 Mar 2023 11:54:02.746,6 Mar 2023 11:58:23.610,260.863
954,6 Mar 2023 13:28:04.929,6 Mar 2023 13:35:29.937,445.008
955,7 Mar 2023 00:12:24.700,7 Mar 2023 00:19:42.485,437.785
956,7 Mar 2023 01:49:12.165,7 Mar 2023 01:53:58.841,286.677
957,7 Mar 2023 11:50:47.399,7 Mar 2023 11:55:04.397,256.998
958,7 Mar 2023 13:24:47.504,7 Mar 2023 13:32:13.449,445.944
959,8 Mar 2023 00:09:08.282,8 Mar 2023 00:16:25.012,436.730
960,8 Mar 2023 01:45:53.258,8 Mar 2023 01:50:43.218,289.960
961,8 Mar 2023 11:47:32.092,8 Mar 2023 11:51:45.141,253.048
962,8 Mar 2023 13:21:30.085,8 Mar 2023 13:28:56.952,446.867
963,9 Mar 2023 00:05:51.873,9 Mar 2023 00:13:07.534,435.660
964,9 Mar 2023 01:42:34.377,9 Mar 2023 01:47:27.566,293.189
965,9 Mar 2023 11:44:16.829,9 Mar 2023 11:48:25.839,249.010
966,9 Mar 2023 13:18:12.672,9 Mar 2023 13:25:40.447,447.775
967,10 Mar 2023 00:02:35.473,10 Mar 2023 00:09:50.049,434.576
968,10 Mar 2023 01:39:15.525,10 Mar 2023 01:44:11.887,296.362
969,10 Mar 2023 11:41:01.610,10 Mar 2023 11:45:06.490,244.879
970,10 Mar 2023 13:14:55.264,10 Mar 2023 13:22:23.934,448.670
971,10 Mar 2023 23:59:19.082,11 Mar 2023 00:06:32.559,433.477
972,11 Mar 2023 01:35:56.702,11 Mar 2023 01:40:56.182,299.480
973,11 Mar 2023 11:37:46.439,11 Mar 2023 11:41:47.090,240.651
974,11 Mar 2023 13:11:37.862,11 Mar 2023 13:19:07.413,449.552
975,11 Mar 2023 23:56:02.700,12 Mar 2023 00:03:15.061,432.361
976,12 Mar 2023 01:32:37.909,12 Mar 2023 01:37:40.447,302.538
977,12 Mar 2023 11:34:31.320,12 Mar 2023 11:38:27.642,236.322
978,12 Mar 2023 13:08:20.465,12 Mar 2023 13:15:50.884,450.419
