data/Skyhopper_Svalsat_Access_1year.csv

"Access","Start Time (UTCG)","Stop Time (UTCG)","Duration (sec)"
1,1 Jun 2022 01:19:53.654,1 Jun 2022 01:26:18.466,384.812
2,1 Jun 2022 02:54:09.384,1 Jun 2022 03:01:19.946,430.562
3,1 Jun 2022 04:28:45.300,1 Jun 2022 04:36:40.716,475.415
4,1 Jun 2022 06:04:05.189,1 Jun 2022 06:12:12.641,487.452
5,1 Jun 2022 07:40:20.792,1 Jun 2022 07:47:51.954,451.162
6,1 Jun 2022 09:17:31.384,1 Jun 2022 09:23:38.969,367.585
7,1 Jun 2022 10:55:17.823,1 Jun 2022 10:59:41.606,263.783
8,1 Jun 2022 12:32:47.368,1 Jun 2022 12:36:28.582,221.214
9,1 Jun 2022 14:09:15.706,1 Jun 2022 14:14:11.328,295.623
10,1 Jun 2022 15:45:11.556,1 Jun 2022 15:51:50.104,398.548
11,1 Jun 2022 17:20:55.773,1 Jun 2022 17:28:44.093,468.320
12,1 Jun 2022 18:56:32.895,1 Jun 2022 19:04:41.331,488.436
13,1 Jun 2022 20:32:01.863,1 Jun 2022 20:39:45.317,463.454
14,1 Jun 2022 22:07:17.550,1 Jun 2022 22:14:11.640,414.090
15,1 Jun 2022 23:42:10.771,1 Jun 2022 23:48:27.481,376.710
16,2 Jun 2022 01:16:36.860,2 Jun 2022 01:23:01.539,384.679
17,2 Jun 2022 02:50:52.570,2 Jun 2022 02:58:02.921,430.351
18,2 Jun 2022 04:25:28.346,2 Jun 2022 04:33:23.628,475.282
19,2 Jun 2022 06:00:48.022,2 Jun 2022 06:08:55.519,487.496
20,2 Jun 2022 07:37:03.388,2 Jun 2022 07:44:34.803,451.415
21,2 Jun 2022 09:14:13.776,2 Jun 2022 09:20:21.778,368.002
22,2 Jun 2022 10:52:00.148,2 Jun 2022 10:56:24.312,264.164
23,2 Jun 2022 12:29:29.906,2 Jun 2022 12:33:11.026,221.121
24,2 Jun 2022 14:05:58.458,2 Jun 2022 14:10:53.650,295.192
25,2 Jun 2022 15:41:54.382,2 Jun 2022 15:48:32.553,398.171
26,2 Jun 2022 17:17:38.632,2 Jun 2022 17:25:26.764,468.132
27,2 Jun 2022 18:53:15.782,2 Jun 2022 19:01:24.236,488.454
28,2 Jun 2022 20:28:44.791,2 Jun 2022 20:36:28.417,463.627
29,2 Jun 2022 22:04:00.549,2 Jun 2022 22:10:54.846,414.297
30,2 Jun 2022 23:38:53.882,2 Jun 2022 23:45:10.665,376.783
31,3 Jun 2022 01:13:20.065,3 Jun 2022 01:19:44.612,384.547
32,3 Jun 2022 02:47:35.756,3 Jun 2022 02:54:45.893,430.137
33,3 Jun 2022 04:22:11.393,3 Jun 2022 04:30:06.541,475.148
34,3 Jun 2022 05:57:30.856,3 Jun 2022 06:05:38.396,487.540
35,3 Jun 2022 07:33:45.985,3 Jun 2022 07:41:17.652,451.667
36,3 Jun 2022 09:10:56.170,3 Jun 2022 09:17:04.588,368.419
37,3 Jun 2022 10:48:42.474,3 Jun 2022 10:53:07.019,264.545
38,3 Jun 2022 12:26:12.443,3 Jun 2022 12:29:53.472,221.030
39,3 Jun 2022 14:02:41.210,3 Jun 2022 14:07:35.971,294.761
40,3 Jun 2022 15:38:37.207,3 Jun 2022 15:45:15.000,397.793
41,3 Jun 2022 17:14:21.490,3 Jun 2022 17:22:09.434,467.944
42,3 Jun 2022 18:49:58.669,3 Jun 2022 18:58:07.141,488.471
43,3 Jun 2022 20:25:27.718,3 Jun 2022 20:33:11.517,463.799
44,3 Jun 2022 22:00:43.548,3 Jun 2022 22:07:38.053,414.505
45,3 Jun 2022 23:35:36.992,3 Jun 2022 23:41:53.850,376.858
46,4 Jun 2022 01:10:03.270,4 Jun 2022 01:16:27.686,384.416
47,4 Jun 2022 02:44:18.943,4 Jun 2022 02:51:28.866,429.923
48,4 Jun 2022 04:18:54.441,4 Jun 2022 04:26:49.455,475.014
49,4 Jun 2022 05:54:13.691,4 Jun 2022 06:02:21.273,487.582
50,4 Jun 2022 07:30:28.583,4 Jun 2022 07:38:00.504,451.921
51,4 Jun 2022 09:07:38.564,4 Jun 2022 09:13:47.399,368.835
52,4 Jun 2022 10:45:24.799,4 Jun 2022 10:49:49.726,264.927
53,4 Jun 2022 12:22:54.978,4 Jun 2022 12:26:35.919,220.941
54,4 Jun 2022 13:59:23.962,4 Jun 2022 14:04:18.292,294.331
55,4 Jun 2022 15:35:20.032,4 Jun 2022 15:41:57.447,397.415
56,4 Jun 2022 17:11:04.348,4 Jun 2022 17:18:52.102,467.754
57,4 Jun 2022 18:46:41.556,4 Jun 2022 18:54:50.044,488.488
58,4 Jun 2022 20:22:10.646,4 Jun 2022 20:29:54.617,463.971
59,4 Jun 2022 21:57:26.547,4 Jun 2022 22:04:21.259,414.713
60,4 Jun 2022 23:32:20.102,4 Jun 2022 23:38:37.036,376.934
61,5 Jun 2022 01:06:46.475,5 Jun 2022 01:13:10.760,384.285
62,5 Jun 2022 02:41:02.130,5 Jun 2022 02:48:11.839,429.709
63,5 Jun 2022 04:15:37.489,5 Jun 2022 04:23:32.368,474.879
64,5 Jun 2022 05:50:56.527,5 Jun 2022 05:59:04.151,487.624
65,5 Jun 2022 07:27:11.183,5 Jun 2022 07:34:43.354,452.171
66,5 Jun 2022 09:04:20.959,5 Jun 2022 09:10:30.209,369.250
67,5 Jun 2022 10:42:07.124,5 Jun 2022 10:46:32.434,265.310
68,5 Jun 2022 12:19:37.513,5 Jun 2022 12:23:18.368,220.855
69,5 Jun 2022 13:56:06.713,5 Jun 2022 14:01:00.613,293.901
70,5 Jun 2022 15:32:02.857,5 Jun 2022 15:38:39.893,397.035
71,5 Jun 2022 17:07:47.206,5 Jun 2022 17:15:34.769,467.563
72,5 Jun 2022 18:43:24.443,5 Jun 2022 18:51:32.947,488.504
73,5 Jun 2022 20:18:53.573,5 Jun 2022 20:26:37.716,464.142
74,5 Jun 2022 21:54:09.545,5 Jun 2022 22:01:04.466,414.921
75,5 Jun 2022 23:29:03.211,5 Jun 2022 23:35:20.222,377.010
76,6 Jun 2022 01:03:29.680,6 Jun 2022 01:09:53.835,384.156
77,6 Jun 2022 02:37:45.317,6 Jun 2022 02:44:54.813,429.496
78,6 Jun 2022 04:12:20.539,6 Jun 2022 04:20:15.282,474.743
79,6 Jun 2022 05:47:39.365,6 Jun 2022 05:55:47.029,487.665
80,6 Jun 2022 07:23:53.783,6 Jun 2022 07:31:26.204,452.421
81,6 Jun 2022 09:01:03.354,6 Jun 2022 09:07:13.020,369.665
82,6 Jun 2022 10:38:49.449,6 Jun 2022 10:43:15.143,265.694
83,6 Jun 2022 12:16:20.047,6 Jun 2022 12:20:00.817,220.770
84,6 Jun 2022 13:52:49.464,6 Jun 2022 13:57:42.935,293.471
85,6 Jun 2022 15:28:45.682,6 Jun 2022 15:35:22.338,396.655
86,6 Jun 2022 17:04:30.064,6 Jun 2022 17:12:17.435,467.371
87,6 Jun 2022 18:40:07.329,6 Jun 2022 18:48:15.848,488.519
88,6 Jun 2022 20:15:36.501,6 Jun 2022 20:23:20.814,464.314
89,6 Jun 2022 21:50:52.543,6 Jun 2022 21:57:47.672,415.129
90,6 Jun 2022 23:25:46.320,6 Jun 2022 23:32:03.408,377.088
91,7 Jun 2022 01:00:12.884,7 Jun 2022 01:06:36.911,384.027
92,7 Jun 2022 02:34:28.505,7 Jun 2022 02:41:37.787,429.282
93,7 Jun 2022 04:09:03.589,7 Jun 2022 04:16:58.196,474.607
94,7 Jun 2022 05:44:22.203,7 Jun 2022 05:52:29.907,487.704
95,7 Jun 2022 07:20:36.384,7 Jun 2022 07:28:09.054,452.670
96,7 Jun 2022 08:57:45.751,7 Jun 2022 09:03:55.831,370.080
97,7 Jun 2022 10:35:31.773,7 Jun 2022 10:39:57.852,266.079
98,7 Jun 2022 12:13:02.579,7 Jun 2022 12:16:43.268,220.689
99,7 Jun 2022 13:49:32.214,7 Jun 2022 13:54:25.256,293.042
100,7 Jun 2022 15:25:28.507,7 Jun 2022 15:32:04.782,396.275
101,7 Jun 2022 17:01:12.923,7 Jun 2022 17:09:00.100,467.178
102,7 Jun 2022 18:36:50.216,7 Jun 2022 18:44:58.749,488.533
103,7 Jun 2022 20:12:19.428,7 Jun 2022 20:20:03.912,464.484
104,7 Jun 2022 21:47:35.541,7 Jun 2022 21:54:30.878,415.337
105,7 Jun 2022 23:22:29.429,7 Jun 2022 23:28:46.594,377.166
106,8 Jun 2022 00:56:56.089,8 Jun 2022 01:03:19.987,383.898
107,8 Jun 2022 02:31:11.693,8 Jun 2022 02:38:20.761,429.068
108,8 Jun 2022 04:05:46.639,8 Jun 2022 04:13:41.110,474.471
109,8 Jun 2022 05:41:05.042,8 Jun 2022 05:49:12.786,487.744
110,8 Jun 2022 07:17:18.987,8 Jun 2022 07:24:51.904,452.918
111,8 Jun 2022 08:54:28.147,8 Jun 2022 09:00:38.642,370.494
112,8 Jun 2022 10:32:14.098,8 Jun 2022 10:36:40.563,266.465
113,8 Jun 2022 12:09:45.110,8 Jun 2022 12:13:25.720,220.610
114,8 Jun 2022 13:46:14.964,8 Jun 2022 13:51:07.577,292.613
115,8 Jun 2022 15:22:11.332,8 Jun 2022 15:28:47.226,395.894
116,8 Jun 2022 16:57:55.780,8 Jun 2022 17:05:42.767,466.987
117,8 Jun 2022 18:33:33.103,8 Jun 2022 18:41:41.649,488.547
118,8 Jun 2022 20:09:02.355,8 Jun 2022 20:16:47.010,464.655
119,8 Jun 2022 21:44:18.538,8 Jun 2022 21:51:14.084,415.546
120,8 Jun 2022 23:19:12.537,8 Jun 2022 23:25:29.781,377.245
121,9 Jun 2022 00:53:39.293,9 Jun 2022 01:00:03.063,383.770
122,9 Jun 2022 02:27:54.882,9 Jun 2022 02:35:03.736,428.854
123,9 Jun 2022 04:02:29.691,9 Jun 2022 04:10:24.025,474.333
124,9 Jun 2022 05:37:47.882,9 Jun 2022 05:45:55.664,487.782
125,9 Jun 2022 07:14:01.590,9 Jun 2022 07:21:34.755,453.165
126,9 Jun 2022 08:51:10.545,9 Jun 2022 08:57:21.454,370.908
127,9 Jun 2022 10:28:56.422,9 Jun 2022 10:33:23.274,266.852
128,9 Jun 2022 12:06:27.639,9 Jun 2022 12:10:08.173,220.534
129,9 Jun 2022 13:42:57.713,9 Jun 2022 13:47:49.898,292.185
130,9 Jun 2022 15:18:54.156,9 Jun 2022 15:25:29.669,395.512
131,9 Jun 2022 16:54:38.638,9 Jun 2022 17:02:25.431,466.792
132,9 Jun 2022 18:30:15.989,9 Jun 2022 18:38:24.548,488.559
133,9 Jun 2022 20:05:45.282,9 Jun 2022 20:13:30.106,464.824
134,9 Jun 2022 21:41:01.535,9 Jun 2022 21:47:57.289,415.754
135,9 Jun 2022 23:15:55.645,9 Jun 2022 23:22:12.969,377.324
136,10 Jun 2022 00:50:22.497,10 Jun 2022 00:56:46.140,383.643
137,10 Jun 2022 02:24:38.071,10 Jun 2022 02:31:46.711,428.640
138,10 Jun 2022 03:59:12.744,10 Jun 2022 04:07:06.939,474.195
139,10 Jun 2022 05:34:30.723,10 Jun 2022 05:42:38.543,487.819
140,10 Jun 2022 07:10:44.194,10 Jun 2022 07:18:17.605,453.411
141,10 Jun 2022 08:47:52.943,10 Jun 2022 08:54:04.266,371.322
142,10 Jun 2022 10:25:38.745,10 Jun 2022 10:30:05.986,267.241
143,10 Jun 2022 12:03:10.167,10 Jun 2022 12:06:50.628,220.460
144,10 Jun 2022 13:39:40.461,10 Jun 2022 13:44:32.219,291.758
145,10 Jun 2022 15:15:36.980,10 Jun 2022 15:22:12.111,395.130
146,10 Jun 2022 16:51:21.496,10 Jun 2022 16:59:08.093,466.597
147,10 Jun 2022 18:26:58.875,10 Jun 2022 18:35:07.446,488.571
148,10 Jun 2022 20:02:28.208,10 Jun 2022 20:10:13.202,464.993
149,10 Jun 2022 21:37:44.532,10 Jun 2022 21:44:40.495,415.963
150,10 Jun 2022 23:12:38.752,10 Jun 2022 23:18:56.156,377.404
151,11 Jun 2022 00:47:05.701,11 Jun 2022 00:53:29.217,383.516
152,11 Jun 2022 02:21:21.261,11 Jun 2022 02:28:29.686,428.426
153,11 Jun 2022 03:55:55.797,11 Jun 2022 04:03:49.854,474.057
154,11 Jun 2022 05:31:13.565,11 Jun 2022 05:39:21.421,487.856
155,11 Jun 2022 07:07:26.799,11 Jun 2022 07:15:00.456,453.657
156,11 Jun 2022 08:44:35.342,11 Jun 2022 08:50:47.078,371.736
157,11 Jun 2022 10:22:21.069,11 Jun 2022 10:26:48.700,267.631
158,11 Jun 2022 11:59:52.694,11 Jun 2022 12:03:33.084,220.390
159,11 Jun 2022 13:36:23.209,11 Jun 2022 13:41:14.540,291.331
160,11 Jun 2022 15:12:19.804,11 Jun 2022 15:18:54.552,394.748
161,11 Jun 2022 16:48:04.353,11 Jun 2022 16:55:50.755,466.401
162,11 Jun 2022 18:23:41.761,11 Jun 2022 18:31:50.344,488.582
163,11 Jun 2022 19:59:11.135,11 Jun 2022 20:06:56.297,465.163
164,11 Jun 2022 21:34:27.528,11 Jun 2022 21:41:23.700,416.171
165,11 Jun 2022 23:09:21.859,11 Jun 2022 23:15:39.343,377.485
166,12 Jun 2022 00:43:48.905,12 Jun 2022 00:50:12.295,383.390
167,12 Jun 2022 02:18:04.450,12 Jun 2022 02:25:12.662,428.212
168,12 Jun 2022 03:52:38.851,12 Jun 2022 04:00:32.768,473.918
169,12 Jun 2022 05:27:56.408,12 Jun 2022 05:36:04.300,487.892
170,12 Jun 2022 07:04:09.405,12 Jun 2022 07:11:43.307,453.902
171,12 Jun 2022 08:41:17.741,12 Jun 2022 08:47:29.890,372.149
172,12 Jun 2022 10:19:03.392,12 Jun 2022 10:23:31.414,268.022
173,12 Jun 2022 11:56:35.219,12 Jun 2022 12:00:15.541,220.322
174,12 Jun 2022 13:33:05.956,12 Jun 2022 13:37:56.861,290.905
175,12 Jun 2022 15:09:02.628,12 Jun 2022 15:15:36.993,394.365
176,12 Jun 2022 16:44:47.211,12 Jun 2022 16:52:33.418,466.207
177,12 Jun 2022 18:20:24.647,12 Jun 2022 18:28:33.240,488.593
178,12 Jun 2022 19:55:54.061,12 Jun 2022 20:03:39.391,465.330
179,12 Jun 2022 21:31:10.524,12 Jun 2022 21:38:06.904,416.380
180,12 Jun 2022 23:06:04.965,12 Jun 2022 23:12:22.531,377.567
181,13 Jun 2022 00:40:32.108,13 Jun 2022 00:46:55.373,383.264
182,13 Jun 2022 02:14:47.640,13 Jun 2022 02:21:55.640,428.000
183,13 Jun 2022 03:49:21.905,13 Jun 2022 03:57:15.683,473.778
184,13 Jun 2022 05:24:39.252,13 Jun 2022 05:32:47.179,487.927
185,13 Jun 2022 07:00:52.012,13 Jun 2022 07:08:26.157,454.146
186,13 Jun 2022 08:38:00.141,13 Jun 2022 08:44:12.703,372.562
187,13 Jun 2022 10:15:45.714,13 Jun 2022 10:20:14.128,268.414
188,13 Jun 2022 11:53:17.743,13 Jun 2022 11:56:57.999,220.256
189,13 Jun 2022 13:29:48.702,13 Jun 2022 13:34:39.182,290.480
190,13 Jun 2022 15:05:45.451,13 Jun 2022 15:12:19.433,393.982
191,13 Jun 2022 16:41:30.068,13 Jun 2022 16:49:16.077,466.010
192,13 Jun 2022 18:17:07.533,13 Jun 2022 18:25:16.135,488.602
193,13 Jun 2022 19:52:36.986,13 Jun 2022 20:00:22.484,465.498
194,13 Jun 2022 21:27:53.519,13 Jun 2022 21:34:50.109,416.589
195,13 Jun 2022 23:02:48.070,13 Jun 2022 23:09:05.719,377.649
196,14 Jun 2022 00:37:15.311,14 Jun 2022 00:43:38.451,383.140
197,14 Jun 2022 02:11:30.830,14 Jun 2022 02:18:38.616,427.786
198,14 Jun 2022 03:46:04.960,14 Jun 2022 03:53:58.598,473.638
199,14 Jun 2022 05:21:22.096,14 Jun 2022 05:29:30.057,487.961
200,14 Jun 2022 06:57:34.619,14 Jun 2022 07:05:09.008,454.389
201,14 Jun 2022 08:34:42.541,14 Jun 2022 08:40:55.515,372.974
202,14 Jun 2022 10:12:28.036,14 Jun 2022 10:16:56.843,268.807
203,14 Jun 2022 11:50:00.265,14 Jun 2022 11:53:40.458,220.193
204,14 Jun 2022 13:26:31.448,14 Jun 2022 13:31:21.502,290.054
205,14 Jun 2022 15:02:28.274,14 Jun 2022 15:09:01.872,393.598
206,14 Jun 2022 16:38:12.924,14 Jun 2022 16:45:58.736,465.811
207,14 Jun 2022 18:13:50.418,14 Jun 2022 18:21:59.029,488.611
208,14 Jun 2022 19:49:19.912,14 Jun 2022 19:57:05.576,465.665
209,14 Jun 2022 21:24:36.514,14 Jun 2022 21:31:33.313,416.798
210,14 Jun 2022 22:59:31.175,14 Jun 2022 23:05:48.907,377.732
211,15 Jun 2022 00:33:58.514,15 Jun 2022 00:40:21.528,383.014
212,15 Jun 2022 02:08:14.020,15 Jun 2022 02:15:21.592,427.572
213,15 Jun 2022 03:42:48.016,15 Jun 2022 03:50:41.513,473.497
214,15 Jun 2022 05:18:04.942,15 Jun 2022 05:26:12.936,487.994
215,15 Jun 2022 06:54:17.227,15 Jun 2022 07:01:51.859,454.631
216,15 Jun 2022 08:31:24.942,15 Jun 2022 08:37:38.328,373.385
217,15 Jun 2022 10:09:10.359,15 Jun 2022 10:13:39.559,269.200
218,15 Jun 2022 11:46:42.787,15 Jun 2022 11:50:22.918,220.131
219,15 Jun 2022 13:23:14.194,15 Jun 2022 13:28:03.823,289.629
220,15 Jun 2022 14:59:11.096,15 Jun 2022 15:05:44.310,393.213
221,15 Jun 2022 16:34:55.781,15 Jun 2022 16:42:41.393,465.612
222,15 Jun 2022 18:10:33.303,15 Jun 2022 18:18:41.922,488.619
223,15 Jun 2022 19:46:02.837,15 Jun 2022 19:53:48.668,465.831
224,15 Jun 2022 21:21:19.508,15 Jun 2022 21:28:16.517,417.008
225,15 Jun 2022 22:56:14.279,15 Jun 2022 23:02:32.096,377.817
226,16 Jun 2022 00:30:41.716,16 Jun 2022 00:37:04.608,382.891
227,16 Jun 2022 02:04:57.211,16 Jun 2022 02:12:04.569,427.358
228,16 Jun 2022 03:39:31.072,16 Jun 2022 03:47:24.428,473.356
229,16 Jun 2022 05:14:47.788,16 Jun 2022 05:22:55.815,488.027
230,16 Jun 2022 06:50:59.837,16 Jun 2022 06:58:34.710,454.873
231,16 Jun 2022 08:28:07.344,16 Jun 2022 08:34:21.141,373.796
232,16 Jun 2022 10:05:52.681,16 Jun 2022 10:10:22.275,269.594
233,16 Jun 2022 11:43:25.307,16 Jun 2022 11:47:05.379,220.072
234,16 Jun 2022 13:19:56.939,16 Jun 2022 13:24:46.142,289.204
235,16 Jun 2022 14:55:53.919,16 Jun 2022 15:02:26.747,392.828
236,16 Jun 2022 16:31:38.638,16 Jun 2022 16:39:24.049,465.412
237,16 Jun 2022 18:07:16.188,16 Jun 2022 18:15:24.814,488.626
238,16 Jun 2022 19:42:45.761,16 Jun 2022 19:50:31.759,465.997
239,16 Jun 2022 21:18:02.502,16 Jun 2022 21:24:59.720,417.218
240,16 Jun 2022 22:52:57.383,16 Jun 2022 22:59:15.285,377.902
241,17 Jun 2022 00:27:24.918,17 Jun 2022 00:33:47.688,382.769
242,17 Jun 2022 02:01:40.402,17 Jun 2022 02:08:47.546,427.144
243,17 Jun 2022 03:36:14.130,17 Jun 2022 03:44:07.344,473.214
244,17 Jun 2022 05:11:30.635,17 Jun 2022 05:19:38.694,488.058
245,17 Jun 2022 06:47:42.448,17 Jun 2022 06:55:17.560,455.113
246,17 Jun 2022 08:24:49.747,17 Jun 2022 08:31:03.953,374.206
247,17 Jun 2022 10:02:35.003,17 Jun 2022 10:07:04.989,269.985
248,17 Jun 2022 11:40:07.827,17 Jun 2022 11:43:47.841,220.014
249,17 Jun 2022 13:16:39.684,17 Jun 2022 13:21:28.462,288.779
250,17 Jun 2022 14:52:36.742,17 Jun 2022 14:59:09.184,392.442
251,17 Jun 2022 16:28:21.494,17 Jun 2022 16:36:06.705,465.211
252,17 Jun 2022 18:03:59.073,17 Jun 2022 18:12:07.705,488.632
253,17 Jun 2022 19:39:28.686,17 Jun 2022 19:47:14.849,466.163
254,17 Jun 2022 21:14:45.496,17 Jun 2022 21:21:42.924,417.428
255,17 Jun 2022 22:49:40.486,17 Jun 2022 22:55:58.475,377.989
256,18 Jun 2022 00:24:08.120,18 Jun 2022 00:30:30.769,382.648
257,18 Jun 2022 01:58:23.593,18 Jun 2022 02:05:30.524,426.931
258,18 Jun 2022 03:32:57.188,18 Jun 2022 03:40:50.260,473.072
259,18 Jun 2022 05:08:13.484,18 Jun 2022 05:16:21.573,488.089
260,18 Jun 2022 06:44:25.059,18 Jun 2022 06:52:00.412,455.352
261,18 Jun 2022 08:21:32.151,18 Jun 2022 08:27:46.767,374.616
262,18 Jun 2022 09:59:17.326,18 Jun 2022 10:03:47.706,270.380
263,18 Jun 2022 11:36:50.346,18 Jun 2022 11:40:30.304,219.958
264,18 Jun 2022 13:13:22.428,18 Jun 2022 13:18:10.782,288.354
265,18 Jun 2022 14:49:19.565,18 Jun 2022 14:55:51.620,392.056
266,18 Jun 2022 16:25:04.351,18 Jun 2022 16:32:49.360,465.009
267,18 Jun 2022 18:00:41.958,18 Jun 2022 18:08:50.596,488.638
268,18 Jun 2022 19:36:11.611,18 Jun 2022 19:43:57.939,466.328
269,18 Jun 2022 21:11:28.489,18 Jun 2022 21:18:26.128,417.638
270,18 Jun 2022 22:46:23.589,18 Jun 2022 22:52:41.665,378.076
271,19 Jun 2022 00:20:51.322,19 Jun 2022 00:27:13.850,382.528
272,19 Jun 2022 01:55:06.785,19 Jun 2022 02:02:13.502,426.717
273,19 Jun 2022 03:29:40.247,19 Jun 2022 03:37:33.176,472.929
274,19 Jun 2022 05:04:56.333,19 Jun 2022 05:13:04.452,488.119
275,19 Jun 2022 06:41:07.672,19 Jun 2022 06:48:43.263,455.591
276,19 Jun 2022 08:18:14.555,19 Jun 2022 08:24:29.580,375.025
277,19 Jun 2022 09:55:59.648,19 Jun 2022 10:00:30.424,270.776
278,19 Jun 2022 11:33:32.863,19 Jun 2022 11:37:12.768,219.905
279,19 Jun 2022 13:10:05.172,19 Jun 2022 13:14:53.102,287.930
280,19 Jun 2022 14:46:02.387,19 Jun 2022 14:52:34.056,391.668
281,19 Jun 2022 16:21:47.208,19 Jun 2022 16:29:32.013,464.806
282,19 Jun 2022 17:57:24.843,19 Jun 2022 18:05:33.486,488.643
283,19 Jun 2022 19:32:54.535,19 Jun 2022 19:40:41.029,466.493
284,19 Jun 2022 21:08:11.482,19 Jun 2022 21:15:09.331,417.849
285,19 Jun 2022 22:43:06.691,19 Jun 2022 22:49:24.856,378.164
286,20 Jun 2022 00:17:34.524,20 Jun 2022 00:23:56.932,382.408
287,20 Jun 2022 01:51:49.977,20 Jun 2022 01:58:56.481,426.504
288,20 Jun 2022 03:26:23.306,20 Jun 2022 03:34:16.092,472.786
289,20 Jun 2022 05:01:39.184,20 Jun 2022 05:09:47.332,488.148
290,20 Jun 2022 06:37:50.286,20 Jun 2022 06:45:26.115,455.829
291,20 Jun 2022 08:14:56.960,20 Jun 2022 08:21:12.394,375.434
292,20 Jun 2022 09:52:41.971,20 Jun 2022 09:57:13.143,271.173
293,20 Jun 2022 11:30:15.379,20 Jun 2022 11:33:55.234,219.855
294,20 Jun 2022 13:06:47.916,20 Jun 2022 13:11:35.422,287.506
295,20 Jun 2022 14:42:45.210,20 Jun 2022 14:49:16.490,391.281
296,20 Jun 2022 16:18:30.064,20 Jun 2022 16:26:14.666,464.602
297,20 Jun 2022 17:54:07.728,20 Jun 2022 18:02:16.374,488.647
298,20 Jun 2022 19:29:37.460,20 Jun 2022 19:37:24.117,466.658
299,20 Jun 2022 21:04:54.475,20 Jun 2022 21:11:52.535,418.059
300,20 Jun 2022 22:39:49.793,20 Jun 2022 22:46:08.046,378.253
301,21 Jun 2022 00:14:17.725,21 Jun 2022 00:20:40.014,382.289
302,21 Jun 2022 01:48:33.169,21 Jun 2022 01:55:39.460,426.290
303,21 Jun 2022 03:23:06.367,21 Jun 2022 03:30:59.009,472.642
304,21 Jun 2022 04:58:22.036,21 Jun 2022 05:06:30.212,488.176
305,21 Jun 2022 06:34:32.900,21 Jun 2022 06:42:08.967,456.066
306,21 Jun 2022 08:11:39.366,21 Jun 2022 08:17:55.208,375.842
307,21 Jun 2022 09:49:24.293,21 Jun 2022 09:53:55.863,271.570
308,21 Jun 2022 11:26:57.894,21 Jun 2022 11:30:37.702,219.807
309,21 Jun 2022 13:03:30.658,21 Jun 2022 13:08:17.742,287.084
310,21 Jun 2022 14:39:28.032,21 Jun 2022 14:45:58.924,390.892
311,21 Jun 2022 16:15:12.921,21 Jun 2022 16:22:57.319,464.398
312,21 Jun 2022 17:50:50.613,21 Jun 2022 17:58:59.262,488.650
313,21 Jun 2022 19:26:20.384,21 Jun 2022 19:34:07.205,466.821
314,21 Jun 2022 21:01:37.468,21 Jun 2022 21:08:35.738,418.270
315,21 Jun 2022 22:36:32.895,21 Jun 2022 22:42:51.237,378.342
316,22 Jun 2022 00:11:00.927,22 Jun 2022 00:17:23.097,382.171
317,22 Jun 2022 01:45:16.362,22 Jun 2022 01:52:22.439,426.077
318,22 Jun 2022 03:19:49.428,22 Jun 2022 03:27:41.926,472.497
319,22 Jun 2022 04:55:04.888,22 Jun 2022 05:03:13.092,488.204
320,22 Jun 2022 06:31:15.516,22 Jun 2022 06:38:51.819,456.302
321,22 Jun 2022 08:08:21.773,22 Jun 2022 08:14:38.023,376.250
322,22 Jun 2022 09:46:06.614,22 Jun 2022 09:50:38.582,271.967
323,22 Jun 2022 11:23:40.408,22 Jun 2022 11:27:20.170,219.763
324,22 Jun 2022 13:00:13.401,22 Jun 2022 13:05:00.062,286.662
325,22 Jun 2022 14:36:10.854,22 Jun 2022 14:42:41.358,390.504
326,22 Jun 2022 16:11:55.777,22 Jun 2022 16:19:39.970,464.193
327,22 Jun 2022 17:47:33.497,22 Jun 2022 17:55:42.150,488.652
328,22 Jun 2022 19:23:03.308,22 Jun 2022 19:30:50.292,466.984
329,22 Jun 2022 20:58:20.460,22 Jun 2022 21:05:18.940,418.480
330,22 Jun 2022 22:33:15.996,22 Jun 2022 22:39:34.429,378.432
331,23 Jun 2022 00:07:44.128,23 Jun 2022 00:14:06.181,382.053
332,23 Jun 2022 01:41:59.556,23 Jun 2022 01:49:05.418,425.863
333,23 Jun 2022 03:16:32.490,23 Jun 2022 03:24:24.843,472.352
334,23 Jun 2022 04:51:47.742,23 Jun 2022 04:59:55.972,488.231
335,23 Jun 2022 06:27:58.133,23 Jun 2022 06:35:34.671,456.538
336,23 Jun 2022 08:05:04.180,23 Jun 2022 08:11:20.838,376.658
337,23 Jun 2022 09:42:48.936,23 Jun 2022 09:47:21.303,272.367
338,23 Jun 2022 11:20:22.919,23 Jun 2022 11:24:02.640,219.721
339,23 Jun 2022 12:56:56.142,23 Jun 2022 13:01:42.383,286.241
340,23 Jun 2022 14:32:53.676,23 Jun 2022 14:39:23.791,390.115
341,23 Jun 2022 16:08:38.633,23 Jun 2022 16:16:22.620,463.987
342,23 Jun 2022 17:44:16.382,23 Jun 2022 17:52:25.036,488.654
343,23 Jun 2022 19:19:46.232,23 Jun 2022 19:27:33.379,467.147
344,23 Jun 2022 20:55:03.452,23 Jun 2022 21:02:02.143,418.691
345,23 Jun 2022 22:29:59.097,23 Jun 2022 22:36:17.620,378.523
346,24 Jun 2022 00:04:27.329,24 Jun 2022 00:10:49.264,381.935
347,24 Jun 2022 01:38:42.749,24 Jun 2022 01:45:48.398,425.649
348,24 Jun 2022 03:13:15.553,24 Jun 2022 03:21:07.757,472.204
349,24 Jun 2022 04:48:30.596,24 Jun 2022 04:56:38.852,488.256
350,24 Jun 2022 06:24:40.750,24 Jun 2022 06:32:17.523,456.773
351,24 Jun 2022 08:01:46.587,24 Jun 2022 08:08:03.653,377.065
352,24 Jun 2022 09:39:31.257,24 Jun 2022 09:44:04.026,272.769
353,24 Jun 2022 11:17:05.430,24 Jun 2022 11:20:45.112,219.682
354,24 Jun 2022 12:53:38.883,24 Jun 2022 12:58:24.703,285.820
355,24 Jun 2022 14:29:36.497,24 Jun 2022 14:36:06.222,389.726
356,24 Jun 2022 16:05:21.489,24 Jun 2022 16:13:05.270,463.781
357,24 Jun 2022 17:40:59.266,24 Jun 2022 17:49:07.921,488.654
358,24 Jun 2022 19:16:29.155,24 Jun 2022 19:24:16.465,467.309
359,24 Jun 2022 20:51:46.444,24 Jun 2022 20:58:45.345,418.901
360,24 Jun 2022 22:26:42.197,24 Jun 2022 22:33:00.812,378.615
361,25 Jun 2022 00:01:10.530,25 Jun 2022 00:07:32.349,381.819
362,25 Jun 2022 01:35:25.943,25 Jun 2022 01:42:31.378,425.435
363,25 Jun 2022 03:09:58.617,25 Jun 2022 03:17:50.674,472.058
364,25 Jun 2022 04:45:13.451,25 Jun 2022 04:53:21.733,488.282
365,25 Jun 2022 06:21:23.369,25 Jun 2022 06:29:00.375,457.007
366,25 Jun 2022 07:58:28.996,25 Jun 2022 08:04:46.468,377.472
367,25 Jun 2022 09:36:13.578,25 Jun 2022 09:40:46.749,273.171
368,25 Jun 2022 11:13:47.939,25 Jun 2022 11:17:27.584,219.645
369,25 Jun 2022 12:50:21.623,25 Jun 2022 12:55:07.023,285.400
370,25 Jun 2022 14:26:19.318,25 Jun 2022 14:32:48.654,389.336
371,25 Jun 2022 16:02:04.345,25 Jun 2022 16:09:47.918,463.573
372,25 Jun 2022 17:37:42.150,25 Jun 2022 17:45:50.805,488.654
373,25 Jun 2022 19:13:12.079,25 Jun 2022 19:20:59.550,467.471
374,25 Jun 2022 20:48:29.435,25 Jun 2022 20:55:28.547,419.112
375,25 Jun 2022 22:23:25.297,25 Jun 2022 22:29:44.004,378.707
376,25 Jun 2022 23:57:53.730,26 Jun 2022 00:04:15.433,381.703
377,26 Jun 2022 01:32:09.137,26 Jun 2022 01:39:14.359,425.222
378,26 Jun 2022 03:06:41.681,26 Jun 2022 03:14:33.592,471.911
379,26 Jun 2022 04:41:56.307,26 Jun 2022 04:50:04.613,488.306
380,26 Jun 2022 06:18:05.988,26 Jun 2022 06:25:43.227,457.240
381,26 Jun 2022 07:55:11.404,26 Jun 2022 08:01:29.283,377.879
382,26 Jun 2022 09:32:55.899,26 Jun 2022 09:37:29.472,273.573
383,26 Jun 2022 11:10:30.447,26 Jun 2022 11:14:10.058,219.611
384,26 Jun 2022 12:47:04.362,26 Jun 2022 12:51:49.343,284.981
385,26 Jun 2022 14:23:02.139,26 Jun 2022 14:29:31.084,388.945
386,26 Jun 2022 15:58:47.201,26 Jun 2022 16:06:30.565,463.365
387,26 Jun 2022 17:34:25.034,26 Jun 2022 17:42:33.688,488.654
388,26 Jun 2022 19:09:55.002,26 Jun 2022 19:17:42.634,467.632
389,26 Jun 2022 20:45:12.425,26 Jun 2022 20:52:11.748,419.323
390,26 Jun 2022 22:20:08.396,26 Jun 2022 22:26:27.196,378.800
391,26 Jun 2022 23:54:36.930,27 Jun 2022 00:00:58.518,381.588
392,27 Jun 2022 01:28:52.331,27 Jun 2022 01:35:57.339,425.008
393,27 Jun 2022 03:03:24.746,27 Jun 2022 03:11:16.509,471.764
394,27 Jun 2022 04:38:39.164,27 Jun 2022 04:46:47.493,488.329
395,27 Jun 2022 06:14:48.608,27 Jun 2022 06:22:26.080,457.472
396,27 Jun 2022 07:51:53.814,27 Jun 2022 07:58:12.099,378.285
397,27 Jun 2022 09:29:38.219,27 Jun 2022 09:34:12.196,273.976
398,27 Jun 2022 11:07:12.954,27 Jun 2022 11:10:52.533,219.579
399,27 Jun 2022 12:43:47.101,27 Jun 2022 12:48:31.663,284.562
400,27 Jun 2022 14:19:44.959,27 Jun 2022 14:26:13.513,388.554
401,27 Jun 2022 15:55:30.056,27 Jun 2022 16:03:13.211,463.155
402,27 Jun 2022 17:31:07.918,27 Jun 2022 17:39:16.570,488.652
403,27 Jun 2022 19:06:37.925,27 Jun 2022 19:14:25.717,467.793
404,27 Jun 2022 20:41:55.415,27 Jun 2022 20:48:54.949,419.534
405,27 Jun 2022 22:16:51.495,27 Jun 2022 22:23:10.388,378.894
406,27 Jun 2022 23:51:20.130,27 Jun 2022 23:57:41.604,381.473
407,28 Jun 2022 01:25:35.526,28 Jun 2022 01:32:40.320,424.794
408,28 Jun 2022 03:00:07.811,28 Jun 2022 03:07:59.427,471.616
409,28 Jun 2022 04:35:22.022,28 Jun 2022 04:43:30.374,488.352
410,28 Jun 2022 06:11:31.229,28 Jun 2022 06:19:08.932,457.703
411,28 Jun 2022 07:48:36.224,28 Jun 2022 07:54:54.914,378.690
412,28 Jun 2022 09:26:20.540,28 Jun 2022 09:30:54.920,274.380
413,28 Jun 2022 11:03:55.459,28 Jun 2022 11:07:35.008,219.549
414,28 Jun 2022 12:40:29.840,28 Jun 2022 12:45:13.983,284.143
415,28 Jun 2022 14:16:27.782,28 Jun 2022 14:22:55.942,388.159
416,28 Jun 2022 15:52:12.911,28 Jun 2022 15:59:55.857,462.945
417,28 Jun 2022 17:27:50.802,28 Jun 2022 17:35:59.451,488.650
418,28 Jun 2022 19:03:20.847,28 Jun 2022 19:11:08.800,467.953
419,28 Jun 2022 20:38:38.405,28 Jun 2022 20:45:38.150,419.745
420,28 Jun 2022 22:13:34.592,28 Jun 2022 22:19:53.581,378.989
421,28 Jun 2022 23:48:03.330,28 Jun 2022 23:54:24.690,381.360
422,29 Jun 2022 01:22:18.721,29 Jun 2022 01:29:23.302,424.581
423,29 Jun 2022 02:56:50.877,29 Jun 2022 03:04:42.345,471.468
424,29 Jun 2022 04:32:04.881,29 Jun 2022 04:40:13.255,488.373
425,29 Jun 2022 06:08:13.851,29 Jun 2022 06:15:51.787,457.936
426,29 Jun 2022 07:45:18.635,29 Jun 2022 07:51:37.730,379.095
427,29 Jun 2022 09:23:02.861,29 Jun 2022 09:27:37.645,274.784
428,29 Jun 2022 11:00:37.963,29 Jun 2022 11:04:17.485,219.522
429,29 Jun 2022 12:37:12.578,29 Jun 2022 12:41:56.303,283.725
430,29 Jun 2022 14:13:10.603,29 Jun 2022 14:19:38.370,387.767
431,29 Jun 2022 15:48:55.766,29 Jun 2022 15:56:38.501,462.734
432,29 Jun 2022 17:24:33.685,29 Jun 2022 17:32:42.331,488.646
433,29 Jun 2022 19:00:03.769,29 Jun 2022 19:07:51.882,468.113
434,29 Jun 2022 20:35:21.395,29 Jun 2022 20:42:21.351,419.957
435,29 Jun 2022 22:10:17.690,29 Jun 2022 22:16:36.774,379.084
436,29 Jun 2022 23:44:46.529,29 Jun 2022 23:51:07.776,381.247
437,30 Jun 2022 01:19:01.916,30 Jun 2022 01:26:06.283,424.368
438,30 Jun 2022 02:53:33.944,30 Jun 2022 03:01:25.263,471.319
439,30 Jun 2022 04:28:47.741,30 Jun 2022 04:36:56.135,488.394
440,30 Jun 2022 06:04:56.474,30 Jun 2022 06:12:34.640,458.165
441,30 Jun 2022 07:42:01.047,30 Jun 2022 07:48:20.546,379.499
442,30 Jun 2022 09:19:45.181,30 Jun 2022 09:24:20.370,275.189
443,30 Jun 2022 10:57:20.467,30 Jun 2022 11:00:59.963,219.496
444,30 Jun 2022 12:33:55.315,30 Jun 2022 12:38:38.622,283.307
445,30 Jun 2022 14:09:53.423,30 Jun 2022 14:16:20.796,387.374
446,30 Jun 2022 15:45:38.622,30 Jun 2022 15:53:21.144,462.523
447,30 Jun 2022 17:21:16.569,30 Jun 2022 17:29:25.211,488.642
448,30 Jun 2022 18:56:46.691,30 Jun 2022 19:04:34.964,468.272
449,30 Jun 2022 20:32:04.384,30 Jun 2022 20:39:04.552,420.168
450,30 Jun 2022 22:07:00.787,30 Jun 2022 22:13:19.968,379.181
451,30 Jun 2022 23:41:29.728,30 Jun 2022 23:47:50.863,381.136
452,1 Jul 2022 01:15:45.111,1 Jul 2022 01:22:49.266,424.155
453,1 Jul 2022 02:50:17.012,1 Jul 2022 02:58:08.181,471.170
454,1 Jul 2022 04:25:30.602,1 Jul 2022 04:33:39.016,488.414
455,1 Jul 2022 06:01:39.099,1 Jul 2022 06:09:17.493,458.394
456,1 Jul 2022 07:38:43.460,1 Jul 2022 07:45:03.362,379.902
457,1 Jul 2022 09:16:27.502,1 Jul 2022 09:21:03.096,275.594
458,1 Jul 2022 10:54:02.969,1 Jul 2022 10:57:42.442,219.473
459,1 Jul 2022 12:30:38.052,1 Jul 2022 12:35:20.942,282.890
460,1 Jul 2022 14:06:36.243,1 Jul 2022 14:13:03.223,386.980
461,1 Jul 2022 15:42:21.477,1 Jul 2022 15:50:03.787,462.310
462,1 Jul 2022 17:17:59.452,1 Jul 2022 17:26:08.089,488.637
463,1 Jul 2022 18:53:29.613,1 Jul 2022 19:01:18.044,468.431
464,1 Jul 2022 20:28:47.372,1 Jul 2022 20:35:47.752,420.380
465,1 Jul 2022 22:03:43.883,1 Jul 2022 22:10:03.162,379.279
466,1 Jul 2022 23:38:12.926,1 Jul 2022 23:44:33.951,381.025
467,2 Jul 2022 01:12:28.307,2 Jul 2022 01:19:32.248,423.942
468,2 Jul 2022 02:47:00.080,2 Jul 2022 02:54:51.100,471.020
469,2 Jul 2022 04:22:13.463,2 Jul 2022 04:30:21.897,488.434
470,2 Jul 2022 05:58:21.724,2 Jul 2022 06:06:00.345,458.622
471,2 Jul 2022 07:35:25.873,2 Jul 2022 07:41:46.178,380.305
472,2 Jul 2022 09:13:09.823,2 Jul 2022 09:17:45.822,275.999
473,2 Jul 2022 10:50:45.470,2 Jul 2022 10:54:24.922,219.452
474,2 Jul 2022 12:27:20.789,2 Jul 2022 12:32:03.261,282.473
475,2 Jul 2022 14:03:19.063,2 Jul 2022 14:09:45.648,386.585
476,2 Jul 2022 15:39:04.332,2 Jul 2022 15:46:46.428,462.096
477,2 Jul 2022 17:14:42.335,2 Jul 2022 17:22:50.967,488.632
478,2 Jul 2022 18:50:12.535,2 Jul 2022 18:58:01.127,468.592
479,2 Jul 2022 20:25:30.360,2 Jul 2022 20:32:30.953,420.592
480,2 Jul 2022 22:00:26.979,2 Jul 2022 22:06:46.356,379.377
481,2 Jul 2022 23:34:56.125,2 Jul 2022 23:41:17.039,380.915
482,3 Jul 2022 01:09:11.502,3 Jul 2022 01:16:15.231,423.729
483,3 Jul 2022 02:43:43.149,3 Jul 2022 02:51:34.019,470.870
484,3 Jul 2022 04:18:56.326,3 Jul 2022 04:27:04.778,488.452
485,3 Jul 2022 05:55:04.350,3 Jul 2022 06:02:43.199,458.849
486,3 Jul 2022 07:32:08.287,3 Jul 2022 07:38:28.994,380.707
487,3 Jul 2022 09:09:52.143,3 Jul 2022 09:14:28.545,276.402
488,3 Jul 2022 10:47:27.970,3 Jul 2022 10:51:07.403,219.433
489,3 Jul 2022 12:24:03.525,3 Jul 2022 12:28:45.581,282.056
490,3 Jul 2022 14:00:01.883,3 Jul 2022 14:06:28.073,386.190
491,3 Jul 2022 15:35:47.187,3 Jul 2022 15:43:29.068,461.882
492,3 Jul 2022 17:11:25.218,3 Jul 2022 17:19:33.843,488.625
493,3 Jul 2022 18:46:55.457,3 Jul 2022 18:54:44.207,468.750
494,3 Jul 2022 20:22:13.348,3 Jul 2022 20:29:14.153,420.804
495,3 Jul 2022 21:57:10.074,3 Jul 2022 22:03:29.551,379.476
496,3 Jul 2022 23:31:39.323,3 Jul 2022 23:38:00.128,380.805
497,4 Jul 2022 01:05:54.699,4 Jul 2022 01:12:58.214,423.516
498,4 Jul 2022 02:40:26.219,4 Jul 2022 02:48:16.938,470.719
499,4 Jul 2022 04:15:39.190,4 Jul 2022 04:23:47.660,488.470
500,4 Jul 2022 05:51:46.977,4 Jul 2022 05:59:26.052,459.075
501,4 Jul 2022 07:28:50.702,4 Jul 2022 07:35:11.811,381.109
502,4 Jul 2022 09:06:34.464,4 Jul 2022 09:11:11.271,276.807
503,4 Jul 2022 10:44:10.469,4 Jul 2022 10:47:49.886,219.417
504,4 Jul 2022 12:20:46.260,4 Jul 2022 12:25:27.900,281.640
505,4 Jul 2022 13:56:44.702,4 Jul 2022 14:03:10.497,385.795
506,4 Jul 2022 15:32:30.042,4 Jul 2022 15:40:11.708,461.666
507,4 Jul 2022 17:08:08.101,4 Jul 2022 17:16:16.719,488.618
508,4 Jul 2022 18:43:38.378,4 Jul 2022 18:51:27.286,468.908
509,4 Jul 2022 20:18:56.336,4 Jul 2022 20:25:57.353,421.016
510,4 Jul 2022 21:53:53.169,4 Jul 2022 22:00:12.746,379.576
511,4 Jul 2022 23:28:22.521,4 Jul 2022 23:34:43.218,380.697
512,5 Jul 2022 01:02:37.895,5 Jul 2022 01:09:41.196,423.300
513,5 Jul 2022 02:37:09.290,5 Jul 2022 02:44:59.857,470.567
514,5 Jul 2022 04:12:22.055,5 Jul 2022 04:20:30.541,488.487
515,5 Jul 2022 05:48:29.605,5 Jul 2022 05:56:08.905,459.300
516,5 Jul 2022 07:25:33.118,5 Jul 2022 07:31:54.628,381.510
517,5 Jul 2022 09:03:16.785,5 Jul 2022 09:07:53.999,277.215
518,5 Jul 2022 10:40:52.967,5 Jul 2022 10:44:32.370,219.403
519,5 Jul 2022 12:17:28.995,5 Jul 2022 12:22:10.220,281.225
520,5 Jul 2022 13:53:27.522,5 Jul 2022 13:59:52.921,385.399
521,5 Jul 2022 15:29:12.897,5 Jul 2022 15:36:54.347,461.450
522,5 Jul 2022 17:04:50.984,5 Jul 2022 17:12:59.594,488.610
523,5 Jul 2022 18:40:21.300,5 Jul 2022 18:48:10.364,469.064
524,5 Jul 2022 20:15:39.324,5 Jul 2022 20:22:40.552,421.229
525,5 Jul 2022 21:50:36.264,5 Jul 2022 21:56:55.941,379.677
526,5 Jul 2022 23:25:05.719,5 Jul 2022 23:31:26.308,380.589
527,6 Jul 2022 00:59:21.092,6 Jul 2022 01:06:24.180,423.087
528,6 Jul 2022 02:33:52.361,6 Jul 2022 02:41:42.777,470.416
529,6 Jul 2022 04:09:04.921,6 Jul 2022 04:17:13.423,488.503
530,6 Jul 2022 05:45:12.235,6 Jul 2022 05:52:51.759,459.524
531,6 Jul 2022 07:22:15.534,6 Jul 2022 07:28:37.446,381.911
532,6 Jul 2022 08:59:59.105,6 Jul 2022 09:04:36.728,277.623
533,6 Jul 2022 10:37:35.463,6 Jul 2022 10:41:14.856,219.392
534,6 Jul 2022 12:14:11.730,6 Jul 2022 12:18:52.540,280.811
535,6 Jul 2022 13:50:10.341,6 Jul 2022 13:56:35.343,385.002
536,6 Jul 2022 15:25:55.751,6 Jul 2022 15:33:36.985,461.233
537,6 Jul 2022 17:01:33.867,6 Jul 2022 17:09:42.468,488.601
538,6 Jul 2022 18:37:04.221,6 Jul 2022 18:44:53.442,469.221
539,6 Jul 2022 20:12:22.311,6 Jul 2022 20:19:23.752,421.441
540,6 Jul 2022 21:47:19.358,6 Jul 2022 21:53:39.136,379.778
541,6 Jul 2022 23:21:48.916,6 Jul 2022 23:28:09.398,380.482
542,7 Jul 2022 00:56:04.290,7 Jul 2022 01:03:07.164,422.875
543,7 Jul 2022 02:30:35.434,7 Jul 2022 02:38:25.697,470.263
544,7 Jul 2022 04:05:47.787,7 Jul 2022 04:13:56.305,488.518
545,7 Jul 2022 05:41:54.865,7 Jul 2022 05:49:34.613,459.748
546,7 Jul 2022 07:18:57.952,7 Jul 2022 07:25:20.263,382.312
547,7 Jul 2022 08:56:41.425,7 Jul 2022 09:01:19.458,278.033
548,7 Jul 2022 10:34:17.958,7 Jul 2022 10:37:57.342,219.384
549,7 Jul 2022 12:10:54.463,7 Jul 2022 12:15:34.860,280.397
550,7 Jul 2022 13:46:53.160,7 Jul 2022 13:53:17.763,384.603
551,7 Jul 2022 15:22:38.606,7 Jul 2022 15:30:19.621,461.016
552,7 Jul 2022 16:58:16.750,7 Jul 2022 17:06:25.341,488.591
553,7 Jul 2022 18:33:47.142,7 Jul 2022 18:41:36.519,469.377
554,7 Jul 2022 20:09:05.298,7 Jul 2022 20:16:06.951,421.653
555,7 Jul 2022 21:44:02.452,7 Jul 2022 21:50:22.332,379.880
556,7 Jul 2022 23:18:32.114,7 Jul 2022 23:24:52.489,380.375
557,8 Jul 2022 00:52:47.487,8 Jul 2022 00:59:50.149,422.662
558,8 Jul 2022 02:27:18.506,8 Jul 2022 02:35:08.617,470.110
559,8 Jul 2022 04:02:30.655,8 Jul 2022 04:10:39.187,488.532
560,8 Jul 2022 05:38:37.496,8 Jul 2022 05:46:17.467,459.971
561,8 Jul 2022 07:15:40.369,8 Jul 2022 07:22:03.081,382.712
562,8 Jul 2022 08:53:23.745,8 Jul 2022 08:58:02.189,278.443
563,8 Jul 2022 10:31:00.451,8 Jul 2022 10:34:39.831,219.379
564,8 Jul 2022 12:07:37.196,8 Jul 2022 12:12:17.181,279.985
565,8 Jul 2022 13:43:35.979,8 Jul 2022 13:50:00.185,384.206
566,8 Jul 2022 15:19:21.460,8 Jul 2022 15:27:02.257,460.797
567,8 Jul 2022 16:54:59.633,8 Jul 2022 17:03:08.213,488.581
568,8 Jul 2022 18:30:30.063,8 Jul 2022 18:38:19.595,469.532
569,8 Jul 2022 20:05:48.284,8 Jul 2022 20:12:50.149,421.865
570,8 Jul 2022 21:40:45.545,8 Jul 2022 21:47:05.528,379.982
571,8 Jul 2022 23:15:15.311,8 Jul 2022 23:21:35.580,380.269
572,9 Jul 2022 00:49:30.685,9 Jul 2022 00:56:33.134,422.449
573,9 Jul 2022 02:24:01.580,9 Jul 2022 02:31:51.537,469.956
574,9 Jul 2022 03:59:13.523,9 Jul 2022 04:07:22.069,488.546
575,9 Jul 2022 05:35:20.128,9 Jul 2022 05:43:00.321,460.193
576,9 Jul 2022 07:12:22.788,9 Jul 2022 07:18:45.900,383.112
577,9 Jul 2022 08:50:06.065,9 Jul 2022 08:54:44.920,278.855
578,9 Jul 2022 10:27:42.943,9 Jul 2022 10:31:22.320,219.377
579,9 Jul 2022 12:04:19.928,9 Jul 2022 12:08:59.501,279.573
580,9 Jul 2022 13:40:18.797,9 Jul 2022 13:46:42.605,383.808
581,9 Jul 2022 15:16:04.315,9 Jul 2022 15:23:44.892,460.578
582,9 Jul 2022 16:51:42.515,9 Jul 2022 16:59:51.084,488.569
583,9 Jul 2022 18:27:12.983,9 Jul 2022 18:35:02.670,469.687
584,9 Jul 2022 20:02:31.270,9 Jul 2022 20:09:33.348,422.077
585,9 Jul 2022 21:37:28.638,9 Jul 2022 21:43:48.724,380.086
586,9 Jul 2022 23:11:58.508,9 Jul 2022 23:18:18.671,380.163
587,10 Jul 2022 00:46:13.884,10 Jul 2022 00:53:16.119,422.236
588,10 Jul 2022 02:20:44.654,10 Jul 2022 02:28:34.457,469.802
589,10 Jul 2022 03:55:56.393,10 Jul 2022 04:04:04.951,488.558
590,10 Jul 2022 05:32:02.761,10 Jul 2022 05:39:43.175,460.414
591,10 Jul 2022 07:09:05.206,10 Jul 2022 07:15:28.718,383.511
592,10 Jul 2022 08:46:48.385,10 Jul 2022 08:51:27.652,279.267
593,10 Jul 2022 10:24:25.434,10 Jul 2022 10:28:04.811,219.377
594,10 Jul 2022 12:01:02.659,10 Jul 2022 12:05:41.822,279.162
595,10 Jul 2022 13:37:01.615,10 Jul 2022 13:43:25.025,383.410
596,10 Jul 2022 15:12:47.168,10 Jul 2022 15:20:27.526,460.358
597,10 Jul 2022 16:48:25.397,10 Jul 2022 16:56:33.952,488.555
598,10 Jul 2022 18:23:55.903,10 Jul 2022 18:31:45.744,469.841
599,10 Jul 2022 19:59:14.256,10 Jul 2022 20:06:16.545,422.289
600,10 Jul 2022 21:34:11.730,10 Jul 2022 21:40:31.920,380.190
601,10 Jul 2022 23:08:41.704,10 Jul 2022 23:15:01.763,380.059
602,11 Jul 2022 00:42:57.082,11 Jul 2022 00:49:59.105,422.023
603,11 Jul 2022 02:17:27.729,11 Jul 2022 02:25:17.377,469.648
604,11 Jul 2022 03:52:39.263,11 Jul 2022 04:00:47.833,488.570
605,11 Jul 2022 05:28:45.394,11 Jul 2022 05:36:26.029,460.634
606,11 Jul 2022 07:05:47.626,11 Jul 2022 07:12:11.536,383.910
607,11 Jul 2022 08:43:30.704,11 Jul 2022 08:48:10.384,279.680
608,11 Jul 2022 10:21:07.923,11 Jul 2022 10:24:47.303,219.380
609,11 Jul 2022 11:57:45.390,11 Jul 2022 12:02:24.142,278.752
610,11 Jul 2022 13:33:44.433,11 Jul 2022 13:40:07.444,383.012
611,11 Jul 2022 15:09:30.022,11 Jul 2022 15:17:10.159,460.136
612,11 Jul 2022 16:45:08.279,11 Jul 2022 16:53:16.821,488.542
613,11 Jul 2022 18:20:38.823,11 Jul 2022 18:28:28.818,469.995
614,11 Jul 2022 19:55:57.241,11 Jul 2022 20:02:59.743,422.502
615,11 Jul 2022 21:30:54.822,11 Jul 2022 21:37:15.116,380.294
616,11 Jul 2022 23:05:24.900,11 Jul 2022 23:11:44.855,379.955
617,12 Jul 2022 00:39:40.281,12 Jul 2022 00:46:42.091,421.810
618,12 Jul 2022 02:14:10.805,12 Jul 2022 02:22:00.297,469.492
619,12 Jul 2022 03:49:22.134,12 Jul 2022 03:57:30.715,488.582
620,12 Jul 2022 05:25:28.029,12 Jul 2022 05:33:08.883,460.854
621,12 Jul 2022 07:02:30.046,12 Jul 2022 07:08:54.355,384.308
622,12 Jul 2022 08:40:13.024,12 Jul 2022 08:44:53.116,280.093
623,12 Jul 2022 10:17:50.411,12 Jul 2022 10:21:29.796,219.385
624,12 Jul 2022 11:54:28.120,12 Jul 2022 11:59:06.462,278.342
625,12 Jul 2022 13:30:27.250,12 Jul 2022 13:36:49.863,382.612
626,12 Jul 2022 15:06:12.876,12 Jul 2022 15:13:52.790,459.915
627,12 Jul 2022 16:41:51.161,12 Jul 2022 16:49:59.689,488.528
628,12 Jul 2022 18:17:21.743,12 Jul 2022 18:25:11.891,470.148
629,12 Jul 2022 19:52:40.226,12 Jul 2022 19:59:42.943,422.717
630,12 Jul 2022 21:27:37.913,12 Jul 2022 21:33:58.313,380.400
631,12 Jul 2022 23:02:08.096,12 Jul 2022 23:08:27.948,379.852
632,13 Jul 2022 00:36:23.479,13 Jul 2022 00:43:25.077,421.598
633,13 Jul 2022 02:10:53.881,13 Jul 2022 02:18:43.218,469.337
634,13 Jul 2022 03:46:05.006,13 Jul 2022 03:54:13.598,488.592
635,13 Jul 2022 05:22:10.664,13 Jul 2022 05:29:51.737,461.072
636,13 Jul 2022 06:59:12.465,13 Jul 2022 07:05:37.173,384.708
637,13 Jul 2022 08:36:55.343,13 Jul 2022 08:41:35.849,280.506
638,13 Jul 2022 10:14:32.898,13 Jul 2022 10:18:12.289,219.392
639,13 Jul 2022 11:51:10.849,13 Jul 2022 11:55:48.782,277.932
640,13 Jul 2022 13:27:10.068,13 Jul 2022 13:33:32.280,382.212
641,13 Jul 2022 15:02:55.729,13 Jul 2022 15:10:35.421,459.692
642,13 Jul 2022 16:38:34.042,13 Jul 2022 16:46:42.556,488.514
643,13 Jul 2022 18:14:04.662,13 Jul 2022 18:21:54.963,470.301
644,13 Jul 2022 19:49:23.210,13 Jul 2022 19:56:26.140,422.930
645,13 Jul 2022 21:24:21.003,13 Jul 2022 21:30:41.510,380.507
646,13 Jul 2022 22:58:51.291,13 Jul 2022 23:05:11.042,379.750
647,14 Jul 2022 00:33:06.678,14 Jul 2022 00:40:08.063,421.385
648,14 Jul 2022 02:07:36.957,14 Jul 2022 02:15:26.138,469.181
649,14 Jul 2022 03:42:47.879,14 Jul 2022 03:50:56.480,488.601
650,14 Jul 2022 05:18:53.301,14 Jul 2022 05:26:34.591,461.290
651,14 Jul 2022 06:55:54.887,14 Jul 2022 07:02:19.992,385.105
652,14 Jul 2022 08:33:37.663,14 Jul 2022 08:38:18.582,280.920
653,14 Jul 2022 10:11:15.384,14 Jul 2022 10:14:54.784,219.400
654,14 Jul 2022 11:47:53.578,14 Jul 2022 11:52:31.101,277.523
655,14 Jul 2022 13:23:52.885,14 Jul 2022 13:30:14.696,381.811
656,14 Jul 2022 14:59:38.583,14 Jul 2022 15:07:18.050,459.468
657,14 Jul 2022 16:35:16.924,14 Jul 2022 16:43:25.422,488.498
658,14 Jul 2022 18:10:47.581,14 Jul 2022 18:18:38.035,470.453
659,14 Jul 2022 19:46:06.194,14 Jul 2022 19:53:09.337,423.143
660,14 Jul 2022 21:21:04.093,14 Jul 2022 21:27:24.707,380.615
661,14 Jul 2022 22:55:34.486,14 Jul 2022 23:01:54.136,379.649
662,15 Jul 2022 00:29:49.877,15 Jul 2022 00:36:51.050,421.173
663,15 Jul 2022 02:04:20.035,15 Jul 2022 02:12:09.059,469.024
664,15 Jul 2022 03:39:30.753,15 Jul 2022 03:47:39.363,488.610
665,15 Jul 2022 05:15:35.939,15 Jul 2022 05:23:17.445,461.507
666,15 Jul 2022 06:52:37.309,15 Jul 2022 06:59:02.810,385.501
667,15 Jul 2022 08:30:19.983,15 Jul 2022 08:35:01.316,281.334
668,15 Jul 2022 10:07:57.869,15 Jul 2022 10:11:37.280,219.411
669,15 Jul 2022 11:44:36.307,15 Jul 2022 11:49:13.421,277.114
670,15 Jul 2022 13:20:35.702,15 Jul 2022 13:26:57.112,381.410
671,15 Jul 2022 14:56:21.436,15 Jul 2022 15:04:00.679,459.243
672,15 Jul 2022 16:31:59.805,15 Jul 2022 16:40:08.287,488.482
673,15 Jul 2022 18:07:30.500,15 Jul 2022 18:15:21.106,470.605
674,15 Jul 2022 19:42:49.178,15 Jul 2022 19:49:52.533,423.356
675,15 Jul 2022 21:17:47.182,15 Jul 2022 21:24:07.905,380.723
676,15 Jul 2022 22:52:17.681,15 Jul 2022 22:58:37.230,379.549
677,16 Jul 2022 00:26:33.076,16 Jul 2022 00:33:34.038,420.961
678,16 Jul 2022 02:01:03.113,16 Jul 2022 02:08:51.978,468.865
679,16 Jul 2022 03:36:13.627,16 Jul 2022 03:44:22.245,488.618
680,16 Jul 2022 05:12:18.577,16 Jul 2022 05:20:00.300,461.722
681,16 Jul 2022 06:49:19.733,16 Jul 2022 06:55:45.629,385.896
682,16 Jul 2022 08:27:02.303,16 Jul 2022 08:31:44.051,281.748
683,16 Jul 2022 10:04:40.354,16 Jul 2022 10:08:19.777,219.423
684,16 Jul 2022 11:41:19.036,16 Jul 2022 11:45:55.746,276.710
685,16 Jul 2022 13:17:18.519,16 Jul 2022 13:23:39.527,381.008
686,16 Jul 2022 14:53:04.289,16 Jul 2022 15:00:43.307,459.017
687,16 Jul 2022 16:28:42.687,16 Jul 2022 16:36:51.152,488.465
688,16 Jul 2022 18:04:13.419,16 Jul 2022 18:12:04.176,470.757
689,16 Jul 2022 19:39:32.161,16 Jul 2022 19:46:35.730,423.569
690,16 Jul 2022 21:14:30.271,16 Jul 2022 21:20:51.103,380.832
691,16 Jul 2022 22:49:00.876,16 Jul 2022 22:55:20.326,379.450
692,17 Jul 2022 00:23:16.276,17 Jul 2022 00:30:17.026,420.750
693,17 Jul 2022 01:57:46.192,17 Jul 2022 02:05:34.900,468.708
694,17 Jul 2022 03:32:56.503,17 Jul 2022 03:41:05.128,488.625
695,17 Jul 2022 05:09:01.217,17 Jul 2022 05:16:43.154,461.937
696,17 Jul 2022 06:46:02.157,17 Jul 2022 06:52:28.451,386.294
697,17 Jul 2022 08:23:44.623,17 Jul 2022 08:28:26.786,282.163
698,17 Jul 2022 10:01:22.837,17 Jul 2022 10:05:02.276,219.439
699,17 Jul 2022 11:38:01.763,17 Jul 2022 11:42:38.066,276.303
700,17 Jul 2022 13:14:01.337,17 Jul 2022 13:20:21.942,380.606
701,17 Jul 2022 14:49:47.143,17 Jul 2022 14:57:25.934,458.791
702,17 Jul 2022 16:25:25.568,17 Jul 2022 16:33:34.015,488.447
703,17 Jul 2022 18:00:56.338,17 Jul 2022 18:08:47.246,470.907
704,17 Jul 2022 19:36:15.144,17 Jul 2022 19:43:18.926,423.782
705,17 Jul 2022 21:11:13.359,17 Jul 2022 21:17:34.302,380.942
706,17 Jul 2022 22:45:44.070,17 Jul 2022 22:52:03.422,379.352
707,18 Jul 2022 00:19:59.476,18 Jul 2022 00:27:00.014,420.538
708,18 Jul 2022 01:54:29.272,18 Jul 2022 02:02:17.822,468.550
709,18 Jul 2022 03:29:39.380,18 Jul 2022 03:37:48.012,488.631
710,18 Jul 2022 05:05:43.858,18 Jul 2022 05:13:26.009,462.151
711,18 Jul 2022 06:42:44.583,18 Jul 2022 06:49:11.271,386.688
712,18 Jul 2022 08:20:26.943,18 Jul 2022 08:25:09.522,282.579
713,18 Jul 2022 09:58:05.318,18 Jul 2022 10:01:44.776,219.457
714,18 Jul 2022 11:34:44.491,18 Jul 2022 11:39:20.387,275.896
715,18 Jul 2022 13:10:44.153,18 Jul 2022 13:17:04.356,380.203
716,18 Jul 2022 14:46:29.996,18 Jul 2022 14:54:08.560,458.564
717,18 Jul 2022 16:22:08.450,18 Jul 2022 16:30:16.878,488.428
718,18 Jul 2022 17:57:39.257,18 Jul 2022 18:05:30.315,471.058
719,18 Jul 2022 19:32:58.127,18 Jul 2022 19:40:02.123,423.996
720,18 Jul 2022 21:07:56.447,18 Jul 2022 21:14:17.500,381.053
721,18 Jul 2022 22:42:27.264,18 Jul 2022 22:48:46.518,379.254
722,19 Jul 2022 00:16:42.677,19 Jul 2022 00:23:43.003,420.326
723,19 Jul 2022 01:51:12.353,19 Jul 2022 01:59:00.744,468.391
724,19 Jul 2022 03:26:22.258,19 Jul 2022 03:34:30.895,488.637
725,19 Jul 2022 05:02:26.500,19 Jul 2022 05:10:08.864,462.365
726,19 Jul 2022 06:39:27.009,19 Jul 2022 06:45:54.091,387.082
727,19 Jul 2022 08:17:09.263,19 Jul 2022 08:21:52.259,282.996
728,19 Jul 2022 09:54:47.799,19 Jul 2022 09:58:27.277,219.478
729,19 Jul 2022 11:31:27.217,19 Jul 2022 11:36:02.707,275.490
730,19 Jul 2022 13:07:26.970,19 Jul 2022 13:13:46.770,379.800
731,19 Jul 2022 14:43:12.850,19 Jul 2022 14:50:51.185,458.336
732,19 Jul 2022 16:18:51.331,19 Jul 2022 16:26:59.740,488.409
733,19 Jul 2022 17:54:22.176,19 Jul 2022 18:02:13.383,471.207
734,19 Jul 2022 19:29:41.110,19 Jul 2022 19:36:45.318,424.209
735,19 Jul 2022 21:04:39.535,19 Jul 2022 21:11:00.699,381.164
736,19 Jul 2022 22:39:10.458,19 Jul 2022 22:45:29.615,379.157
737,20 Jul 2022 00:13:25.878,20 Jul 2022 00:20:25.992,420.114
738,20 Jul 2022 01:47:55.434,20 Jul 2022 01:55:43.667,468.232
739,20 Jul 2022 03:23:05.137,20 Jul 2022 03:31:13.779,488.641
740,20 Jul 2022 04:59:09.143,20 Jul 2022 05:06:51.720,462.577
741,20 Jul 2022 06:36:09.435,20 Jul 2022 06:42:36.911,387.476
742,20 Jul 2022 08:13:51.583,20 Jul 2022 08:18:34.996,283.413
743,20 Jul 2022 09:51:30.278,20 Jul 2022 09:55:09.780,219.502
744,20 Jul 2022 11:28:09.943,20 Jul 2022 11:32:45.028,275.085
745,20 Jul 2022 13:04:09.786,20 Jul 2022 13:10:29.183,379.396
746,20 Jul 2022 14:39:55.703,20 Jul 2022 14:47:33.809,458.107
747,20 Jul 2022 16:15:34.212,20 Jul 2022 16:23:42.601,488.389
748,20 Jul 2022 17:51:05.094,20 Jul 2022 17:58:56.451,471.356
749,20 Jul 2022 19:26:24.092,20 Jul 2022 19:33:28.514,424.422
750,20 Jul 2022 21:01:22.623,20 Jul 2022 21:07:43.899,381.276
751,20 Jul 2022 22:35:53.652,20 Jul 2022 22:42:12.712,379.060
752,21 Jul 2022 00:10:09.079,21 Jul 2022 00:17:08.981,419.903
753,21 Jul 2022 01:44:38.517,21 Jul 2022 01:52:26.589,468.073
754,21 Jul 2022 03:19:48.017,21 Jul 2022 03:27:56.662,488.645
755,21 Jul 2022 04:55:51.786,21 Jul 2022 05:03:34.575,462.789
756,21 Jul 2022 06:32:51.863,21 Jul 2022 06:39:19.732,387.869
757,21 Jul 2022 08:10:33.903,21 Jul 2022 08:15:17.735,283.832
758,21 Jul 2022 09:48:12.755,21 Jul 2022 09:51:52.284,219.529
759,21 Jul 2022 11:24:52.667,21 Jul 2022 11:29:27.349,274.681
760,21 Jul 2022 13:00:52.602,21 Jul 2022 13:07:11.595,378.992
761,21 Jul 2022 14:36:38.556,21 Jul 2022 14:44:16.433,457.877
762,21 Jul 2022 16:12:17.093,21 Jul 2022 16:20:25.461,488.368
763,21 Jul 2022 17:47:48.013,21 Jul 2022 17:55:39.517,471.505
764,21 Jul 2022 19:23:07.074,21 Jul 2022 19:30:11.709,424.635
765,21 Jul 2022 20:58:05.710,21 Jul 2022 21:04:27.098,381.388
766,21 Jul 2022 22:32:36.846,21 Jul 2022 22:38:55.810,378.964
767,22 Jul 2022 00:06:52.280,22 Jul 2022 00:13:51.971,419.691
768,22 Jul 2022 01:41:21.599,22 Jul 2022 01:49:09.512,467.912
769,22 Jul 2022 03:16:30.898,22 Jul 2022 03:24:39.546,488.648
770,22 Jul 2022 04:52:34.431,22 Jul 2022 05:00:17.431,463.000
771,22 Jul 2022 06:29:34.291,22 Jul 2022 06:36:02.553,388.262
772,22 Jul 2022 08:07:16.222,22 Jul 2022 08:12:00.473,284.251
773,22 Jul 2022 09:44:55.231,22 Jul 2022 09:48:34.790,219.559
774,22 Jul 2022 11:21:35.391,22 Jul 2022 11:26:09.670,274.278
775,22 Jul 2022 12:57:35.418,22 Jul 2022 13:03:54.006,378.588
776,22 Jul 2022 14:33:21.408,22 Jul 2022 14:40:59.055,457.647
777,22 Jul 2022 16:08:59.974,22 Jul 2022 16:17:08.320,488.346
778,22 Jul 2022 17:44:30.931,22 Jul 2022 17:52:22.583,471.653
779,22 Jul 2022 19:19:50.056,22 Jul 2022 19:26:54.904,424.848
780,22 Jul 2022 20:54:48.796,22 Jul 2022 21:01:10.297,381.501
781,22 Jul 2022 22:29:20.039,22 Jul 2022 22:35:38.908,378.869
782,23 Jul 2022 00:03:35.481,23 Jul 2022 00:10:34.961,419.479
783,23 Jul 2022 01:38:04.683,23 Jul 2022 01:45:52.435,467.752
784,23 Jul 2022 03:13:13.780,23 Jul 2022 03:21:22.430,488.650
785,23 Jul 2022 04:49:17.077,23 Jul 2022 04:57:00.286,463.210
786,23 Jul 2022 06:26:16.719,23 Jul 2022 06:32:45.374,388.655
787,23 Jul 2022 08:03:58.542,23 Jul 2022 08:08:43.213,284.671
788,23 Jul 2022 09:41:37.706,23 Jul 2022 09:45:17.297,219.591
789,23 Jul 2022 11:18:18.115,23 Jul 2022 11:22:51.990,273.876
790,23 Jul 2022 12:54:18.233,23 Jul 2022 13:00:36.417,378.183
791,23 Jul 2022 14:30:04.261,23 Jul 2022 14:37:41.676,457.416
792,23 Jul 2022 16:05:42.855,23 Jul 2022 16:13:51.178,488.323
793,23 Jul 2022 17:41:13.848,23 Jul 2022 17:49:05.651,471.803
794,23 Jul 2022 19:16:33.037,23 Jul 2022 19:23:38.098,425.061
795,23 Jul 2022 20:51:31.882,23 Jul 2022 20:57:53.497,381.615
796,23 Jul 2022 22:26:03.232,23 Jul 2022 22:32:22.006,378.774
797,24 Jul 2022 00:00:18.683,24 Jul 2022 00:07:17.951,419.268
798,24 Jul 2022 01:34:47.767,24 Jul 2022 01:42:35.358,467.591
799,24 Jul 2022 03:09:56.662,24 Jul 2022 03:18:05.314,488.652
800,24 Jul 2022 04:45:59.723,24 Jul 2022 04:53:43.142,463.419
801,24 Jul 2022 06:22:59.149,24 Jul 2022 06:29:28.195,389.046
802,24 Jul 2022 08:00:40.861,24 Jul 2022 08:05:25.953,285.091
803,24 Jul 2022 09:38:20.180,24 Jul 2022 09:41:59.805,219.625
804,24 Jul 2022 11:15:00.837,24 Jul 2022 11:19:34.311,273.474
805,24 Jul 2022 12:51:01.049,24 Jul 2022 12:57:18.826,377.778
806,24 Jul 2022 14:26:47.113,24 Jul 2022 14:34:24.296,457.183
807,24 Jul 2022 16:02:25.735,24 Jul 2022 16:10:34.034,488.299
808,24 Jul 2022 17:37:56.766,24 Jul 2022 17:45:48.716,471.950
809,24 Jul 2022 19:13:16.018,24 Jul 2022 19:20:21.292,425.274
810,24 Jul 2022 20:48:14.967,24 Jul 2022 20:54:36.697,381.730
811,24 Jul 2022 22:22:46.424,24 Jul 2022 22:29:05.105,378.681
812,24 Jul 2022 23:57:01.885,25 Jul 2022 00:04:00.942,419.057
813,25 Jul 2022 01:31:30.852,25 Jul 2022 01:39:18.281,467.429
814,25 Jul 2022 03:06:39.545,25 Jul 2022 03:14:48.198,488.653
815,25 Jul 2022 04:42:42.370,25 Jul 2022 04:50:25.998,463.627
816,25 Jul 2022 06:19:41.579,25 Jul 2022 06:26:11.016,389.437
817,25 Jul 2022 07:57:23.181,25 Jul 2022 08:02:08.693,285.512
818,25 Jul 2022 09:35:02.652,25 Jul 2022 09:38:42.314,219.661
819,25 Jul 2022 11:11:43.559,25 Jul 2022 11:16:16.632,273.073
820,25 Jul 2022 12:47:43.864,25 Jul 2022 12:54:01.235,377.372
821,25 Jul 2022 14:23:29.965,25 Jul 2022 14:31:06.913,456.948
822,25 Jul 2022 15:59:08.615,25 Jul 2022 16:07:16.890,488.275
823,25 Jul 2022 17:34:39.683,25 Jul 2022 17:42:31.779,472.096
824,25 Jul 2022 19:09:58.998,25 Jul 2022 19:17:04.486,425.487
825,25 Jul 2022 20:44:58.051,25 Jul 2022 20:51:19.897,381.846
826,25 Jul 2022 22:19:29.616,25 Jul 2022 22:25:48.205,378.588
827,25 Jul 2022 23:53:45.087,26 Jul 2022 00:00:43.933,418.845
828,26 Jul 2022 01:28:13.937,26 Jul 2022 01:36:01.204,467.267
829,26 Jul 2022 03:03:22.430,26 Jul 2022 03:11:31.082,488.652
830,26 Jul 2022 04:39:25.019,26 Jul 2022 04:47:08.853,463.835
831,26 Jul 2022 06:16:24.009,26 Jul 2022 06:22:53.837,389.828
832,26 Jul 2022 07:54:05.501,26 Jul 2022 07:58:51.433,285.933
833,26 Jul 2022 09:31:45.124,26 Jul 2022 09:35:24.824,219.700
834,26 Jul 2022 11:08:26.281,26 Jul 2022 11:12:58.952,272.672
835,26 Jul 2022 12:44:26.678,26 Jul 2022 12:50:43.644,376.965
836,26 Jul 2022 14:20:12.817,26 Jul 2022 14:27:49.531,456.714
837,26 Jul 2022 15:55:51.495,26 Jul 2022 16:03:59.745,488.250
838,26 Jul 2022 17:31:22.600,26 Jul 2022 17:39:14.842,472.242
839,26 Jul 2022 19:06:41.978,26 Jul 2022 19:13:47.679,425.701
840,26 Jul 2022 20:41:41.135,26 Jul 2022 20:48:03.097,381.962
841,26 Jul 2022 22:16:12.808,26 Jul 2022 22:22:31.305,378.497
842,26 Jul 2022 23:50:28.289,26 Jul 2022 23:57:26.924,418.635
843,27 Jul 2022 01:24:57.023,27 Jul 2022 01:32:44.128,467.105
844,27 Jul 2022 03:00:05.315,27 Jul 2022 03:08:13.966,488.651
845,27 Jul 2022 04:36:07.668,27 Jul 2022 04:43:51.709,464.041
846,27 Jul 2022 06:13:06.441,27 Jul 2022 06:19:36.658,390.217
847,27 Jul 2022 07:50:47.820,27 Jul 2022 07:55:34.175,286.354
848,27 Jul 2022 09:28:27.594,27 Jul 2022 09:32:07.335,219.741
849,27 Jul 2022 11:05:09.002,27 Jul 2022 11:09:41.273,272.271
850,27 Jul 2022 12:41:09.493,27 Jul 2022 12:47:26.051,376.558
851,27 Jul 2022 14:16:55.669,27 Jul 2022 14:24:32.149,456.479
852,27 Jul 2022 15:52:34.375,27 Jul 2022 16:00:42.599,488.224
853,27 Jul 2022 17:28:05.517,27 Jul 2022 17:35:57.905,472.388
854,27 Jul 2022 19:03:24.958,27 Jul 2022 19:10:30.872,425.914
855,27 Jul 2022 20:38:24.219,27 Jul 2022 20:44:46.298,382.079
856,27 Jul 2022 22:12:55.999,27 Jul 2022 22:19:14.405,378.406
857,27 Jul 2022 23:47:11.492,27 Jul 2022 23:54:09.916,418.424
858,28 Jul 2022 01:21:40.109,28 Jul 2022 01:29:27.051,466.942
859,28 Jul 2022 02:56:48.201,28 Jul 2022 03:04:56.850,488.650
860,28 Jul 2022 04:32:50.318,28 Jul 2022 04:40:34.565,464.247
861,28 Jul 2022 06:09:48.874,28 Jul 2022 06:16:19.480,390.606
862,28 Jul 2022 07:47:30.140,28 Jul 2022 07:52:16.916,286.776
863,28 Jul 2022 09:25:10.063,28 Jul 2022 09:28:49.847,219.784
864,28 Jul 2022 11:01:51.722,28 Jul 2022 11:06:23.596,271.874
865,28 Jul 2022 12:37:52.307,28 Jul 2022 12:44:08.458,376.151
866,28 Jul 2022 14:13:38.521,28 Jul 2022 14:21:14.765,456.244
867,28 Jul 2022 15:49:17.255,28 Jul 2022 15:57:25.452,488.197
868,28 Jul 2022 17:24:48.433,28 Jul 2022 17:32:40.966,472.533
869,28 Jul 2022 19:00:07.937,28 Jul 2022 19:07:14.065,426.128
870,28 Jul 2022 20:35:07.302,28 Jul 2022 20:41:29.499,382.197
871,28 Jul 2022 22:09:39.190,28 Jul 2022 22:15:57.506,378.316
872,28 Jul 2022 23:43:54.694,28 Jul 2022 23:50:52.908,418.213
873,29 Jul 2022 01:18:23.197,29 Jul 2022 01:26:09.975,466.779
874,29 Jul 2022 02:53:31.088,29 Jul 2022 03:01:39.737,488.650
875,29 Jul 2022 04:29:32.970,29 Jul 2022 04:37:17.421,464.452
876,29 Jul 2022 06:06:31.307,29 Jul 2022 06:13:02.302,390.995
877,29 Jul 2022 07:44:12.461,29 Jul 2022 07:48:59.658,287.198
878,29 Jul 2022 09:21:52.532,29 Jul 2022 09:25:32.360,219.829
879,29 Jul 2022 10:58:34.442,29 Jul 2022 11:03:05.917,271.475
880,29 Jul 2022 12:34:35.122,29 Jul 2022 12:40:50.864,375.742
881,29 Jul 2022 14:10:21.373,29 Jul 2022 14:17:57.380,456.007
882,29 Jul 2022 15:46:00.135,29 Jul 2022 15:54:08.304,488.169
883,29 Jul 2022 17:21:31.350,29 Jul 2022 17:29:24.027,472.677
884,29 Jul 2022 18:56:50.916,29 Jul 2022 19:03:57.258,426.342
885,29 Jul 2022 20:31:50.384,29 Jul 2022 20:38:12.700,382.316
886,29 Jul 2022 22:06:22.381,29 Jul 2022 22:12:40.608,378.227
887,29 Jul 2022 23:40:37.897,29 Jul 2022 23:47:35.900,418.003
888,30 Jul 2022 01:15:06.285,30 Jul 2022 01:22:52.900,466.615
889,30 Jul 2022 02:50:13.976,30 Jul 2022 02:58:22.622,488.646
890,30 Jul 2022 04:26:15.622,30 Jul 2022 04:34:00.278,464.656
891,30 Jul 2022 06:03:13.741,30 Jul 2022 06:09:45.124,391.382
892,30 Jul 2022 07:40:54.781,30 Jul 2022 07:45:42.401,287.620
893,30 Jul 2022 09:18:34.999,30 Jul 2022 09:22:14.875,219.876
894,30 Jul 2022 10:55:17.161,30 Jul 2022 10:59:48.238,271.077
895,30 Jul 2022 12:31:17.936,30 Jul 2022 12:37:33.269,375.333
896,30 Jul 2022 14:07:04.225,30 Jul 2022 14:14:39.995,455.770
897,30 Jul 2022 15:42:43.015,30 Jul 2022 15:50:51.156,488.141
898,30 Jul 2022 17:18:14.266,30 Jul 2022 17:26:07.087,472.821
899,30 Jul 2022 18:53:33.894,30 Jul 2022 19:00:40.450,426.556
900,30 Jul 2022 20:28:33.466,30 Jul 2022 20:34:55.902,382.436
901,30 Jul 2022 22:03:05.571,30 Jul 2022 22:09:23.710,378.139
902,30 Jul 2022 23:37:21.100,30 Jul 2022 23:44:18.893,417.793
903,31 Jul 2022 01:11:49.374,31 Jul 2022 01:19:35.824,466.451
904,31 Jul 2022 02:46:56.865,31 Jul 2022 02:55:05.507,488.642
905,31 Jul 2022 04:22:58.275,31 Jul 2022 04:30:43.135,464.859
906,31 Jul 2022 05:59:56.176,31 Jul 2022 06:06:27.946,391.770
907,31 Jul 2022 07:37:37.101,31 Jul 2022 07:42:25.144,288.043
908,31 Jul 2022 09:15:17.465,31 Jul 2022 09:18:57.391,219.926
909,31 Jul 2022 10:51:59.880,31 Jul 2022 10:56:30.560,270.680
910,31 Jul 2022 12:28:00.750,31 Jul 2022 12:34:15.674,374.924
911,31 Jul 2022 14:03:47.077,31 Jul 2022 14:11:22.608,455.531
912,31 Jul 2022 15:39:25.895,31 Jul 2022 15:47:34.006,488.111
913,31 Jul 2022 17:14:57.182,31 Jul 2022 17:22:50.147,472.964
914,31 Jul 2022 18:50:16.873,31 Jul 2022 18:57:23.642,426.769
915,31 Jul 2022 20:25:16.548,31 Jul 2022 20:31:39.104,382.556
916,31 Jul 2022 21:59:48.762,31 Jul 2022 22:06:06.813,378.051
917,31 Jul 2022 23:34:04.304,31 Jul 2022 23:41:01.887,417.583
918,1 Aug 2022 01:08:32.463,1 Aug 2022 01:16:18.749,466.286
919,1 Aug 2022 02:43:39.755,1 Aug 2022 02:51:48.392,488.637
920,1 Aug 2022 04:19:40.930,1 Aug 2022 04:27:25.992,465.062
921,1 Aug 2022 05:56:38.612,1 Aug 2022 06:03:10.768,392.156
922,1 Aug 2022 07:34:19.422,1 Aug 2022 07:39:07.888,288.466
923,1 Aug 2022 09:11:59.930,1 Aug 2022 09:15:39.908,219.978
924,1 Aug 2022 10:48:42.598,1 Aug 2022 10:53:12.881,270.283
925,1 Aug 2022 12:24:43.564,1 Aug 2022 12:30:58.078,374.514
926,1 Aug 2022 14:00:29.928,1 Aug 2022 14:08:05.221,455.292
927,1 Aug 2022 15:36:08.774,1 Aug 2022 15:44:16.856,488.081
928,1 Aug 2022 17:11:40.098,1 Aug 2022 17:19:33.206,473.107
929,1 Aug 2022 18:46:59.851,1 Aug 2022 18:54:06.834,426.983
930,1 Aug 2022 20:21:59.629,1 Aug 2022 20:28:22.306,382.677
931,1 Aug 2022 21:56:31.952,1 Aug 2022 22:02:49.916,377.965
932,1 Aug 2022 23:30:47.508,1 Aug 2022 23:37:44.881,417.373
933,2 Aug 2022 01:05:15.554,2 Aug 2022 01:13:01.674,466.121
934,2 Aug 2022 02:40:22.646,2 Aug 2022 02:48:31.277,488.631
935,2 Aug 2022 04:16:23.585,2 Aug 2022 04:24:08.849,465.263
936,2 Aug 2022 05:53:21.049,2 Aug 2022 05:59:53.591,392.542
937,2 Aug 2022 07:31:01.742,2 Aug 2022 07:35:50.632,288.890
938,2 Aug 2022 09:08:42.394,2 Aug 2022 09:12:22.427,220.033
939,2 Aug 2022 10:45:25.316,2 Aug 2022 10:49:55.206,269.890
940,2 Aug 2022 12:21:26.378,2 Aug 2022 12:27:40.482,374.104
941,2 Aug 2022 13:57:12.780,2 Aug 2022 14:04:47.832,455.052
942,2 Aug 2022 15:32:51.654,2 Aug 2022 15:40:59.704,488.050
943,2 Aug 2022 17:08:23.014,2 Aug 2022 17:16:16.264,473.249
944,2 Aug 2022 18:43:42.829,2 Aug 2022 18:50:50.026,427.197
945,2 Aug 2022 20:18:42.710,2 Aug 2022 20:25:05.509,382.799
946,2 Aug 2022 21:53:15.141,2 Aug 2022 21:59:33.020,377.879
947,2 Aug 2022 23:27:30.712,2 Aug 2022 23:34:27.875,417.163
948,3 Aug 2022 01:01:58.645,3 Aug 2022 01:09:44.600,465.955
949,3 Aug 2022 02:37:05.538,3 Aug 2022 02:45:14.163,488.625
950,3 Aug 2022 04:13:06.242,3 Aug 2022 04:20:51.706,465.464
951,3 Aug 2022 05:50:03.486,3 Aug 2022 05:56:36.414,392.928
952,3 Aug 2022 07:27:44.063,3 Aug 2022 07:32:33.378,289.315
953,3 Aug 2022 09:05:24.856,3 Aug 2022 09:09:04.947,220.091
954,3 Aug 2022 10:42:08.032,3 Aug 2022 10:46:37.528,269.496
955,3 Aug 2022 12:18:09.191,3 Aug 2022 12:24:22.885,373.694
956,3 Aug 2022 13:53:55.631,3 Aug 2022 14:01:30.443,454.812
957,3 Aug 2022 15:29:34.534,3 Aug 2022 15:37:42.552,488.018
958,3 Aug 2022 17:05:05.930,3 Aug 2022 17:12:59.321,473.391
959,3 Aug 2022 18:40:25.806,3 Aug 2022 18:47:33.217,427.411
960,3 Aug 2022 20:15:25.790,3 Aug 2022 20:21:48.711,382.921
961,3 Aug 2022 21:49:58.331,3 Aug 2022 21:56:16.125,377.794
962,3 Aug 2022 23:24:13.916,3 Aug 2022 23:31:10.869,416.953
963,4 Aug 2022 00:58:41.737,4 Aug 2022 01:06:27.525,465.788
964,4 Aug 2022 02:33:48.431,4 Aug 2022 02:41:57.048,488.617
965,4 Aug 2022 04:09:48.899,4 Aug 2022 04:17:34.564,465.664
966,4 Aug 2022 05:46:45.924,4 Aug 2022 05:53:19.237,393.313
967,4 Aug 2022 07:24:26.383,4 Aug 2022 07:29:16.124,289.740
968,4 Aug 2022 09:02:07.317,4 Aug 2022 09:05:47.469,220.152
969,4 Aug 2022 10:38:50.748,4 Aug 2022 10:43:19.851,269.103
970,4 Aug 2022 12:14:52.004,4 Aug 2022 12:21:05.287,373.283
971,4 Aug 2022 13:50:38.483,4 Aug 2022 13:58:13.053,454.570
972,4 Aug 2022 15:26:17.413,4 Aug 2022 15:34:25.399,487.986
973,4 Aug 2022 17:01:48.846,4 Aug 2022 17:09:42.378,473.532
974,4 Aug 2022 18:37:08.784,4 Aug 2022 18:44:16.408,427.625
975,4 Aug 2022 20:12:08.870,4 Aug 2022 20:18:31.914,383.043
976,4 Aug 2022 21:46:41.520,4 Aug 2022 21:52:59.229,377.709
977,4 Aug 2022 23:20:57.121,4 Aug 2022 23:27:53.864,416.744
978,5 Aug 2022 00:55:24.829,5 Aug 2022 01:03:10.451,465.622
979,5 Aug 2022 02:30:31.325,5 Aug 2022 02:38:39.934,488.609
