data/Skyhopper_Trollsat_AER_1year.csv

"Time (UTCG)","Azimuth (deg)","Elevation (deg)","Range (km)"
1 Jun 2022 05:24:37.083,319.376,-25.260,1863.923205
1 Jun 2022 05:25:37.000,308.888,-27.342,1576.231663
1 Jun 2022 05:26:37.000,293.660,-29.874,1362.429728
1 Jun 2022 05:27:37.000,273.568,-31.502,1262.481146
1 Jun 2022 05:28:37.000,252.289,-30.793,1303.379168
1 Jun 2022 05:29:37.000,234.796,-28.424,1473.375531
1 Jun 2022 05:30:37.000,222.414,-26.053,1734.422901
1 Jun 2022 05:31:00.356,218.737,-25.321,1852.651947
1 Jun 2022 06:59:58.210,349.507,-25.259,1864.096404
1 Jun 2022 07:00:58.000,346.612,-28.503,1466.682513
1 Jun 2022 07:01:58.000,341.032,-35.276,1092.169701
1 Jun 2022 07:02:58.000,326.748,-48.939,780.675540
1 Jun 2022 07:03:58.000,272.631,-64.569,635.350252
1 Jun 2022 07:04:58.000,213.160,-50.545,759.282353
1 Jun 2022 07:05:58.000,197.318,-36.128,1061.777183
1 Jun 2022 07:06:58.000,191.339,-28.912,1433.185602
1 Jun 2022 07:07:58.000,188.277,-25.442,1831.012544
1 Jun 2022 07:08:00.625,188.177,-25.343,1848.736313
1 Jun 2022 08:35:32.563,17.313,-25.259,1864.153746
1 Jun 2022 08:36:32.000,22.931,-28.285,1485.517930
1 Jun 2022 08:37:32.000,33.205,-34.038,1140.832004
1 Jun 2022 08:38:32.000,54.585,-42.961,881.482669
1 Jun 2022 08:39:32.000,94.813,-47.791,797.252356
1 Jun 2022 08:40:32.000,130.547,-40.459,936.977335
1 Jun 2022 08:41:32.000,148.005,-32.191,1225.931553
1 Jun 2022 08:42:32.000,156.660,-27.272,1583.613600
1 Jun 2022 08:43:13.572,160.324,-25.332,1850.590737
1 Jun 2022 10:11:14.132,44.827,-25.259,1864.179957
1 Jun 2022 10:12:14.000,56.659,-27.069,1605.863350
1 Jun 2022 10:13:14.000,72.791,-28.883,1435.494330
1 Jun 2022 10:14:14.000,92.075,-29.516,1387.561311
1 Jun 2022 10:15:14.000,110.730,-28.414,1474.237752
1 Jun 2022 10:16:14.000,125.587,-26.495,1674.404069
1 Jun 2022 10:16:54.671,133.243,-25.300,1856.559918
1 Jun 2022 11:47:14.779,75.876,-25.259,1864.136931
1 Jun 2022 11:48:14.000,89.797,-25.534,1815.262608
1 Jun 2022 11:49:10.581,103.096,-25.266,1862.815204
1 Jun 2022 14:54:23.011,68.231,-25.273,1861.471926
1 Jun 2022 14:55:23.000,82.212,-25.944,1750.358561
1 Jun 2022 14:56:23.000,97.284,-25.983,1744.589937
1 Jun 2022 14:57:23.000,111.466,-25.362,1845.225768
1 Jun 2022 14:57:30.339,113.059,-25.259,1864.181068
1 Jun 2022 16:27:02.429,39.997,-25.309,1854.882047
1 Jun 2022 16:28:02.000,50.684,-27.489,1560.893205
1 Jun 2022 16:29:02.000,66.492,-30.165,1342.903331
1 Jun 2022 16:30:02.000,87.471,-31.802,1246.205589
1 Jun 2022 16:31:02.000,109.384,-30.872,1298.640340
1 Jun 2022 16:32:02.000,126.923,-28.298,1484.308032
1 Jun 2022 16:33:02.000,139.065,-25.873,1760.940474
1 Jun 2022 16:33:21.552,142.087,-25.259,1864.178620
1 Jun 2022 18:01:05.120,12.866,-25.338,1849.634658
1 Jun 2022 18:02:05.000,16.582,-28.660,1453.541832
1 Jun 2022 18:03:05.000,23.738,-35.469,1085.056657
1 Jun 2022 18:04:05.000,41.559,-48.381,788.586645
1 Jun 2022 18:05:05.000,94.526,-59.476,669.871421
1 Jun 2022 18:06:05.000,143.399,-46.860,811.565163
1 Jun 2022 18:07:05.000,159.490,-34.592,1118.321750
1 Jun 2022 18:08:05.000,166.157,-28.226,1490.678703
1 Jun 2022 18:09:01.301,169.528,-25.259,1864.142100
1 Jun 2022 19:36:43.123,344.588,-25.340,1849.138824
1 Jun 2022 19:37:43.000,339.440,-28.501,1466.846066
1 Jun 2022 19:38:43.000,329.938,-34.588,1118.502715
1 Jun 2022 19:39:43.000,309.233,-44.541,851.013716
1 Jun 2022 19:40:43.000,266.267,-50.715,757.134385
1 Jun 2022 19:41:43.000,227.525,-42.374,893.647746
1 Jun 2022 19:42:43.000,209.995,-33.081,1182.854669
1 Jun 2022 19:43:43.000,201.691,-27.696,1540.169006
1 Jun 2022 19:44:33.428,197.652,-25.259,1864.076634
1 Jun 2022 21:14:14.273,312.586,-25.311,1854.490340
1 Jun 2022 21:15:14.000,300.648,-26.952,1619.112062
1 Jun 2022 21:16:14.000,284.898,-28.462,1470.150963
1 Jun 2022 21:17:14.000,266.705,-28.864,1436.951937
1 Jun 2022 21:18:14.000,249.344,-27.831,1527.131018
1 Jun 2022 21:19:14.000,235.355,-26.147,1721.002591
1 Jun 2022 21:19:47.723,229.151,-25.260,1863.827593
2 Jun 2022 05:21:20.077,319.241,-25.260,1863.922268
2 Jun 2022 05:22:20.000,308.727,-27.335,1576.943744
2 Jun 2022 05:23:20.000,293.487,-29.849,1364.105201
2 Jun 2022 05:24:20.000,273.423,-31.453,1265.190441
2 Jun 2022 05:25:20.000,252.215,-30.736,1306.856170
2 Jun 2022 05:26:20.000,234.786,-28.380,1477.185605
2 Jun 2022 05:27:20.000,222.438,-26.026,1738.263630
2 Jun 2022 05:27:42.630,218.875,-25.321,1852.680428
2 Jun 2022 06:56:41.113,349.390,-25.259,1864.096007
2 Jun 2022 06:57:41.000,346.453,-28.508,1466.233929
2 Jun 2022 06:58:41.000,340.801,-35.278,1092.083473
2 Jun 2022 06:59:41.000,326.356,-48.897,781.260450
2 Jun 2022 07:00:41.000,272.343,-64.305,636.911078
2 Jun 2022 07:01:41.000,213.416,-50.389,761.271160
2 Jun 2022 07:02:41.000,197.510,-36.073,1063.670732
2 Jun 2022 07:03:41.000,191.479,-28.890,1434.923274
2 Jun 2022 07:04:41.000,188.387,-25.433,1832.622514
2 Jun 2022 07:04:43.387,188.295,-25.343,1848.735519
2 Jun 2022 08:32:15.432,17.200,-25.259,1864.153609
2 Jun 2022 08:33:15.000,22.802,-28.297,1484.404974
2 Jun 2022 08:34:15.000,33.042,-34.074,1139.336569
2 Jun 2022 08:35:15.000,54.417,-43.060,879.481418
2 Jun 2022 08:36:15.000,94.832,-47.945,794.961571
2 Jun 2022 08:37:15.000,130.706,-40.543,934.958711
2 Jun 2022 08:38:15.000,148.149,-32.223,1224.332963
2 Jun 2022 08:39:15.000,156.775,-27.284,1582.330923
2 Jun 2022 08:39:56.741,160.436,-25.332,1850.572677
2 Jun 2022 10:07:56.966,44.712,-25.258,1864.192669
2 Jun 2022 10:08:56.000,56.333,-27.047,1608.282455
2 Jun 2022 10:09:56.000,72.402,-28.881,1435.584234
2 Jun 2022 10:10:56.000,91.691,-29.552,1384.936111
2 Jun 2022 10:11:56.000,110.432,-28.473,1469.209441
2 Jun 2022 10:12:56.000,125.391,-26.548,1667.739196
2 Jun 2022 10:13:38.190,133.356,-25.300,1856.531465
2 Jun 2022 11:43:57.369,75.707,-25.259,1864.138026
2 Jun 2022 11:44:57.000,89.727,-25.541,1814.061519
2 Jun 2022 11:45:54.566,103.261,-25.266,1862.796591
2 Jun 2022 14:51:06.796,68.361,-25.273,1861.495579
2 Jun 2022 14:52:06.000,82.152,-25.932,1752.110434
2 Jun 2022 14:53:06.000,97.209,-25.974,1745.860508
2 Jun 2022 14:54:06.000,111.386,-25.358,1845.964474
2 Jun 2022 14:54:13.086,112.925,-25.259,1864.181749
2 Jun 2022 16:23:45.867,40.108,-25.309,1854.909497
2 Jun 2022 16:24:45.000,50.722,-27.465,1563.443914
2 Jun 2022 16:25:45.000,66.500,-30.125,1345.531662
2 Jun 2022 16:26:45.000,87.424,-31.756,1248.671467
2 Jun 2022 16:27:45.000,109.292,-30.839,1300.653005
2 Jun 2022 16:28:45.000,126.820,-28.282,1485.758743
2 Jun 2022 16:29:45.000,138.969,-25.867,1761.902161
2 Jun 2022 16:30:04.399,141.974,-25.259,1864.179620
2 Jun 2022 17:57:48.195,12.979,-25.338,1849.648079
2 Jun 2022 17:58:48.000,16.724,-28.651,1454.237803
2 Jun 2022 17:59:48.000,23.935,-35.442,1086.043638
2 Jun 2022 18:00:48.000,41.840,-48.282,790.028449
2 Jun 2022 18:01:48.000,94.521,-59.244,671.677894
2 Jun 2022 18:02:48.000,143.146,-46.760,813.156218
2 Jun 2022 18:03:48.000,159.305,-34.561,1119.555264
2 Jun 2022 18:04:48.000,166.022,-28.215,1491.667644
2 Jun 2022 18:05:44.176,169.415,-25.259,1864.142237
2 Jun 2022 19:33:25.777,344.709,-25.340,1849.128790
2 Jun 2022 19:34:25.000,339.669,-28.457,1470.556615
2 Jun 2022 19:35:25.000,330.293,-34.521,1121.152951
2 Jun 2022 19:36:25.000,309.834,-44.510,851.585310
2 Jun 2022 19:37:25.000,266.883,-50.924,754.510817
2 Jun 2022 19:38:25.000,227.662,-42.611,888.676750
2 Jun 2022 19:39:25.000,209.972,-33.207,1177.054682
2 Jun 2022 19:40:25.000,201.635,-27.758,1534.175063
2 Jun 2022 19:41:16.343,197.532,-25.259,1864.075925
2 Jun 2022 21:10:56.392,312.736,-25.311,1854.457666
2 Jun 2022 21:11:56.000,300.844,-26.956,1618.567264
2 Jun 2022 21:12:56.000,285.101,-28.483,1468.320809
2 Jun 2022 21:13:56.000,266.875,-28.903,1433.836904
2 Jun 2022 21:14:56.000,249.452,-27.874,1523.051622
2 Jun 2022 21:15:56.000,235.407,-26.180,1716.387481
2 Jun 2022 21:16:30.776,229.004,-25.260,1863.829471
3 Jun 2022 05:18:03.073,319.105,-25.260,1863.921325
3 Jun 2022 05:19:03.000,308.567,-27.328,1577.662161
3 Jun 2022 05:20:03.000,293.314,-29.825,1365.787910
3 Jun 2022 05:21:03.000,273.279,-31.404,1267.905648
3 Jun 2022 05:22:03.000,252.141,-30.679,1310.336861
3 Jun 2022 05:23:03.000,234.776,-28.336,1480.998675
3 Jun 2022 05:24:03.000,222.462,-26.000,1742.107893
3 Jun 2022 05:24:24.900,219.013,-25.321,1852.696419
3 Jun 2022 06:53:24.015,349.273,-25.259,1864.095612
3 Jun 2022 06:54:24.000,346.294,-28.513,1465.789836
3 Jun 2022 06:55:24.000,340.569,-35.280,1092.005727
3 Jun 2022 06:56:24.000,325.966,-48.854,781.859912
3 Jun 2022 06:57:24.000,272.062,-64.041,638.490203
3 Jun 2022 06:58:24.000,213.668,-50.233,763.276351
3 Jun 2022 06:59:24.000,197.700,-36.018,1065.578497
3 Jun 2022 07:00:24.000,191.620,-28.868,1436.673412
3 Jun 2022 07:01:24.000,188.497,-25.424,1834.243629
3 Jun 2022 07:01:26.147,188.413,-25.343,1848.733557
3 Jun 2022 08:28:58.300,17.087,-25.259,1864.153471
3 Jun 2022 08:29:58.000,22.673,-28.310,1483.292930
3 Jun 2022 08:30:58.000,32.879,-34.110,1137.843497
3 Jun 2022 08:31:58.000,54.247,-43.159,877.483844
3 Jun 2022 08:32:58.000,94.852,-48.100,792.676148
3 Jun 2022 08:33:58.000,130.866,-40.627,932.948277
3 Jun 2022 08:34:58.000,148.294,-32.254,1222.743632
3 Jun 2022 08:35:58.000,156.891,-27.296,1581.057307
3 Jun 2022 08:36:39.909,160.548,-25.333,1850.554689
3 Jun 2022 10:04:39.801,44.597,-25.258,1864.200488
3 Jun 2022 10:05:39.000,56.238,-27.058,1607.008372
3 Jun 2022 10:06:39.000,72.315,-28.904,1433.756687
3 Jun 2022 10:07:39.000,91.636,-29.585,1382.628241
3 Jun 2022 10:08:39.000,110.418,-28.503,1466.647556
3 Jun 2022 10:09:39.000,125.406,-26.568,1665.146524
3 Jun 2022 10:10:21.708,133.468,-25.300,1856.503030
3 Jun 2022 11:40:39.963,75.538,-25.259,1864.139090
3 Jun 2022 11:41:39.000,89.416,-25.548,1812.861697
3 Jun 2022 11:42:38.543,103.425,-25.266,1862.775690
3 Jun 2022 14:47:50.584,68.490,-25.273,1861.519174
3 Jun 2022 14:48:50.000,82.339,-25.927,1752.855397
3 Jun 2022 14:49:50.000,97.382,-25.960,1747.940675
3 Jun 2022 14:50:50.000,111.526,-25.340,1849.186434
3 Jun 2022 14:50:55.831,112.791,-25.259,1864.182466
3 Jun 2022 16:20:29.307,40.219,-25.309,1854.936966
3 Jun 2022 16:21:29.000,50.976,-27.482,1561.614523
3 Jun 2022 16:22:29.000,66.817,-30.127,1345.432824
3 Jun 2022 16:23:29.000,87.751,-31.717,1250.754937
3 Jun 2022 16:24:29.000,109.537,-30.770,1304.751980
3 Jun 2022 16:25:29.000,126.960,-28.221,1491.175753
3 Jun 2022 16:26:29.000,139.039,-25.827,1767.999590
3 Jun 2022 16:26:47.246,141.860,-25.259,1864.180587
3 Jun 2022 17:54:31.271,13.092,-25.337,1849.661583
3 Jun 2022 17:55:31.000,16.865,-28.643,1454.945661
3 Jun 2022 17:56:31.000,24.132,-35.415,1087.043940
3 Jun 2022 17:57:31.000,42.117,-48.182,791.484127
3 Jun 2022 17:58:31.000,94.516,-59.015,673.495269
3 Jun 2022 17:59:31.000,142.893,-46.659,814.754106
3 Jun 2022 18:00:31.000,159.122,-34.530,1120.792375
3 Jun 2022 18:01:31.000,165.887,-28.204,1492.657924
3 Jun 2022 18:02:27.051,169.301,-25.259,1864.142374
3 Jun 2022 19:30:08.433,344.829,-25.340,1849.118859
3 Jun 2022 19:31:08.000,339.786,-28.486,1468.101546
3 Jun 2022 19:32:08.000,330.428,-34.588,1118.482671
3 Jun 2022 19:33:08.000,309.927,-44.661,848.823209
3 Jun 2022 19:34:08.000,266.673,-51.105,752.275469
3 Jun 2022 19:35:08.000,227.362,-42.665,887.550732
3 Jun 2022 19:36:08.000,209.757,-33.213,1176.800742
3 Jun 2022 19:37:08.000,201.479,-27.755,1534.446556
3 Jun 2022 19:37:59.258,197.413,-25.259,1864.075177
3 Jun 2022 21:07:38.514,312.885,-25.311,1854.424947
3 Jun 2022 21:08:38.000,301.042,-26.961,1618.040175
3 Jun 2022 21:09:38.000,285.306,-28.505,1466.506065
3 Jun 2022 21:10:38.000,267.046,-28.943,1430.731054
3 Jun 2022 21:11:38.000,249.561,-27.917,1518.974208
3 Jun 2022 21:12:38.000,235.460,-26.214,1711.769501
3 Jun 2022 21:13:13.828,228.857,-25.260,1863.831284
4 Jun 2022 05:14:46.069,318.970,-25.260,1863.920377
4 Jun 2022 05:15:46.000,308.406,-27.321,1578.386946
4 Jun 2022 05:16:46.000,293.141,-29.800,1367.477825
4 Jun 2022 05:17:46.000,273.135,-31.356,1270.626666
4 Jun 2022 05:18:46.000,252.067,-30.622,1313.821100
4 Jun 2022 05:19:46.000,234.765,-28.293,1484.814570
4 Jun 2022 05:20:46.000,222.485,-25.973,1745.955503
4 Jun 2022 05:21:07.169,219.151,-25.321,1852.725698
4 Jun 2022 06:50:06.918,349.155,-25.259,1864.095212
4 Jun 2022 06:51:06.000,346.200,-28.442,1471.842771
4 Jun 2022 06:52:06.000,340.476,-35.125,1097.806329
4 Jun 2022 06:53:06.000,325.994,-48.515,786.666916
4 Jun 2022 06:54:06.000,273.189,-63.744,640.302025
4 Jun 2022 06:55:06.000,214.388,-50.383,761.345564
4 Jun 2022 06:56:06.000,198.040,-36.130,1061.714992
4 Jun 2022 06:57:06.000,191.829,-28.927,1431.972631
4 Jun 2022 06:58:06.000,188.646,-25.453,1829.134031
4 Jun 2022 06:58:08.906,188.532,-25.343,1848.730449
4 Jun 2022 08:25:41.169,16.975,-25.259,1864.153334
4 Jun 2022 08:26:41.000,22.544,-28.323,1482.181991
4 Jun 2022 08:27:41.000,32.716,-34.146,1136.352987
4 Jun 2022 08:28:41.000,54.077,-43.259,875.490136
4 Jun 2022 08:29:41.000,94.872,-48.256,790.396228
4 Jun 2022 08:30:41.000,131.028,-40.711,930.946093
4 Jun 2022 08:31:41.000,148.439,-32.286,1221.163544
4 Jun 2022 08:32:41.000,157.007,-27.308,1579.792691
4 Jun 2022 08:33:23.075,160.660,-25.333,1850.536557
4 Jun 2022 10:01:22.638,44.482,-25.258,1864.199216
4 Jun 2022 10:02:22.000,56.143,-27.070,1605.732560
4 Jun 2022 10:03:22.000,72.228,-28.928,1431.927184
4 Jun 2022 10:04:22.000,91.580,-29.617,1380.318116
4 Jun 2022 10:05:22.000,110.404,-28.533,1464.083827
4 Jun 2022 10:06:22.000,125.421,-26.589,1662.553106
4 Jun 2022 10:07:05.224,133.580,-25.300,1856.474617
4 Jun 2022 11:37:22.563,75.371,-25.259,1864.140125
4 Jun 2022 11:38:22.000,89.345,-25.555,1811.662507
4 Jun 2022 11:39:22.000,103.472,-25.271,1861.886913
4 Jun 2022 11:39:22.515,103.588,-25.266,1862.754879
4 Jun 2022 14:44:34.373,68.621,-25.273,1861.542712
4 Jun 2022 14:45:34.000,82.526,-25.922,1753.612724
4 Jun 2022 14:46:34.000,97.555,-25.946,1750.030232
4 Jun 2022 14:47:34.000,111.665,-25.322,1852.413136
4 Jun 2022 14:47:38.576,112.657,-25.259,1864.182888
4 Jun 2022 16:17:12.748,40.330,-25.308,1854.964459
4 Jun 2022 16:18:12.000,51.012,-27.457,1564.169643
4 Jun 2022 16:19:12.000,66.823,-30.087,1348.059622
4 Jun 2022 16:20:12.000,87.703,-31.671,1253.212166
4 Jun 2022 16:21:12.000,109.444,-30.738,1306.752286
4 Jun 2022 16:22:12.000,126.857,-28.204,1492.614372
4 Jun 2022 16:23:12.000,138.944,-25.821,1768.950477
4 Jun 2022 16:23:30.092,141.747,-25.259,1864.181533
4 Jun 2022 17:51:14.350,13.205,-25.337,1849.675169
4 Jun 2022 17:52:14.000,17.006,-28.634,1455.665523
4 Jun 2022 17:53:14.000,24.328,-35.387,1088.057651
4 Jun 2022 17:54:14.000,42.392,-48.081,792.953696
4 Jun 2022 17:55:14.000,94.509,-58.787,675.323471
4 Jun 2022 17:56:14.000,142.643,-46.559,816.358722
4 Jun 2022 17:57:14.000,158.939,-34.499,1122.032968
4 Jun 2022 17:58:14.000,165.752,-28.193,1493.649422
4 Jun 2022 17:59:09.926,169.188,-25.259,1864.142513
4 Jun 2022 19:26:51.090,344.950,-25.341,1849.109032
4 Jun 2022 19:27:51.000,339.904,-28.515,1465.657335
4 Jun 2022 19:28:51.000,330.564,-34.656,1115.823518
4 Jun 2022 19:29:51.000,310.021,-44.814,846.072267
4 Jun 2022 19:30:51.000,266.460,-51.286,750.052827
4 Jun 2022 19:31:51.000,227.060,-42.719,886.436735
4 Jun 2022 19:32:51.000,209.542,-33.218,1176.554628
4 Jun 2022 19:33:51.000,201.323,-27.752,1534.722292
4 Jun 2022 19:34:42.173,197.294,-25.259,1864.074394
4 Jun 2022 21:04:20.639,313.035,-25.312,1854.392183
4 Jun 2022 21:05:20.000,301.239,-26.966,1617.530857
4 Jun 2022 21:06:20.000,285.511,-28.526,1464.706794
4 Jun 2022 21:07:20.000,267.219,-28.982,1427.634409
4 Jun 2022 21:08:20.000,249.671,-27.960,1514.898710
4 Jun 2022 21:09:20.000,235.513,-26.247,1707.148520
4 Jun 2022 21:09:56.879,228.710,-25.260,1863.833040
5 Jun 2022 05:11:29.067,318.834,-25.260,1863.919425
5 Jun 2022 05:12:29.000,308.245,-27.314,1579.118060
5 Jun 2022 05:13:29.000,292.968,-29.776,1369.174844
5 Jun 2022 05:14:29.000,272.992,-31.307,1273.353339
5 Jun 2022 05:15:29.000,251.994,-30.566,1317.308705
5 Jun 2022 05:16:29.000,234.754,-28.249,1488.633098
5 Jun 2022 05:17:29.000,222.509,-25.947,1749.806266
5 Jun 2022 05:17:49.436,219.289,-25.320,1852.755028
5 Jun 2022 06:46:49.821,349.038,-25.259,1864.094812
5 Jun 2022 06:47:49.000,346.042,-28.447,1471.403427
5 Jun 2022 06:48:49.000,340.246,-35.126,1097.737622
5 Jun 2022 06:49:49.000,325.609,-48.472,787.280573
5 Jun 2022 06:50:49.000,272.902,-63.486,641.902865
5 Jun 2022 06:51:49.000,214.633,-50.225,763.382113
5 Jun 2022 06:52:49.000,198.229,-36.073,1063.653318
5 Jun 2022 06:53:49.000,191.969,-28.905,1433.749622
5 Jun 2022 06:54:49.000,188.756,-25.444,1830.778856
5 Jun 2022 06:54:51.662,188.650,-25.343,1848.726253
5 Jun 2022 08:22:24.038,16.862,-25.259,1864.153196
5 Jun 2022 08:23:24.000,22.415,-28.335,1481.072332
5 Jun 2022 08:24:24.000,32.552,-34.182,1134.865232
5 Jun 2022 08:25:24.000,53.905,-43.359,873.500505
5 Jun 2022 08:26:24.000,94.894,-48.413,788.121998
5 Jun 2022 08:27:24.000,131.191,-40.795,928.952275
5 Jun 2022 08:28:24.000,148.585,-32.317,1219.592741
5 Jun 2022 08:29:24.000,157.123,-27.320,1578.537068
5 Jun 2022 08:30:06.239,160.772,-25.333,1850.518462
5 Jun 2022 09:58:05.475,44.367,-25.258,1864.197956
5 Jun 2022 09:59:05.000,56.048,-27.081,1604.455216
5 Jun 2022 10:00:05.000,72.141,-28.951,1430.095911
5 Jun 2022 10:01:05.000,91.525,-29.650,1378.005891
5 Jun 2022 10:02:05.000,110.391,-28.564,1461.518366
5 Jun 2022 10:03:05.000,125.437,-26.610,1659.959017
5 Jun 2022 10:03:48.739,133.692,-25.300,1856.446228
5 Jun 2022 11:34:05.167,75.205,-25.259,1864.141132
5 Jun 2022 11:35:05.000,89.273,-25.563,1810.460285
5 Jun 2022 11:36:05.000,103.415,-25.280,1860.228207
5 Jun 2022 11:36:06.482,103.750,-25.266,1862.734114
5 Jun 2022 14:41:18.165,68.751,-25.273,1861.566193
5 Jun 2022 14:42:18.000,82.712,-25.917,1754.382522
5 Jun 2022 14:43:18.000,97.728,-25.932,1752.129247
5 Jun 2022 14:44:18.000,111.804,-25.305,1855.644629
5 Jun 2022 14:44:21.318,112.522,-25.259,1864.182528
5 Jun 2022 16:13:56.190,40.441,-25.308,1854.991976
5 Jun 2022 16:14:56.000,51.266,-27.475,1562.371082
5 Jun 2022 16:15:56.000,67.140,-30.088,1347.992690
5 Jun 2022 16:16:56.000,88.028,-31.633,1255.318745
5 Jun 2022 16:17:56.000,109.686,-30.670,1310.858119
5 Jun 2022 16:18:56.000,126.996,-28.144,1498.026177
5 Jun 2022 16:19:56.000,139.013,-25.782,1775.037514
5 Jun 2022 16:20:12.939,141.633,-25.259,1864.182456
5 Jun 2022 17:47:57.429,13.317,-25.337,1849.688838
5 Jun 2022 17:48:57.000,17.147,-28.625,1456.397479
5 Jun 2022 17:49:57.000,24.523,-35.359,1089.084840
5 Jun 2022 17:50:57.000,42.665,-47.980,794.437173
5 Jun 2022 17:51:57.000,94.502,-58.560,677.162464
5 Jun 2022 17:52:57.000,142.394,-46.460,817.970018
5 Jun 2022 17:53:57.000,158.756,-34.468,1123.276987
5 Jun 2022 17:54:57.000,165.618,-28.182,1494.642074
5 Jun 2022 17:55:52.802,169.075,-25.259,1864.142651
5 Jun 2022 19:23:33.750,345.071,-25.341,1849.099307
5 Jun 2022 19:24:33.000,340.131,-28.470,1469.423273
5 Jun 2022 19:25:33.000,330.919,-34.587,1118.541435
5 Jun 2022 19:26:33.000,310.629,-44.778,846.717963
5 Jun 2022 19:27:33.000,267.095,-51.499,747.472588
5 Jun 2022 19:28:33.000,227.196,-42.961,881.472484
5 Jun 2022 19:29:33.000,209.517,-33.347,1170.751135
5 Jun 2022 19:30:33.000,201.265,-27.814,1528.722002
5 Jun 2022 19:31:25.087,197.175,-25.259,1864.073577
5 Jun 2022 21:01:02.767,313.184,-25.312,1854.359374
5 Jun 2022 21:02:02.000,301.437,-26.970,1617.039306
5 Jun 2022 21:03:02.000,285.718,-28.547,1462.922999
5 Jun 2022 21:04:02.000,267.392,-29.022,1424.546942
5 Jun 2022 21:05:02.000,249.781,-28.004,1510.825035
5 Jun 2022 21:06:02.000,235.566,-26.281,1702.524389
5 Jun 2022 21:06:39.928,228.563,-25.260,1863.834750
6 Jun 2022 05:08:12.065,318.698,-25.260,1863.918468
6 Jun 2022 05:09:12.000,308.085,-27.307,1579.855390
6 Jun 2022 05:10:12.000,292.796,-29.751,1370.878802
6 Jun 2022 05:11:12.000,272.849,-31.259,1276.085461
6 Jun 2022 05:12:12.000,251.921,-30.510,1320.799467
6 Jun 2022 05:13:12.000,234.744,-28.206,1492.454063
6 Jun 2022 05:14:12.000,222.532,-25.922,1753.659997
6 Jun 2022 05:14:31.701,219.427,-25.320,1852.784406
6 Jun 2022 06:43:32.725,348.921,-25.259,1864.094409
6 Jun 2022 06:44:32.000,345.883,-28.452,1470.968788
6 Jun 2022 06:45:32.000,340.016,-35.128,1097.677526
6 Jun 2022 06:46:32.000,325.225,-48.428,787.908677
6 Jun 2022 06:47:32.000,272.621,-63.228,643.521501
6 Jun 2022 06:48:32.000,214.876,-50.067,765.434423
6 Jun 2022 06:49:32.000,198.417,-36.017,1065.605330
6 Jun 2022 06:50:32.000,192.109,-28.882,1435.538619
6 Jun 2022 06:51:32.000,188.866,-25.434,1832.434407
6 Jun 2022 06:51:34.420,188.768,-25.343,1848.742208
6 Jun 2022 08:19:06.907,16.749,-25.259,1864.153057
6 Jun 2022 08:20:06.000,22.166,-28.278,1486.134163
6 Jun 2022 08:21:06.000,32.155,-34.091,1138.655228
6 Jun 2022 08:22:06.000,53.220,-43.297,874.730927
6 Jun 2022 08:23:06.000,94.150,-48.607,785.358304
6 Jun 2022 08:24:06.000,130.933,-41.045,923.091974
6 Jun 2022 08:25:06.000,148.538,-32.460,1212.465158
6 Jun 2022 08:26:06.000,157.137,-27.392,1570.992102
6 Jun 2022 08:26:49.402,160.884,-25.333,1850.498833
6 Jun 2022 09:54:48.313,44.252,-25.258,1864.196709
6 Jun 2022 09:55:48.000,55.953,-27.093,1603.176543
6 Jun 2022 09:56:48.000,72.054,-28.974,1428.263078
6 Jun 2022 09:57:48.000,91.470,-29.683,1375.691763
6 Jun 2022 09:58:48.000,110.377,-28.595,1458.951347
6 Jun 2022 09:59:48.000,125.453,-26.631,1657.364397
6 Jun 2022 10:00:32.253,133.804,-25.300,1856.417866
6 Jun 2022 11:30:47.777,75.040,-25.259,1864.142110
6 Jun 2022 11:31:47.000,88.962,-25.569,1809.314300
6 Jun 2022 11:32:47.000,103.132,-25.298,1856.915414
6 Jun 2022 11:32:50.439,103.909,-25.266,1862.706270
6 Jun 2022 14:38:01.958,68.882,-25.272,1861.589619
6 Jun 2022 14:39:01.000,82.652,-25.905,1756.101049
6 Jun 2022 14:40:01.000,97.653,-25.924,1753.361801
6 Jun 2022 14:41:01.000,111.724,-25.301,1856.345532
6 Jun 2022 14:41:04.060,112.387,-25.259,1864.182112
6 Jun 2022 16:10:39.634,40.552,-25.308,1855.019516
6 Jun 2022 16:11:39.000,51.302,-27.450,1564.931076
6 Jun 2022 16:12:39.000,67.144,-30.049,1350.618399
6 Jun 2022 16:13:39.000,87.979,-31.588,1257.767777
6 Jun 2022 16:14:39.000,109.594,-30.638,1312.846476
6 Jun 2022 16:15:39.000,126.893,-28.128,1499.452979
6 Jun 2022 16:16:39.000,138.919,-25.776,1775.977738
6 Jun 2022 16:16:55.785,141.520,-25.259,1864.183356
6 Jun 2022 17:44:40.511,13.430,-25.337,1849.702591
6 Jun 2022 17:45:40.000,17.288,-28.616,1457.141571
6 Jun 2022 17:46:40.000,24.718,-35.331,1090.125540
6 Jun 2022 17:47:40.000,42.935,-47.879,795.934562
6 Jun 2022 17:48:40.000,94.495,-58.335,679.012238
6 Jun 2022 17:49:40.000,142.147,-46.360,819.588004
6 Jun 2022 17:50:40.000,158.574,-34.437,1124.524445
6 Jun 2022 17:51:40.000,165.483,-28.171,1495.635887
6 Jun 2022 17:52:35.677,168.962,-25.259,1864.142791
6 Jun 2022 19:20:16.412,345.191,-25.341,1849.089685
6 Jun 2022 19:21:16.000,340.250,-28.499,1467.004383
6 Jun 2022 19:22:16.000,331.057,-34.654,1115.908041
6 Jun 2022 19:23:16.000,310.729,-44.930,843.987578
6 Jun 2022 19:24:16.000,266.883,-51.684,745.259234
6 Jun 2022 19:25:16.000,226.892,-43.016,880.364403
6 Jun 2022 19:26:16.000,209.301,-33.352,1170.509145
6 Jun 2022 19:27:16.000,201.109,-27.811,1528.999182
6 Jun 2022 19:28:08.002,197.055,-25.259,1864.072727
6 Jun 2022 20:57:44.897,313.333,-25.312,1854.326521
6 Jun 2022 20:58:44.000,301.636,-26.974,1616.565461
6 Jun 2022 20:59:44.000,285.925,-28.568,1461.154638
6 Jun 2022 21:00:44.000,267.567,-29.061,1421.468599
6 Jun 2022 21:01:44.000,249.893,-28.048,1506.753079
6 Jun 2022 21:02:44.000,235.620,-26.316,1697.896970
6 Jun 2022 21:03:22.976,228.417,-25.260,1863.836425
7 Jun 2022 05:04:55.063,318.562,-25.260,1863.917508
7 Jun 2022 05:05:55.000,307.925,-27.300,1580.598757
7 Jun 2022 05:06:55.000,292.625,-29.727,1372.589484
7 Jun 2022 05:07:55.000,272.707,-31.211,1278.822798
7 Jun 2022 05:08:55.000,251.848,-30.454,1324.293173
7 Jun 2022 05:09:55.000,234.733,-28.164,1496.277285
7 Jun 2022 05:10:55.000,222.555,-25.896,1757.516546
7 Jun 2022 05:11:13.963,219.566,-25.320,1852.813832
7 Jun 2022 06:40:15.628,348.804,-25.259,1864.094005
7 Jun 2022 06:41:15.000,345.724,-28.457,1470.538806
7 Jun 2022 06:42:15.000,339.785,-35.129,1097.625980
7 Jun 2022 06:43:15.000,324.842,-48.384,788.551118
7 Jun 2022 06:44:15.000,272.346,-62.971,645.157718
7 Jun 2022 06:45:15.000,215.115,-49.910,767.502308
7 Jun 2022 06:46:15.000,198.605,-35.960,1067.570917
7 Jun 2022 06:47:15.000,192.248,-28.859,1437.339557
7 Jun 2022 06:48:15.000,188.975,-25.425,1834.100642
7 Jun 2022 06:48:17.173,188.887,-25.343,1848.741374
7 Jun 2022 08:15:49.776,16.636,-25.259,1864.152918
7 Jun 2022 08:16:49.000,22.037,-28.290,1485.032464
7 Jun 2022 08:17:49.000,31.990,-34.126,1137.180969
7 Jun 2022 08:18:49.000,53.045,-43.397,872.758285
7 Jun 2022 08:19:49.000,94.168,-48.766,783.095833
7 Jun 2022 08:20:49.000,131.099,-41.131,921.108173
7 Jun 2022 08:21:49.000,148.686,-32.492,1210.907005
7 Jun 2022 08:22:49.000,157.254,-27.404,1569.750419
7 Jun 2022 08:23:32.565,160.996,-25.333,1850.484579
7 Jun 2022 09:51:31.151,44.138,-25.258,1864.195474
7 Jun 2022 09:52:31.000,55.858,-27.104,1601.896725
7 Jun 2022 09:53:31.000,71.966,-28.998,1426.428897
7 Jun 2022 09:54:31.000,91.414,-29.716,1373.375958
7 Jun 2022 09:55:31.000,110.364,-28.625,1456.382987
7 Jun 2022 09:56:31.000,125.469,-26.652,1654.769449
7 Jun 2022 09:57:15.765,133.916,-25.301,1856.389535
7 Jun 2022 11:27:30.391,74.876,-25.259,1864.143062
7 Jun 2022 11:28:30.000,88.890,-25.577,1808.115099
7 Jun 2022 11:29:30.000,103.075,-25.307,1855.257466
7 Jun 2022 11:29:34.398,104.070,-25.267,1862.691105
7 Jun 2022 14:34:45.754,69.013,-25.272,1861.612991
7 Jun 2022 14:35:45.000,82.837,-25.900,1756.873759
7 Jun 2022 14:36:45.000,97.824,-25.910,1755.459149
7 Jun 2022 14:37:45.000,111.862,-25.283,1859.570752
7 Jun 2022 14:37:46.800,112.252,-25.259,1864.181739
7 Jun 2022 16:07:23.079,40.664,-25.308,1855.047083
7 Jun 2022 16:08:23.000,51.555,-27.467,1563.163761
7 Jun 2022 16:09:23.000,67.459,-30.049,1350.583695
7 Jun 2022 16:10:23.000,88.301,-31.549,1259.897717
7 Jun 2022 16:11:23.000,109.834,-30.571,1316.959513
7 Jun 2022 16:12:23.000,127.032,-28.069,1504.860002
7 Jun 2022 16:13:23.000,138.987,-25.737,1782.054776
7 Jun 2022 16:13:38.632,141.406,-25.259,1864.184235
7 Jun 2022 17:41:23.594,13.543,-25.337,1849.716426
7 Jun 2022 17:42:23.000,17.428,-28.607,1457.897782
7 Jun 2022 17:43:23.000,24.911,-35.302,1091.179733
7 Jun 2022 17:44:23.000,43.202,-47.778,797.445841
7 Jun 2022 17:45:23.000,94.486,-58.111,680.872802
7 Jun 2022 17:46:23.000,141.902,-46.261,821.212746
7 Jun 2022 17:47:23.000,158.393,-34.406,1125.775428
7 Jun 2022 17:48:23.000,165.349,-28.160,1496.630945
7 Jun 2022 17:49:18.551,168.849,-25.259,1864.141652
7 Jun 2022 19:16:59.075,345.312,-25.341,1849.080166
7 Jun 2022 19:17:59.000,340.369,-28.527,1464.596348
7 Jun 2022 19:18:59.000,331.196,-34.721,1113.285765
7 Jun 2022 19:19:59.000,310.830,-45.083,841.268293
7 Jun 2022 19:20:59.000,266.670,-51.870,743.058405
7 Jun 2022 19:21:59.000,226.586,-43.070,879.268075
7 Jun 2022 19:22:59.000,209.084,-33.358,1170.274686
7 Jun 2022 19:23:59.000,200.952,-27.808,1529.280331
7 Jun 2022 19:24:50.916,196.936,-25.259,1864.071845
7 Jun 2022 20:54:27.031,313.481,-25.312,1854.293624
7 Jun 2022 20:55:27.000,301.605,-27.008,1612.700037
7 Jun 2022 20:56:27.000,285.842,-28.610,1457.704121
7 Jun 2022 20:57:27.000,267.431,-29.096,1418.794224
7 Jun 2022 20:58:27.000,249.735,-28.067,1505.071111
7 Jun 2022 20:59:27.000,235.470,-26.321,1697.163044
7 Jun 2022 21:00:06.024,228.271,-25.260,1863.838074
8 Jun 2022 05:01:38.063,318.426,-25.260,1863.916544
8 Jun 2022 05:02:38.000,307.764,-27.293,1581.347930
8 Jun 2022 05:03:38.000,292.453,-29.702,1374.306634
8 Jun 2022 05:04:38.000,272.566,-31.163,1281.565104
8 Jun 2022 05:05:38.000,251.776,-30.399,1327.789629
8 Jun 2022 05:06:38.000,234.722,-28.121,1500.102625
8 Jun 2022 05:07:38.000,222.578,-25.870,1761.375815
8 Jun 2022 05:07:56.224,219.704,-25.320,1852.843305
8 Jun 2022 06:36:58.532,348.686,-25.259,1864.093600
8 Jun 2022 06:37:58.000,345.565,-28.462,1470.113356
8 Jun 2022 06:38:58.000,339.554,-35.130,1097.582849
8 Jun 2022 06:39:58.000,324.460,-48.338,789.207728
8 Jun 2022 06:40:58.000,272.075,-62.715,646.811290
8 Jun 2022 06:41:58.000,215.352,-49.753,769.585625
8 Jun 2022 06:42:58.000,198.791,-35.904,1069.550034
8 Jun 2022 06:43:58.000,192.387,-28.837,1439.152443
8 Jun 2022 06:44:58.000,189.084,-25.415,1835.777599
8 Jun 2022 06:44:59.925,189.005,-25.343,1848.740137
8 Jun 2022 08:12:32.646,16.524,-25.259,1864.152780
8 Jun 2022 08:13:32.000,21.908,-28.303,1483.932265
8 Jun 2022 08:14:32.000,31.825,-34.162,1135.709803
8 Jun 2022 08:15:32.000,52.869,-43.497,870.790253
8 Jun 2022 08:16:32.000,94.188,-48.927,780.839720
8 Jun 2022 08:17:32.000,131.267,-41.216,919.133374
8 Jun 2022 08:18:32.000,148.835,-32.523,1209.358650
8 Jun 2022 08:19:32.000,157.372,-27.415,1568.518130
8 Jun 2022 08:20:15.725,161.109,-25.333,1850.470317
8 Jun 2022 09:48:13.989,44.023,-25.258,1864.194251
8 Jun 2022 09:49:13.000,55.532,-27.082,1604.393701
8 Jun 2022 09:50:13.000,71.575,-28.995,1426.607428
8 Jun 2022 09:51:13.000,91.025,-29.752,1370.822250
8 Jun 2022 09:52:13.000,110.061,-28.686,1451.392148
8 Jun 2022 09:53:13.000,125.270,-26.706,1648.117614
8 Jun 2022 09:53:59.277,134.028,-25.301,1856.361238
8 Jun 2022 11:24:13.010,74.713,-25.259,1864.144130
8 Jun 2022 11:25:13.000,88.819,-25.584,1806.913537
8 Jun 2022 11:26:13.000,103.018,-25.316,1853.596939
8 Jun 2022 11:26:18.345,104.227,-25.267,1862.663725
8 Jun 2022 14:31:29.553,69.144,-25.272,1861.636311
8 Jun 2022 14:32:29.000,83.023,-25.895,1757.659403
8 Jun 2022 14:33:29.000,97.996,-25.896,1757.566446
8 Jun 2022 14:34:29.000,112.000,-25.266,1862.801295
8 Jun 2022 14:34:29.539,112.116,-25.259,1864.181359
8 Jun 2022 16:04:06.526,40.775,-25.308,1855.074675
8 Jun 2022 16:05:06.000,51.590,-27.442,1565.728938
8 Jun 2022 16:06:06.000,67.463,-30.010,1353.208771
8 Jun 2022 16:07:06.000,88.251,-31.504,1262.339209
8 Jun 2022 16:08:06.000,109.741,-30.540,1318.936711
8 Jun 2022 16:09:06.000,126.929,-28.053,1506.275762
8 Jun 2022 16:10:06.000,138.893,-25.731,1782.985032
8 Jun 2022 16:10:21.478,141.293,-25.259,1864.185089
8 Jun 2022 17:38:06.679,13.656,-25.337,1849.730345
8 Jun 2022 17:39:06.000,17.568,-28.598,1458.666013
8 Jun 2022 17:40:06.000,25.104,-35.273,1092.247329
8 Jun 2022 17:41:06.000,43.466,-47.676,798.970941
8 Jun 2022 17:42:06.000,94.477,-57.888,682.744169
8 Jun 2022 17:43:06.000,141.658,-46.162,822.844363
8 Jun 2022 17:44:06.000,158.212,-34.375,1127.030093
8 Jun 2022 17:45:06.000,165.215,-28.149,1497.627415
8 Jun 2022 17:46:01.426,168.736,-25.259,1864.142784
8 Jun 2022 19:13:41.741,345.433,-25.341,1849.070748
8 Jun 2022 19:14:41.000,340.596,-28.482,1468.417379
8 Jun 2022 19:15:41.000,331.550,-34.649,1116.071176
8 Jun 2022 19:16:41.000,311.445,-45.042,841.988518
8 Jun 2022 19:17:41.000,267.322,-52.087,740.522128
8 Jun 2022 19:18:41.000,226.720,-43.318,874.310394
8 Jun 2022 19:19:41.000,209.056,-33.488,1164.467273
8 Jun 2022 19:20:41.000,200.893,-27.871,1523.273242
8 Jun 2022 19:21:33.830,196.817,-25.259,1864.070927
8 Jun 2022 20:51:09.168,313.630,-25.312,1854.260683
8 Jun 2022 20:52:09.000,301.805,-27.012,1612.241327
8 Jun 2022 20:53:09.000,286.050,-28.631,1455.943588
8 Jun 2022 20:54:09.000,267.608,-29.136,1415.713769
8 Jun 2022 20:55:09.000,249.847,-28.111,1500.989388
8 Jun 2022 20:56:09.000,235.524,-26.356,1692.522623
8 Jun 2022 20:56:49.070,228.125,-25.260,1863.839709
9 Jun 2022 04:58:21.063,318.289,-25.260,1863.915576
9 Jun 2022 04:59:21.000,307.604,-27.286,1582.102639
9 Jun 2022 05:00:21.000,292.283,-29.678,1376.029989
9 Jun 2022 05:01:21.000,272.425,-31.116,1284.312155
9 Jun 2022 05:02:21.000,251.703,-30.344,1331.288690
9 Jun 2022 05:03:21.000,234.711,-28.079,1503.930015
9 Jun 2022 05:04:21.000,222.600,-25.845,1765.237791
9 Jun 2022 05:04:38.481,219.843,-25.320,1852.872824
9 Jun 2022 06:33:41.436,348.569,-25.259,1864.093193
9 Jun 2022 06:34:41.000,345.405,-28.467,1469.692230
9 Jun 2022 06:35:41.000,339.324,-35.131,1097.547931
9 Jun 2022 06:36:41.000,324.079,-48.292,789.878296
9 Jun 2022 06:37:41.000,271.810,-62.460,648.482003
9 Jun 2022 06:38:41.000,215.584,-49.596,771.684292
9 Jun 2022 06:39:41.000,198.976,-35.847,1071.542716
9 Jun 2022 06:40:41.000,192.525,-28.814,1440.977374
9 Jun 2022 06:41:41.000,189.193,-25.406,1837.465405
9 Jun 2022 06:41:42.677,189.123,-25.342,1848.757959
9 Jun 2022 08:09:15.516,16.411,-25.259,1864.152640
9 Jun 2022 08:10:15.000,21.778,-28.315,1482.833481
9 Jun 2022 08:11:15.000,31.660,-34.198,1134.241709
9 Jun 2022 08:12:15.000,52.692,-43.597,868.826917
9 Jun 2022 08:13:15.000,94.208,-49.089,778.590191
9 Jun 2022 08:14:15.000,131.436,-41.302,917.167876
9 Jun 2022 08:15:15.000,148.984,-32.555,1207.820384
9 Jun 2022 08:16:15.000,157.490,-27.427,1567.295506
9 Jun 2022 08:16:58.884,161.221,-25.333,1850.456013
9 Jun 2022 09:44:56.828,43.908,-25.258,1864.193041
9 Jun 2022 09:45:56.000,55.437,-27.093,1603.120810
9 Jun 2022 09:46:56.000,71.487,-29.019,1424.780236
9 Jun 2022 09:47:56.000,90.969,-29.785,1368.510155
9 Jun 2022 09:48:56.000,110.048,-28.717,1448.823923
9 Jun 2022 09:49:56.000,125.286,-26.727,1645.521908
9 Jun 2022 09:50:42.786,134.140,-25.301,1856.332977
9 Jun 2022 11:20:55.633,74.551,-25.259,1864.145666
9 Jun 2022 11:21:55.000,88.506,-25.590,1805.823505
9 Jun 2022 11:22:55.000,102.733,-25.334,1850.330091
9 Jun 2022 11:23:02.293,104.385,-25.267,1862.646406
9 Jun 2022 14:28:13.353,69.276,-25.272,1861.659581
9 Jun 2022 14:29:13.000,83.208,-25.890,1758.458072
9 Jun 2022 14:30:13.000,98.167,-25.882,1759.683820
9 Jun 2022 14:31:12.276,111.980,-25.259,1864.180972
9 Jun 2022 16:00:49.974,40.886,-25.308,1855.102295
9 Jun 2022 16:01:49.000,51.623,-27.418,1568.295597
9 Jun 2022 16:02:49.000,67.466,-29.971,1355.833922
9 Jun 2022 16:03:49.000,88.202,-31.460,1264.779975
9 Jun 2022 16:04:49.000,109.649,-30.508,1320.913262
9 Jun 2022 16:05:49.000,126.827,-28.038,1507.690882
9 Jun 2022 16:06:49.000,138.799,-25.725,1783.914245
9 Jun 2022 16:07:04.324,141.179,-25.259,1864.185920
9 Jun 2022 17:34:49.766,13.769,-25.337,1849.744348
9 Jun 2022 17:35:49.000,17.707,-28.589,1459.446070
9 Jun 2022 17:36:49.000,25.297,-35.244,1093.328151
9 Jun 2022 17:37:49.000,43.728,-47.574,800.509720
9 Jun 2022 17:38:49.000,94.467,-57.667,684.626330
9 Jun 2022 17:39:49.000,141.416,-46.063,824.483007
9 Jun 2022 17:40:49.000,158.031,-34.343,1128.288660
9 Jun 2022 17:41:49.000,165.081,-28.138,1498.625534
9 Jun 2022 17:42:44.301,168.623,-25.259,1864.143903
9 Jun 2022 19:10:24.408,345.553,-25.341,1849.061432
9 Jun 2022 19:11:24.000,340.716,-28.510,1466.033984
9 Jun 2022 19:12:24.000,331.692,-34.716,1113.474096
9 Jun 2022 19:13:24.000,311.552,-45.195,839.289467
9 Jun 2022 19:14:24.000,267.110,-52.276,738.330359
9 Jun 2022 19:15:24.000,226.412,-43.373,873.219911
9 Jun 2022 19:16:24.000,208.838,-33.493,1164.237025
9 Jun 2022 19:17:24.000,200.736,-27.868,1523.556023
9 Jun 2022 19:18:16.744,196.698,-25.259,1864.069976
9 Jun 2022 20:47:51.307,313.778,-25.312,1854.227698
9 Jun 2022 20:48:51.000,302.005,-27.016,1611.799899
9 Jun 2022 20:49:51.000,286.260,-28.652,1454.198187
9 Jun 2022 20:50:51.000,267.785,-29.177,1412.642202
9 Jun 2022 20:51:51.000,249.961,-28.157,1496.909162
9 Jun 2022 20:52:51.000,235.579,-26.391,1687.878739
9 Jun 2022 20:53:32.114,227.980,-25.260,1863.841344
10 Jun 2022 04:55:04.065,318.153,-25.260,1863.914607
10 Jun 2022 04:56:04.000,307.444,-27.279,1582.862626
10 Jun 2022 04:57:04.000,292.112,-29.653,1377.759324
10 Jun 2022 04:58:04.000,272.284,-31.068,1287.063798
10 Jun 2022 04:59:04.000,251.631,-30.290,1334.790307
10 Jun 2022 05:00:04.000,234.699,-28.037,1507.759495
10 Jun 2022 05:01:04.000,222.622,-25.820,1769.102572
10 Jun 2022 05:01:20.737,219.982,-25.320,1852.902388
10 Jun 2022 06:30:24.340,348.452,-25.259,1864.092786
10 Jun 2022 06:31:24.000,345.246,-28.472,1469.275160
10 Jun 2022 06:32:24.000,339.093,-35.132,1097.520971
10 Jun 2022 06:33:24.000,323.699,-48.245,790.562591
10 Jun 2022 06:34:24.000,271.549,-62.206,650.169678
10 Jun 2022 06:35:24.000,215.814,-49.439,773.798307
10 Jun 2022 06:36:24.000,199.160,-35.790,1073.549095
10 Jun 2022 06:37:24.000,192.662,-28.791,1442.814545
10 Jun 2022 06:38:24.000,189.302,-25.396,1839.164284
10 Jun 2022 06:38:25.426,189.242,-25.342,1848.759437
10 Jun 2022 08:05:58.385,16.298,-25.259,1864.152501
10 Jun 2022 08:06:58.000,21.649,-28.328,1481.735920
10 Jun 2022 08:07:58.000,31.494,-34.233,1132.776551
10 Jun 2022 08:08:58.000,52.514,-43.698,866.868266
10 Jun 2022 08:09:58.000,94.229,-49.252,776.347421
10 Jun 2022 08:10:58.000,131.607,-41.388,915.211975
10 Jun 2022 08:11:58.000,149.135,-32.586,1206.292530
10 Jun 2022 08:12:58.000,157.609,-27.439,1566.082868
10 Jun 2022 08:13:42.043,161.333,-25.333,1850.448787
10 Jun 2022 09:41:39.667,43.794,-25.258,1864.191843
10 Jun 2022 09:42:39.000,55.341,-27.105,1601.846905
10 Jun 2022 09:43:39.000,71.398,-29.042,1422.952033
10 Jun 2022 09:44:39.000,90.913,-29.819,1366.196913
10 Jun 2022 09:45:39.000,110.034,-28.749,1446.255027
10 Jun 2022 09:46:39.000,125.303,-26.749,1642.926627
10 Jun 2022 09:47:26.295,134.252,-25.301,1856.304756
10 Jun 2022 11:17:38.261,74.390,-25.259,1864.147139
10 Jun 2022 11:18:38.000,88.434,-25.598,1804.626157
10 Jun 2022 11:19:38.000,102.676,-25.343,1848.671712
10 Jun 2022 11:19:46.235,104.542,-25.267,1862.629032
10 Jun 2022 14:24:57.157,69.408,-25.272,1861.682800
10 Jun 2022 14:25:57.000,83.393,-25.884,1759.269751
10 Jun 2022 14:26:57.000,98.337,-25.868,1761.811315
10 Jun 2022 14:27:55.011,111.844,-25.259,1864.180578
10 Jun 2022 15:57:33.423,40.997,-25.307,1855.129942
10 Jun 2022 15:58:33.000,51.876,-27.434,1566.563049
10 Jun 2022 15:59:33.000,67.779,-29.971,1355.830896
10 Jun 2022 16:00:33.000,88.520,-31.422,1266.927175
10 Jun 2022 16:01:33.000,109.886,-30.443,1325.024385
10 Jun 2022 16:02:33.000,126.964,-27.980,1513.084534
10 Jun 2022 16:03:33.000,138.868,-25.687,1789.974301
10 Jun 2022 16:03:47.170,141.065,-25.259,1864.186728
10 Jun 2022 17:31:32.854,13.881,-25.337,1849.758435
10 Jun 2022 17:32:32.000,17.847,-28.579,1460.237661
10 Jun 2022 17:33:32.000,25.488,-35.215,1094.421922
10 Jun 2022 17:34:32.000,43.988,-47.472,802.061951
10 Jun 2022 17:35:32.000,94.457,-57.447,686.519226
10 Jun 2022 17:36:32.000,141.175,-45.964,826.128827
10 Jun 2022 17:37:32.000,157.851,-34.312,1129.551378
10 Jun 2022 17:38:32.000,164.948,-28.126,1499.625591
10 Jun 2022 17:39:27.176,168.510,-25.259,1864.145011
10 Jun 2022 19:07:07.077,345.674,-25.341,1849.052218
10 Jun 2022 19:08:07.000,340.836,-28.538,1463.660832
10 Jun 2022 19:09:07.000,331.834,-34.782,1110.887623
10 Jun 2022 19:10:07.000,311.660,-45.349,836.601199
10 Jun 2022 19:11:07.000,266.895,-52.466,736.151104
10 Jun 2022 19:12:07.000,226.102,-43.428,872.141445
10 Jun 2022 19:13:07.000,208.621,-33.498,1164.014703
10 Jun 2022 19:14:07.000,200.579,-27.865,1523.843246
10 Jun 2022 19:14:59.660,196.579,-25.259,1864.085895
10 Jun 2022 20:44:33.449,313.926,-25.313,1854.194669
10 Jun 2022 20:45:33.000,302.205,-27.020,1611.375649
10 Jun 2022 20:46:33.000,286.471,-28.673,1452.467935
10 Jun 2022 20:47:33.000,267.963,-29.217,1409.579640
10 Jun 2022 20:48:33.000,250.075,-28.202,1492.830590
10 Jun 2022 20:49:33.000,235.634,-26.427,1683.231572
10 Jun 2022 20:50:15.158,227.834,-25.260,1863.842985
11 Jun 2022 04:51:47.066,318.016,-25.260,1863.913634
11 Jun 2022 04:52:47.000,307.284,-27.272,1583.627704
11 Jun 2022 04:53:47.000,291.942,-29.629,1379.494513
11 Jun 2022 04:54:47.000,272.144,-31.021,1289.820003
11 Jun 2022 04:55:47.000,251.559,-30.236,1338.294569
11 Jun 2022 04:56:47.000,234.688,-27.996,1511.591238
11 Jun 2022 04:57:47.000,222.644,-25.795,1772.970382
11 Jun 2022 04:58:02.990,220.121,-25.320,1852.931998
11 Jun 2022 06:27:07.245,348.335,-25.259,1864.092377
11 Jun 2022 06:28:07.000,345.086,-28.477,1468.861858
11 Jun 2022 06:29:07.000,338.862,-35.133,1097.501716
11 Jun 2022 06:30:07.000,323.321,-48.197,791.260409
11 Jun 2022 06:31:07.000,271.293,-61.953,651.874208
11 Jun 2022 06:32:07.000,216.041,-49.282,775.927756
11 Jun 2022 06:33:07.000,199.342,-35.733,1075.569381
11 Jun 2022 06:34:07.000,192.800,-28.768,1444.664223
11 Jun 2022 06:35:07.000,189.410,-25.386,1840.874533
11 Jun 2022 06:35:08.172,189.360,-25.342,1848.760820
11 Jun 2022 08:02:41.255,16.185,-25.259,1864.152362
11 Jun 2022 08:03:41.000,21.519,-28.340,1480.639286
11 Jun 2022 08:04:41.000,31.328,-34.269,1131.314086
11 Jun 2022 08:05:41.000,52.335,-43.800,864.914169
11 Jun 2022 08:06:41.000,94.251,-49.416,774.111482
11 Jun 2022 08:07:41.000,131.779,-41.475,913.265912
11 Jun 2022 08:08:41.000,149.286,-32.617,1204.775387
11 Jun 2022 08:09:41.000,157.728,-27.451,1564.880535
11 Jun 2022 08:10:25.198,161.445,-25.333,1850.429964
11 Jun 2022 09:38:22.505,43.679,-25.259,1864.190656
11 Jun 2022 09:39:22.000,55.245,-27.116,1600.571773
11 Jun 2022 09:40:22.000,71.310,-29.066,1421.122684
11 Jun 2022 09:41:22.000,90.857,-29.853,1363.882493
11 Jun 2022 09:42:22.000,110.021,-28.780,1443.685540
11 Jun 2022 09:43:22.000,125.320,-26.771,1640.331937
11 Jun 2022 09:44:09.801,134.364,-25.301,1856.276675
11 Jun 2022 11:14:20.894,74.230,-25.259,1864.148554
11 Jun 2022 11:15:20.000,88.121,-25.604,1803.586651
11 Jun 2022 11:16:20.000,102.389,-25.361,1845.447827
11 Jun 2022 11:16:30.170,104.697,-25.267,1862.607836
11 Jun 2022 14:21:40.962,69.541,-25.272,1861.705968
11 Jun 2022 14:22:40.000,83.331,-25.873,1760.948003
11 Jun 2022 14:23:40.000,98.261,-25.860,1762.998175
11 Jun 2022 14:24:37.744,111.707,-25.259,1864.180177
11 Jun 2022 15:54:16.874,41.109,-25.307,1855.157616
11 Jun 2022 15:55:16.000,51.909,-27.410,1569.134179
11 Jun 2022 15:56:16.000,67.780,-29.932,1358.455142
11 Jun 2022 15:57:16.000,88.469,-31.378,1269.360775
11 Jun 2022 15:58:16.000,109.794,-30.412,1326.990751
11 Jun 2022 15:59:16.000,126.862,-27.965,1514.489933
11 Jun 2022 16:00:16.000,138.775,-25.682,1790.895032
11 Jun 2022 16:00:30.015,140.952,-25.259,1864.187513
11 Jun 2022 17:28:15.943,13.994,-25.337,1849.772606
11 Jun 2022 17:29:15.000,17.986,-28.570,1461.040428
11 Jun 2022 17:30:15.000,25.679,-35.185,1095.528286
11 Jun 2022 17:31:15.000,44.245,-47.370,803.627309
11 Jun 2022 17:32:15.000,94.446,-57.229,688.422700
11 Jun 2022 17:33:15.000,140.936,-45.865,827.781909
11 Jun 2022 17:34:15.000,157.671,-34.281,1130.818462
11 Jun 2022 17:35:15.000,164.814,-28.115,1500.627852
11 Jun 2022 17:36:10.051,168.396,-25.259,1864.146106
11 Jun 2022 19:03:49.748,345.794,-25.341,1849.043106
11 Jun 2022 19:04:49.000,341.062,-28.493,1467.534942
11 Jun 2022 19:05:49.000,332.188,-34.709,1113.738934
11 Jun 2022 19:06:49.000,312.282,-45.304,837.395668
11 Jun 2022 19:07:49.000,267.567,-52.686,733.659972
11 Jun 2022 19:08:49.000,226.234,-43.681,867.191737
11 Jun 2022 19:09:49.000,208.590,-33.631,1158.204972
11 Jun 2022 19:10:49.000,200.518,-27.929,1517.831075
11 Jun 2022 19:11:42.574,196.460,-25.259,1864.085637
11 Jun 2022 20:41:15.593,314.073,-25.313,1854.161600
11 Jun 2022 20:42:15.000,302.406,-27.023,1610.968594
11 Jun 2022 20:43:15.000,286.683,-28.694,1450.752995
11 Jun 2022 20:44:15.000,268.143,-29.258,1406.526360
11 Jun 2022 20:45:15.000,250.190,-28.248,1488.753993
11 Jun 2022 20:46:15.000,235.689,-26.463,1678.581454
11 Jun 2022 20:46:58.201,227.689,-25.260,1863.844646
12 Jun 2022 04:48:30.069,317.880,-25.260,1863.912659
12 Jun 2022 04:49:30.000,307.124,-27.265,1584.397842
12 Jun 2022 04:50:30.000,291.772,-29.604,1381.235605
12 Jun 2022 04:51:30.000,272.004,-30.974,1292.580920
12 Jun 2022 04:52:30.000,251.487,-30.182,1341.801724
12 Jun 2022 04:53:30.000,234.676,-27.955,1515.425552
12 Jun 2022 04:54:30.000,222.665,-25.770,1776.841548
12 Jun 2022 04:54:45.240,220.260,-25.319,1852.961654
12 Jun 2022 06:23:50.149,348.217,-25.259,1864.091967
12 Jun 2022 06:24:50.000,344.927,-28.482,1468.452105
12 Jun 2022 06:25:50.000,338.631,-35.133,1097.489991
12 Jun 2022 06:26:50.000,322.943,-48.148,791.971644
12 Jun 2022 06:27:50.000,271.042,-61.701,653.595585
12 Jun 2022 06:28:50.000,216.264,-49.126,778.072791
12 Jun 2022 06:29:50.000,199.524,-35.676,1077.603824
12 Jun 2022 06:30:50.000,192.936,-28.745,1446.526698
12 Jun 2022 06:31:50.000,189.518,-25.377,1842.596456
12 Jun 2022 06:31:50.917,189.479,-25.342,1848.762126
12 Jun 2022 07:59:24.125,16.073,-25.259,1864.152222
12 Jun 2022 08:00:24.000,21.388,-28.353,1479.543241
12 Jun 2022 08:01:24.000,31.161,-34.305,1129.853996
12 Jun 2022 08:02:24.000,52.155,-43.901,862.964391
12 Jun 2022 08:03:24.000,94.274,-49.581,771.882318
12 Jun 2022 08:04:24.000,131.953,-41.561,911.329805
12 Jun 2022 08:05:24.000,149.437,-32.648,1203.269154
12 Jun 2022 08:06:24.000,157.847,-27.462,1563.688741
12 Jun 2022 08:07:08.351,161.557,-25.333,1850.411136
12 Jun 2022 09:35:05.345,43.565,-25.259,1864.189481
12 Jun 2022 09:36:05.000,55.150,-27.128,1599.295059
12 Jun 2022 09:37:05.000,71.221,-29.090,1419.291884
12 Jun 2022 09:38:05.000,90.800,-29.886,1361.566679
12 Jun 2022 09:39:05.000,110.008,-28.812,1441.115357
12 Jun 2022 09:40:05.000,125.337,-26.792,1637.737839
12 Jun 2022 09:40:53.309,134.476,-25.301,1856.258203
12 Jun 2022 11:11:03.530,74.071,-25.259,1864.149914
12 Jun 2022 11:12:03.000,88.049,-25.611,1802.393243
12 Jun 2022 11:13:03.000,102.332,-25.370,1843.791644
12 Jun 2022 11:13:14.099,104.852,-25.267,1862.586551
12 Jun 2022 14:18:24.770,69.674,-25.272,1861.729081
12 Jun 2022 14:19:24.000,83.515,-25.868,1761.762669
12 Jun 2022 14:20:24.000,98.431,-25.846,1765.124714
12 Jun 2022 14:21:20.476,111.570,-25.259,1864.179769
12 Jun 2022 15:51:00.326,41.220,-25.307,1855.185316
12 Jun 2022 15:52:00.000,52.162,-27.426,1567.431462
12 Jun 2022 15:53:00.000,68.092,-29.932,1358.483208
12 Jun 2022 15:54:00.000,88.785,-31.340,1271.530870
12 Jun 2022 15:55:00.000,110.029,-30.347,1331.109754
12 Jun 2022 15:56:00.000,126.998,-27.907,1519.880393
12 Jun 2022 15:57:00.000,138.843,-25.644,1796.947127
12 Jun 2022 15:57:12.860,140.838,-25.259,1864.188276
12 Jun 2022 17:24:59.034,14.107,-25.337,1849.786859
12 Jun 2022 17:25:59.000,18.214,-28.637,1455.454914
12 Jun 2022 17:26:59.000,26.056,-35.307,1090.996205
12 Jun 2022 17:27:59.000,45.007,-47.511,801.469904
12 Jun 2022 17:28:59.000,95.496,-56.981,690.614357
12 Jun 2022 17:29:59.000,141.142,-45.528,833.511436
12 Jun 2022 17:30:59.000,157.661,-34.110,1137.869860
12 Jun 2022 17:31:59.000,164.764,-28.034,1508.083362
12 Jun 2022 17:32:52.925,168.283,-25.259,1864.147195
12 Jun 2022 19:00:32.420,345.914,-25.341,1849.034096
12 Jun 2022 19:01:32.000,341.183,-28.520,1465.185126
12 Jun 2022 19:02:32.000,332.332,-34.775,1111.176777
12 Jun 2022 19:03:32.000,312.396,-45.458,834.727570
12 Jun 2022 19:04:32.000,267.354,-52.880,731.490631
12 Jun 2022 19:05:32.000,225.920,-43.737,866.120612
12 Jun 2022 19:06:32.000,208.371,-33.636,1157.988603
12 Jun 2022 19:07:32.000,200.360,-27.926,1518.121741
12 Jun 2022 19:08:25.487,196.341,-25.259,1864.085362
12 Jun 2022 20:37:57.741,314.221,-25.313,1854.128494
12 Jun 2022 20:38:57.000,302.607,-27.027,1610.578944
12 Jun 2022 20:39:57.000,286.895,-28.714,1449.053725
12 Jun 2022 20:40:57.000,268.324,-29.299,1403.482820
12 Jun 2022 20:41:57.000,250.306,-28.294,1484.679843
12 Jun 2022 20:42:57.000,235.745,-26.499,1673.928834
12 Jun 2022 20:43:41.242,227.544,-25.260,1863.846338
13 Jun 2022 04:45:13.072,317.743,-25.260,1863.911681
13 Jun 2022 04:46:13.000,306.964,-27.258,1585.173238
13 Jun 2022 04:47:13.000,291.602,-29.580,1382.982863
13 Jun 2022 04:48:13.000,271.865,-30.927,1295.346880
13 Jun 2022 04:49:13.000,251.416,-30.129,1345.312149
13 Jun 2022 04:50:13.000,234.664,-27.914,1519.262815
13 Jun 2022 04:51:13.000,222.686,-25.745,1780.716426
13 Jun 2022 04:51:27.488,220.399,-25.319,1852.991358
13 Jun 2022 06:20:33.054,348.100,-25.259,1864.091556
13 Jun 2022 06:21:33.000,344.767,-28.487,1468.045852
13 Jun 2022 06:22:33.000,338.400,-35.133,1097.485795
13 Jun 2022 06:23:33.000,322.566,-48.099,792.696354
13 Jun 2022 06:24:33.000,270.794,-61.450,655.333901
13 Jun 2022 06:25:33.000,216.484,-48.970,780.233567
13 Jun 2022 06:26:33.000,199.704,-35.619,1079.652617
13 Jun 2022 06:27:33.000,193.072,-28.722,1448.402173
13 Jun 2022 06:28:33.000,189.626,-25.367,1844.330256
13 Jun 2022 06:28:33.660,189.597,-25.342,1848.765802
13 Jun 2022 07:56:06.995,15.960,-25.259,1864.152082
13 Jun 2022 07:57:06.000,21.144,-28.294,1484.661551
13 Jun 2022 07:58:06.000,30.768,-34.210,1133.744382
13 Jun 2022 07:59:06.000,51.461,-43.829,864.340607
13 Jun 2022 08:00:06.000,93.495,-49.779,769.230193
13 Jun 2022 08:01:06.000,131.698,-41.823,905.518572
13 Jun 2022 08:02:06.000,149.397,-32.796,1196.181395
13 Jun 2022 08:03:06.000,157.866,-27.536,1556.187107
13 Jun 2022 08:03:51.503,161.669,-25.333,1850.392300
13 Jun 2022 09:31:48.184,43.450,-25.259,1864.188316
13 Jun 2022 09:32:48.000,55.054,-27.139,1598.016342
13 Jun 2022 09:33:48.000,71.133,-29.114,1417.459209
13 Jun 2022 09:34:48.000,90.744,-29.920,1359.249083
13 Jun 2022 09:35:48.000,109.995,-28.844,1438.544169
13 Jun 2022 09:36:48.000,125.354,-26.814,1635.144115
13 Jun 2022 09:37:36.812,134.587,-25.302,1856.226826
13 Jun 2022 11:07:46.170,73.913,-25.259,1864.151223
13 Jun 2022 11:08:46.000,87.977,-25.618,1801.196998
13 Jun 2022 11:09:46.000,102.275,-25.379,1842.132718
13 Jun 2022 11:09:58.025,105.005,-25.267,1862.565166
13 Jun 2022 14:15:08.580,69.807,-25.272,1861.752134
13 Jun 2022 14:16:08.000,83.699,-25.862,1762.589336
13 Jun 2022 14:17:08.000,98.600,-25.832,1767.260534
13 Jun 2022 14:18:03.206,111.433,-25.259,1864.179354
13 Jun 2022 15:47:43.780,41.332,-25.307,1855.213038
13 Jun 2022 15:48:43.000,52.194,-27.401,1570.005477
13 Jun 2022 15:49:43.000,68.093,-29.893,1361.105043
13 Jun 2022 15:50:43.000,88.734,-31.297,1273.956113
13 Jun 2022 15:51:43.000,109.937,-30.317,1333.065198
13 Jun 2022 15:52:43.000,126.897,-27.892,1521.275728
13 Jun 2022 15:53:43.000,138.750,-25.639,1797.859322
13 Jun 2022 15:53:55.705,140.724,-25.259,1864.189017
13 Jun 2022 17:21:42.127,14.220,-25.337,1849.801193
13 Jun 2022 17:22:42.000,18.353,-28.627,1456.283089
13 Jun 2022 17:23:42.000,26.246,-35.277,1092.133150
13 Jun 2022 17:24:42.000,45.260,-47.406,803.068700
13 Jun 2022 17:25:42.000,95.475,-56.766,692.538523
13 Jun 2022 17:26:42.000,140.907,-45.432,835.171724
13 Jun 2022 17:27:42.000,157.483,-34.079,1139.140186
13 Jun 2022 17:28:42.000,164.632,-28.023,1509.086748
13 Jun 2022 17:29:35.799,168.170,-25.259,1864.148265
13 Jun 2022 18:57:15.094,346.035,-25.341,1849.025190
13 Jun 2022 18:58:15.000,341.305,-28.548,1462.845338
13 Jun 2022 18:59:15.000,332.478,-34.841,1108.625255
13 Jun 2022 19:00:15.000,312.512,-45.612,832.070679
13 Jun 2022 19:01:15.000,267.138,-53.074,729.334669
13 Jun 2022 19:02:15.000,225.606,-43.792,865.062525
13 Jun 2022 19:03:15.000,208.152,-33.641,1157.781124
13 Jun 2022 19:04:15.000,200.203,-27.923,1518.417758
13 Jun 2022 19:05:08.399,196.222,-25.259,1864.085070
13 Jun 2022 20:34:39.891,314.368,-25.313,1854.095352
13 Jun 2022 20:35:39.000,302.809,-27.030,1610.207123
13 Jun 2022 20:36:39.000,287.108,-28.735,1447.370664
13 Jun 2022 20:37:39.000,268.506,-29.339,1400.449612
13 Jun 2022 20:38:39.000,250.423,-28.341,1480.608680
13 Jun 2022 20:39:39.000,235.801,-26.535,1669.274169
13 Jun 2022 20:40:24.282,227.400,-25.260,1863.848070
14 Jun 2022 04:41:56.076,317.606,-25.260,1863.910699
14 Jun 2022 04:42:56.000,306.805,-27.250,1585.954309
14 Jun 2022 04:43:56.000,291.433,-29.555,1384.736729
14 Jun 2022 04:44:56.000,271.726,-30.881,1298.118317
14 Jun 2022 04:45:56.000,251.344,-30.076,1348.826239
14 Jun 2022 04:46:56.000,234.652,-27.873,1523.103351
14 Jun 2022 04:47:56.000,222.707,-25.721,1784.595262
14 Jun 2022 04:48:09.734,220.539,-25.319,1853.021115
14 Jun 2022 06:17:15.958,347.982,-25.259,1864.091142
14 Jun 2022 06:18:15.000,344.680,-28.416,1474.094018
14 Jun 2022 06:19:15.000,338.322,-34.980,1103.289682
14 Jun 2022 06:20:15.000,322.632,-47.773,797.518337
14 Jun 2022 06:21:15.000,271.806,-61.179,657.239830
14 Jun 2022 06:22:15.000,217.180,-49.095,778.499345
14 Jun 2022 06:23:15.000,200.046,-35.721,1075.976852
14 Jun 2022 06:24:15.000,193.285,-28.778,1443.860284
14 Jun 2022 06:25:15.000,189.777,-25.395,1839.357485
14 Jun 2022 06:25:16.401,189.716,-25.342,1848.771210
14 Jun 2022 07:52:49.865,15.847,-25.259,1864.151941
14 Jun 2022 07:53:49.000,21.014,-28.307,1483.570847
14 Jun 2022 07:54:49.000,30.601,-34.245,1132.295567
14 Jun 2022 07:55:49.000,51.278,-43.931,862.406767
14 Jun 2022 07:56:49.000,93.515,-49.947,767.013473
14 Jun 2022 07:57:49.000,131.875,-41.911,903.594511
14 Jun 2022 07:58:49.000,149.551,-32.828,1194.690453
14 Jun 2022 07:59:49.000,157.986,-27.547,1555.012050
14 Jun 2022 08:00:34.653,161.781,-25.334,1850.373456
14 Jun 2022 09:28:31.023,43.336,-25.259,1864.187162
14 Jun 2022 09:29:31.000,54.958,-27.151,1596.735281
14 Jun 2022 09:30:31.000,71.044,-29.138,1415.624245
14 Jun 2022 09:31:31.000,90.688,-29.955,1356.929244
14 Jun 2022 09:32:31.000,109.983,-28.877,1435.971517
14 Jun 2022 09:33:31.000,125.372,-26.836,1632.550349
14 Jun 2022 09:34:20.313,134.699,-25.302,1856.192266
14 Jun 2022 11:04:28.814,73.756,-25.259,1864.152484
14 Jun 2022 11:05:28.000,87.664,-25.624,1800.212253
14 Jun 2022 11:06:28.000,101.987,-25.397,1838.954814
14 Jun 2022 11:06:41.946,105.158,-25.267,1862.543667
14 Jun 2022 14:11:52.392,69.941,-25.271,1861.775123
14 Jun 2022 14:12:52.000,83.883,-25.857,1763.427482
14 Jun 2022 14:13:52.000,98.768,-25.818,1769.405057
14 Jun 2022 14:14:45.934,111.295,-25.259,1864.178933
14 Jun 2022 15:44:27.234,41.443,-25.307,1855.240779
14 Jun 2022 15:45:27.000,52.446,-27.417,1568.330989
14 Jun 2022 15:46:27.000,68.403,-29.892,1361.162301
14 Jun 2022 15:47:27.000,89.047,-31.258,1276.147104
14 Jun 2022 15:48:27.000,110.170,-30.253,1337.190379
14 Jun 2022 15:49:27.000,127.032,-27.836,1526.661720
14 Jun 2022 15:50:27.000,138.818,-25.602,1803.902505
14 Jun 2022 15:50:38.550,140.610,-25.259,1864.189734
14 Jun 2022 17:18:25.221,14.333,-25.337,1849.815609
14 Jun 2022 17:19:25.000,18.492,-28.617,1457.121883
14 Jun 2022 17:20:25.000,26.436,-35.246,1093.281956
14 Jun 2022 17:21:25.000,45.510,-47.301,804.679598
14 Jun 2022 17:22:25.000,95.454,-56.552,694.472147
14 Jun 2022 17:23:25.000,140.673,-45.336,836.838514
14 Jun 2022 17:24:25.000,157.306,-34.048,1140.414431
14 Jun 2022 17:25:25.000,164.500,-28.012,1510.092073
14 Jun 2022 17:26:18.673,168.057,-25.259,1864.149320
14 Jun 2022 18:53:57.770,346.155,-25.341,1849.016386
14 Jun 2022 18:54:57.000,341.530,-28.502,1466.771792
14 Jun 2022 18:55:57.000,332.830,-34.765,1111.542487
14 Jun 2022 18:56:57.000,313.139,-45.562,832.941176
14 Jun 2022 18:57:57.000,267.830,-53.297,726.892212
14 Jun 2022 18:58:57.000,225.736,-44.051,860.124126
14 Jun 2022 18:59:57.000,208.118,-33.775,1151.972052
14 Jun 2022 19:00:57.000,200.140,-27.987,1512.403212
14 Jun 2022 19:01:51.312,196.103,-25.259,1864.084761
14 Jun 2022 20:31:22.043,314.515,-25.313,1854.062184
14 Jun 2022 20:32:22.000,302.783,-27.065,1606.328762
14 Jun 2022 20:33:22.000,287.029,-28.778,1443.878573
14 Jun 2022 20:34:22.000,268.372,-29.376,1397.714546
14 Jun 2022 20:35:22.000,250.263,-28.361,1478.866836
14 Jun 2022 20:36:22.000,235.648,-26.542,1668.491527
14 Jun 2022 20:37:07.322,227.255,-25.260,1863.856637
15 Jun 2022 04:38:39.080,317.468,-25.260,1863.909713
15 Jun 2022 04:39:39.000,306.645,-27.243,1586.741581
15 Jun 2022 04:40:39.000,291.264,-29.531,1386.497677
15 Jun 2022 04:41:39.000,271.588,-30.834,1300.895609
15 Jun 2022 04:42:39.000,251.273,-30.023,1352.344245
15 Jun 2022 04:43:39.000,234.639,-27.833,1526.947277
15 Jun 2022 04:44:39.000,222.727,-25.697,1788.478061
15 Jun 2022 04:44:51.976,220.678,-25.319,1853.050925
15 Jun 2022 06:13:58.863,347.865,-25.259,1864.090727
15 Jun 2022 06:14:58.000,344.521,-28.421,1473.690533
15 Jun 2022 06:15:58.000,338.092,-34.980,1103.292462
15 Jun 2022 06:16:58.000,322.261,-47.724,798.254957
15 Jun 2022 06:17:58.000,271.553,-60.932,658.997856
15 Jun 2022 06:18:58.000,217.394,-48.938,780.691012
15 Jun 2022 06:19:58.000,200.226,-35.663,1078.057161
15 Jun 2022 06:20:58.000,193.421,-28.755,1445.764198
15 Jun 2022 06:21:58.000,189.885,-25.385,1841.116838
15 Jun 2022 06:21:59.140,189.835,-25.342,1848.776741
15 Jun 2022 07:49:32.734,15.735,-25.259,1864.151800
15 Jun 2022 07:50:32.000,20.883,-28.319,1482.480529
15 Jun 2022 07:51:32.000,30.433,-34.280,1130.848780
15 Jun 2022 07:52:32.000,51.094,-44.032,860.476711
15 Jun 2022 07:53:32.000,93.536,-50.116,764.802831
15 Jun 2022 07:54:32.000,132.054,-41.999,901.679740
15 Jun 2022 07:55:32.000,149.706,-32.859,1193.209832
15 Jun 2022 07:56:32.000,158.107,-27.559,1553.847001
15 Jun 2022 07:57:17.802,161.893,-25.334,1850.354602
15 Jun 2022 09:25:13.862,43.221,-25.259,1864.186014
15 Jun 2022 09:26:13.000,54.633,-27.128,1599.315488
15 Jun 2022 09:27:13.000,70.650,-29.134,1415.899458
15 Jun 2022 09:28:13.000,90.293,-29.991,1354.454524
15 Jun 2022 09:29:13.000,109.675,-28.939,1431.022859
15 Jun 2022 09:30:13.000,125.171,-26.893,1625.915026
15 Jun 2022 09:31:03.814,134.811,-25.302,1856.164264
15 Jun 2022 11:01:11.460,73.600,-25.259,1864.153701
15 Jun 2022 11:02:11.000,87.591,-25.632,1799.017489
15 Jun 2022 11:03:11.000,101.929,-25.407,1837.295699
15 Jun 2022 11:03:25.863,105.310,-25.267,1862.522045
15 Jun 2022 14:08:36.206,70.075,-25.271,1861.798044
15 Jun 2022 14:09:36.000,84.066,-25.851,1764.276748
15 Jun 2022 14:10:36.000,98.936,-25.804,1771.557808
15 Jun 2022 14:11:28.662,111.157,-25.259,1864.178505
15 Jun 2022 15:41:10.690,41.554,-25.307,1855.268537
15 Jun 2022 15:42:10.000,52.477,-27.392,1570.906792
15 Jun 2022 15:43:10.000,68.402,-29.854,1363.780238
15 Jun 2022 15:44:10.000,88.995,-31.216,1278.562230
15 Jun 2022 15:45:10.000,110.078,-30.223,1339.133060
15 Jun 2022 15:46:10.000,126.931,-27.821,1528.045189
15 Jun 2022 15:47:10.000,138.726,-25.596,1804.804464
15 Jun 2022 15:47:21.394,140.497,-25.259,1864.190429
15 Jun 2022 17:15:08.317,14.445,-25.337,1849.830104
15 Jun 2022 17:16:08.000,18.631,-28.606,1457.971562
15 Jun 2022 17:17:08.000,26.624,-35.214,1094.442785
15 Jun 2022 17:18:08.000,45.757,-47.196,806.302550
15 Jun 2022 17:19:08.000,95.432,-56.340,696.414895
15 Jun 2022 17:20:08.000,140.441,-45.240,838.511318
15 Jun 2022 17:21:08.000,157.130,-34.018,1141.692082
15 Jun 2022 17:22:08.000,164.368,-28.001,1511.098828
15 Jun 2022 17:23:01.547,167.944,-25.259,1864.150363
15 Jun 2022 18:50:40.448,346.275,-25.341,1849.007687
15 Jun 2022 18:51:40.000,341.652,-28.529,1464.456658
15 Jun 2022 18:52:40.000,332.978,-34.830,1109.016997
15 Jun 2022 18:53:40.000,313.261,-45.716,830.306707
15 Jun 2022 18:54:40.000,267.615,-53.495,724.748361
15 Jun 2022 18:55:40.000,225.418,-44.107,859.074881
15 Jun 2022 18:56:40.000,207.897,-33.780,1151.771420
15 Jun 2022 18:57:40.000,199.982,-27.984,1512.703186
15 Jun 2022 18:58:34.224,195.984,-25.259,1864.084432
15 Jun 2022 20:28:04.197,314.662,-25.313,1854.035554
15 Jun 2022 20:29:04.000,302.985,-27.068,1605.974307
15 Jun 2022 20:30:04.000,287.244,-28.799,1442.206401
15 Jun 2022 20:31:04.000,268.556,-29.418,1394.682608
15 Jun 2022 20:32:04.000,250.381,-28.408,1474.789159
15 Jun 2022 20:33:04.000,235.705,-26.579,1663.826947
15 Jun 2022 20:33:50.358,227.111,-25.260,1863.851696
16 Jun 2022 04:35:22.086,317.331,-25.260,1863.908725
16 Jun 2022 04:36:22.000,306.485,-27.236,1587.535494
16 Jun 2022 04:37:22.000,291.095,-29.506,1388.266027
16 Jun 2022 04:38:22.000,271.450,-30.788,1303.678908
16 Jun 2022 04:39:22.000,251.202,-29.970,1355.866147
16 Jun 2022 04:40:22.000,234.627,-27.793,1530.794424
16 Jun 2022 04:41:22.000,222.748,-25.673,1792.364544
16 Jun 2022 04:41:34.216,220.818,-25.319,1853.080790
16 Jun 2022 06:10:41.768,347.747,-25.259,1864.090309
16 Jun 2022 06:11:41.000,344.361,-28.425,1473.291676
16 Jun 2022 06:12:41.000,337.862,-34.979,1103.303869
16 Jun 2022 06:13:41.000,321.890,-47.674,799.005932
16 Jun 2022 06:14:41.000,271.305,-60.686,660.773087
16 Jun 2022 06:15:41.000,217.605,-48.780,782.898059
16 Jun 2022 06:16:41.000,200.404,-35.605,1080.151203
16 Jun 2022 06:17:41.000,193.556,-28.731,1447.680388
16 Jun 2022 06:18:41.000,189.993,-25.375,1842.887286
16 Jun 2022 06:18:41.878,189.953,-25.342,1848.782395
16 Jun 2022 07:46:15.604,15.622,-25.259,1864.151659
16 Jun 2022 07:47:15.000,20.753,-28.332,1481.391036
16 Jun 2022 07:48:15.000,30.265,-34.316,1129.404396
16 Jun 2022 07:49:15.000,50.908,-44.135,858.550675
16 Jun 2022 07:50:15.000,93.558,-50.286,762.598250
